[
  {
    "latitude": -2.10139,
    "longitude": 48.44444,
    "name": "Aéroport",
    "city": "Dinan",
    "description": "Trevilan (LFEB)"
  },
  {
    "latitude": 2.63889,
    "longitude": 47.05694,
    "name": "Aéroport",
    "city": "Avord (LFOA)",
    "description": ""
  },
  {
    "latitude": 5.41,
    "longitude": 44.77222,
    "name": "Aéroport",
    "city": "La Motte Chalanéon-Aix en Diois",
    "description": "LF2625"
  },
  {
    "latitude": 4.36806,
    "longitude": 49.11194,
    "name": "Aéroport",
    "city": "Mourmelon (LFXM)",
    "description": ""
  },
  {
    "latitude": 6.07,
    "longitude": 44.31556,
    "name": "Aéroport",
    "city": "Clamensane",
    "description": "LF0421"
  },
  {
    "latitude": -1.19528,
    "longitude": 46.17917,
    "name": "Aéroport",
    "city": "La Rochelle",
    "description": "Ile de Ré (LFBH)"
  },
  {
    "latitude": 0.94306,
    "longitude": 46.06389,
    "name": "Aéroport",
    "city": "Nouic",
    "description": "LF8725"
  },
  {
    "latitude": -0.74278,
    "longitude": 48.03222,
    "name": "Aéroport",
    "city": "Laval",
    "description": "Entrammes (LFOV)"
  },
  {
    "latitude": 6.70278,
    "longitude": 43.60889,
    "name": "Aéroport",
    "city": "Fayence (LFMF)",
    "description": ""
  },
  {
    "latitude": 6.30778,
    "longitude": 44.11667,
    "name": "Aéroport",
    "city": "Marcoux",
    "description": "LF0427"
  },
  {
    "latitude": -0.95,
    "longitude": 46.12222,
    "name": "Aéroport",
    "city": "Aigrefeuille d'Aunis",
    "description": "LF1752"
  },
  {
    "latitude": 1.63278,
    "longitude": 48.45166,
    "name": "Aéroport",
    "city": "Houville La Branche",
    "description": "LF2851"
  },
  {
    "latitude": 1.61861,
    "longitude": 44.74417,
    "name": "Aéroport",
    "city": "Bigues Carlucet",
    "description": "LF4630"
  },
  {
    "latitude": 1.48778,
    "longitude": 43.82806,
    "name": "Aéroport",
    "city": "Villematier",
    "description": "LF3140"
  },
  {
    "latitude": 4.71472,
    "longitude": 46.14278,
    "name": "Aéroport",
    "city": "Belleville",
    "description": "Villié-Morgon (LFHW)"
  },
  {
    "latitude": 5.7775,
    "longitude": 45.08,
    "name": "Aéroport",
    "city": "Vizille",
    "description": "LF3865"
  },
  {
    "latitude": 2.52778,
    "longitude": 46.68667,
    "name": "Aéroport",
    "city": "Ainy le Vieil (la Suchére)",
    "description": "LF1824"
  },
  {
    "latitude": 3.41361,
    "longitude": 43.50583,
    "name": "Aéroport",
    "city": "Pézenas",
    "description": "Nizas (LFNP)"
  },
  {
    "latitude": 4.41361,
    "longitude": 43.85389,
    "name": "Aéroport",
    "city": "Némes",
    "description": "Courbessac (LFME)"
  },
  {
    "latitude": -1.11472,
    "longitude": 44.59861,
    "name": "Aéroport",
    "city": "Arcachon",
    "description": "La Teste de Buch (LFCH)"
  },
  {
    "latitude": -0.29028,
    "longitude": 43.23694,
    "name": "Aéroport",
    "city": "Bordes",
    "description": "LF6423"
  },
  {
    "latitude": 6.365,
    "longitude": 47.78722,
    "name": "Aéroport",
    "city": "Luxeuil Saint Sauveur (LFSX)",
    "description": ""
  },
  {
    "latitude": -0.87722,
    "longitude": 47.08194,
    "name": "Aéroport",
    "city": "Chalet",
    "description": "Le Pointreau (LFOU)"
  },
  {
    "latitude": 1.08749,
    "longitude": 46.62083,
    "name": "Aéroport",
    "city": "Le Blanc",
    "description": "LFEL"
  },
  {
    "latitude": 1.95833,
    "longitude": 46.17917,
    "name": "Aéroport",
    "city": "Gueret",
    "description": "Saint Laurent (LFCE)"
  },
  {
    "latitude": -0.10556,
    "longitude": 47.11583,
    "name": "Aéroport",
    "city": "Montreuil-Bellay",
    "description": "LF4952"
  },
  {
    "latitude": 3.83333,
    "longitude": 48.66,
    "name": "Aéroport",
    "city": "Marigny le Grand",
    "description": "LF5121"
  },
  {
    "latitude": 1.27916,
    "longitude": 48.43889,
    "name": "Aéroport",
    "city": "Loulappe",
    "description": "LF2823"
  },
  {
    "latitude": 4.4825,
    "longitude": 48.43083,
    "name": "Aéroport",
    "city": "Brienne Le Chateau (LFFN)",
    "description": ""
  },
  {
    "latitude": 5.08111,
    "longitude": 45.72556,
    "name": "Aéroport",
    "city": "Lyon",
    "description": "Saint Exupéry (LFLL)"
  },
  {
    "latitude": -0.9825,
    "longitude": 45.88944,
    "name": "Aéroport",
    "city": "Rochefort",
    "description": "Saint Agnant (LFDN)"
  },
  {
    "latitude": 3.76361,
    "longitude": 45.07972,
    "name": "Aéroport",
    "city": "Le Puy",
    "description": "Loudes (LFHP)"
  },
  {
    "latitude": 1.43472,
    "longitude": 44.08528,
    "name": "Aéroport",
    "city": "Albias",
    "description": "LF8221"
  },
  {
    "latitude": 2.29056,
    "longitude": 43.555,
    "name": "Aéroport",
    "city": "Castres",
    "description": "Mazamet (LFCK)"
  },
  {
    "latitude": 0.10139,
    "longitude": 47.03722,
    "name": "Aéroport",
    "city": "Loudun (LFDL)",
    "description": ""
  },
  {
    "latitude": 4.93889,
    "longitude": 45.72944,
    "name": "Aéroport",
    "city": "Lyon",
    "description": "Bron (LFLY)"
  },
  {
    "latitude": 5.625,
    "longitude": 44.95,
    "name": "Aéroport",
    "city": "Grisail",
    "description": "LF3867"
  },
  {
    "latitude": 1.18389,
    "longitude": 49.39111,
    "name": "Aéroport",
    "city": "Rouen",
    "description": "Vallée de Seine (LFOP)"
  },
  {
    "latitude": 5.90611,
    "longitude": 44.66889,
    "name": "Aéroport",
    "city": "St Etienne en Devoluy",
    "description": "LFNY"
  },
  {
    "latitude": 0.2675,
    "longitude": 45.85167,
    "name": "Aéroport",
    "city": "St. Ciers",
    "description": "LF1653"
  },
  {
    "latitude": 5.90417,
    "longitude": 43.92083,
    "name": "Aéroport",
    "city": "Oraison",
    "description": "LF0451"
  },
  {
    "latitude": 6.41944,
    "longitude": 45.12111,
    "name": "Aéroport",
    "city": "Valloire Bonnenuit",
    "description": "LF7332"
  },
  {
    "latitude": 0.0875,
    "longitude": 48.26667,
    "name": "Aéroport",
    "city": "Piacé",
    "description": "LF7228"
  },
  {
    "latitude": 1.65833,
    "longitude": 44.0875,
    "name": "Aéroport",
    "city": "Bruniquel",
    "description": "LF8224"
  },
  {
    "latitude": 1.90889,
    "longitude": 48.84361,
    "name": "Aéroport",
    "city": "Beynes Thivernal (LFPF)",
    "description": ""
  },
  {
    "latitude": -0.03278,
    "longitude": 43.76972,
    "name": "Aéroport",
    "city": "Nogaro (LFCN)",
    "description": ""
  },
  {
    "latitude": -0.25833,
    "longitude": 44.68306,
    "name": "Aéroport",
    "city": "Arbis",
    "description": "LF3352"
  },
  {
    "latitude": 6.80139,
    "longitude": 45.25639,
    "name": "Aéroport",
    "city": "Sollieres Sardieres (LFKD)",
    "description": ""
  },
  {
    "latitude": 1.05472,
    "longitude": 48.39306,
    "name": "Aéroport",
    "city": "Champrond-Le Petit Bois Landry",
    "description": "LF2822"
  },
  {
    "latitude": 6.26944,
    "longitude": 46.19194,
    "name": "Aéroport",
    "city": "Annemasse (LFLI)",
    "description": ""
  },
  {
    "latitude": -1.16333,
    "longitude": 44.14694,
    "name": "Aéroport",
    "city": "Mimizan",
    "description": "LFCZ)"
  },
  {
    "latitude": 1.0043,
    "longitude": 47.83337,
    "name": "Aéroport",
    "city": "Aze - Vendome",
    "description": "LF4154"
  },
  {
    "latitude": 0.99528,
    "longitude": 43.15556,
    "name": "Aéroport",
    "city": "Balesta",
    "description": "LF3153"
  },
  {
    "latitude": 5.29194,
    "longitude": 46.20556,
    "name": "Aéroport",
    "city": "Bourg",
    "description": "Ceyzeriat (LFHS)"
  },
  {
    "latitude": 0.87278,
    "longitude": 45.29806,
    "name": "Aéroport",
    "city": "Ligueux",
    "description": "LF2450"
  },
  {
    "latitude": 8.895,
    "longitude": 41.66139,
    "name": "Aéroport",
    "city": "Propriano (LFKO)",
    "description": ""
  },
  {
    "latitude": -0.63444,
    "longitude": 46.80333,
    "name": "Aéroport",
    "city": "Montigny",
    "description": "LF7927"
  },
  {
    "latitude": 6.20778,
    "longitude": 48.72444,
    "name": "Aéroport",
    "city": "Nancy",
    "description": "Malzeville (LFEZ)"
  },
  {
    "latitude": 2.44167,
    "longitude": 48.96944,
    "name": "Aéroport",
    "city": "Paris",
    "description": "Le Bourget (LFPB)"
  },
  {
    "latitude": 5.76778,
    "longitude": 43.13806,
    "name": "Aéroport",
    "city": "LF83BAN",
    "description": "LF8323"
  },
  {
    "latitude": 1.46528,
    "longitude": 45.87917,
    "name": "Aéroport",
    "city": "Bassoleil",
    "description": "LF8751"
  },
  {
    "latitude": 1.21194,
    "longitude": 48.37944,
    "name": "Aéroport",
    "city": "Cernay",
    "description": "LF2821"
  },
  {
    "latitude": 3.07556,
    "longitude": 50.68722,
    "name": "Aéroport",
    "city": "Marq en Baroeul (LFQO)",
    "description": ""
  },
  {
    "latitude": 2.75,
    "longitude": 44.47917,
    "name": "Aéroport",
    "city": "Bozouls",
    "description": "LF1251"
  },
  {
    "latitude": 1.55333,
    "longitude": 43.965,
    "name": "Aéroport",
    "city": "Leguille",
    "description": "LF8253"
  },
  {
    "latitude": 2.01083,
    "longitude": 42.44722,
    "name": "Aéroport",
    "city": "Sainte Leocadie (LFYS)",
    "description": ""
  },
  {
    "latitude": -1.10278,
    "longitude": 43.50972,
    "name": "Aéroport",
    "city": "Came",
    "description": "LF6424"
  },
  {
    "latitude": 3.05,
    "longitude": 43.19167,
    "name": "Aéroport",
    "city": "Narbonne",
    "description": "LF1121"
  },
  {
    "latitude": -4.16806,
    "longitude": 47.975,
    "name": "Aéroport",
    "city": "Quimper Pluguffan (LFRQ)",
    "description": ""
  },
  {
    "latitude": 1.14222,
    "longitude": 44.99306,
    "name": "Aéroport",
    "city": "Galinat Tamnies les Eyzies",
    "description": "LF2461"
  },
  {
    "latitude": 3.39194,
    "longitude": 47.995,
    "name": "Aéroport",
    "city": "Joigny (LFGK)",
    "description": ""
  },
  {
    "latitude": 0.19056,
    "longitude": 46.27278,
    "name": "Aéroport",
    "city": "Couhe Verac (LFDV)",
    "description": ""
  },
  {
    "latitude": 6.18389,
    "longitude": 44.65444,
    "name": "Aéroport",
    "city": "Chabottes",
    "description": "LF0533"
  },
  {
    "latitude": 5.68833,
    "longitude": 44.79056,
    "name": "Aéroport",
    "city": "Prébois",
    "description": "LF3831"
  },
  {
    "latitude": 6.43528,
    "longitude": 48.85694,
    "name": "Aéroport",
    "city": "Fresnes",
    "description": "LF5722"
  },
  {
    "latitude": 0.07861,
    "longitude": 43.21611,
    "name": "Aéroport",
    "city": "Tarbes",
    "description": "Laloubere; (LFDT)"
  },
  {
    "latitude": 5.30306,
    "longitude": 44.35361,
    "name": "Aéroport",
    "city": "Ste Jalle",
    "description": "LF2634"
  },
  {
    "latitude": 1.27583,
    "longitude": 48.5675,
    "name": "Aéroport",
    "city": "Chateauneuf en Thymerais",
    "description": "LF2852"
  },
  {
    "latitude": -0.56028,
    "longitude": 43.16472,
    "name": "Aéroport",
    "city": "Oloron",
    "description": "Herrere (LFCO)"
  },
  {
    "latitude": 1.775,
    "longitude": 47.70333,
    "name": "Aéroport",
    "city": "Ligny",
    "description": "LF4524"
  },
  {
    "latitude": 5.968,
    "longitude": 45.3683,
    "name": "Aéroport",
    "city": "St Vincent de Mercuze",
    "description": "LF3853"
  },
  {
    "latitude": 2.34333,
    "longitude": 48.49778,
    "name": "Aéroport",
    "city": "La Ferté Alais (LFFQ)",
    "description": ""
  },
  {
    "latitude": 6.32222,
    "longitude": 45.10833,
    "name": "Aéroport",
    "city": "Glacier Lombard La Grave",
    "description": "LF0523"
  },
  {
    "latitude": 1.37944,
    "longitude": 48.05806,
    "name": "Aéroport",
    "city": "Chateaudun (LFOC)",
    "description": ""
  },
  {
    "latitude": 1.71944,
    "longitude": 43.21556,
    "name": "Aéroport",
    "city": "Sarrat",
    "description": "LF0951"
  },
  {
    "latitude": 6.12167,
    "longitude": 45.70833,
    "name": "Aéroport",
    "city": "La Motte en Bauges",
    "description": "LF7356"
  },
  {
    "latitude": 1.42333,
    "longitude": 44.88583,
    "name": "Aéroport",
    "city": "Peyrillac",
    "description": "LF2443"
  },
  {
    "latitude": 0.67167,
    "longitude": 46.68917,
    "name": "Aéroport",
    "city": "Archigny Chenevelles",
    "description": "LF8627"
  },
  {
    "latitude": 9.40194,
    "longitude": 42.055,
    "name": "Aéroport",
    "city": "Ghisonaccia",
    "description": "Alzitone (LFKG)"
  },
  {
    "latitude": 7.63722,
    "longitude": 48.54361,
    "name": "Aéroport",
    "city": "Strasbourg",
    "description": "Entzeim (LFST)"
  },
  {
    "latitude": 0.27222,
    "longitude": 42.83611,
    "name": "Aéroport",
    "city": "La Serre d'Aulon",
    "description": "LF6525"
  },
  {
    "latitude": 0.72028,
    "longitude": 47.08417,
    "name": "Aéroport",
    "city": "Bournan",
    "description": "LF3751"
  },
  {
    "latitude": 3.25306,
    "longitude": 43.27639,
    "name": "Aéroport",
    "city": "Sérignan",
    "description": "LF3424"
  },
  {
    "latitude": 2.05611,
    "longitude": 42.91139,
    "name": "Aéroport",
    "city": "Puivert (LFNW)",
    "description": ""
  },
  {
    "latitude": 1.50053,
    "longitude": 44.08075,
    "name": "Aéroport",
    "city": "Les Gardios - Négrepelisse",
    "description": "LF8254"
  },
  {
    "latitude": 4.85332,
    "longitude": 48.43528,
    "name": "Aéroport",
    "city": "Sommevoire",
    "description": "LF5251"
  },
  {
    "latitude": 0.2325,
    "longitude": 44.62028,
    "name": "Aéroport",
    "city": "Lévignac de Guyenne",
    "description": "LF4736"
  },
  {
    "latitude": 6.14583,
    "longitude": 45.0875,
    "name": "Aéroport",
    "city": "Col de Sarenne",
    "description": "LF3825"
  },
  {
    "latitude": 1.56944,
    "longitude": 47.75361,
    "name": "Aéroport",
    "city": "Beaugency",
    "description": "LF4553"
  },
  {
    "latitude": 1.95139,
    "longitude": 50.96111,
    "name": "Aéroport",
    "city": "Calais",
    "description": "Dunkerque (LFAC)"
  },
  {
    "latitude": 4.33333,
    "longitude": 47.36667,
    "name": "Aéroport",
    "city": "Vic",
    "description": "LF2125"
  },
  {
    "latitude": 5.215,
    "longitude": 43.43667,
    "name": "Aéroport",
    "city": "Marseille",
    "description": "Provence (LFML)"
  },
  {
    "latitude": 4.02111,
    "longitude": 46.40667,
    "name": "Aéroport",
    "city": "Saint Yan (LFLN)",
    "description": ""
  },
  {
    "latitude": 1.23306,
    "longitude": 45.44722,
    "name": "Aéroport",
    "city": "La Bregére",
    "description": "LF2446"
  },
  {
    "latitude": 5.31444,
    "longitude": 44.54222,
    "name": "Aéroport",
    "city": "Aubenasson-Faucon",
    "description": "LF2621"
  },
  {
    "latitude": 2.1925,
    "longitude": 48.15722,
    "name": "Aéroport",
    "city": "Pithiviers (LFFP)",
    "description": ""
  },
  {
    "latitude": -0.74056,
    "longitude": 43.12444,
    "name": "Aéroport",
    "city": "Escary Aramits",
    "description": "LF6428"
  },
  {
    "latitude": 7.16667,
    "longitude": 49.04666,
    "name": "Aéroport",
    "city": "L'oiseau Blanc-Achen",
    "description": "LF5751"
  },
  {
    "latitude": 4.44167,
    "longitude": 48.08972,
    "name": "Aéroport",
    "city": "Ville sur Arce",
    "description": "LF1022"
  },
  {
    "latitude": 2.58333,
    "longitude": 45.76667,
    "name": "Aéroport",
    "city": "La Rochette Sauvagnat",
    "description": "LF6323"
  },
  {
    "latitude": 3.75972,
    "longitude": 43.57167,
    "name": "Aéroport",
    "city": "Pignan",
    "description": "LF3461"
  },
  {
    "latitude": 0.9475,
    "longitude": 46.39056,
    "name": "Aéroport",
    "city": "Montmorillon",
    "description": "LF8651"
  },
  {
    "latitude": 0.65583,
    "longitude": 49.83528,
    "name": "Aéroport",
    "city": "Saint Valery Vittefleur (LFOS)",
    "description": ""
  },
  {
    "latitude": 0.655,
    "longitude": 49.83611,
    "name": "Aéroport",
    "city": "St Valéry Vittefleur",
    "description": "LFOS"
  },
  {
    "latitude": 2.50333,
    "longitude": 46.87694,
    "name": "Aéroport",
    "city": "Dun sur Auron",
    "description": "LF1852"
  },
  {
    "latitude": 2.06056,
    "longitude": 47.82722,
    "name": "Aéroport",
    "city": "Sandillon",
    "description": "LF4551"
  },
  {
    "latitude": 3.46667,
    "longitude": 44.28639,
    "name": "Aéroport",
    "city": "Florac",
    "description": "Sainte Enimie (LFNO)"
  },
  {
    "latitude": 6.34889,
    "longitude": 43.61944,
    "name": "Aéroport",
    "city": "Ampus",
    "description": "LF8327"
  },
  {
    "latitude": 0.60833,
    "longitude": 43.34722,
    "name": "Aéroport",
    "city": "Manent Montane",
    "description": "LF3227"
  },
  {
    "latitude": 3.27667,
    "longitude": 48.75583,
    "name": "Aéroport",
    "city": "La Ferté Gaucher (LFFG)",
    "description": ""
  },
  {
    "latitude": 2.41806,
    "longitude": 50.62056,
    "name": "Aéroport",
    "city": "Aire sur la Lys",
    "description": "LF6222"
  },
  {
    "latitude": -0.52139,
    "longitude": 48.30056,
    "name": "Aéroport",
    "city": "Aron les Ecottays",
    "description": "LF5322"
  },
  {
    "latitude": 1.96667,
    "longitude": 44.1075,
    "name": "Aéroport",
    "city": "Bournazel",
    "description": "LF8121"
  },
  {
    "latitude": 6.71528,
    "longitude": 48.77528,
    "name": "Aéroport",
    "city": "Dieuze",
    "description": "Gueblange (LFQZ)"
  },
  {
    "latitude": 1.26361,
    "longitude": 43.44917,
    "name": "Aéroport",
    "city": "Muret L'Herm (LFBR)",
    "description": ""
  },
  {
    "latitude": 6.45167,
    "longitude": 45.635,
    "name": "Aéroport",
    "city": "La Bathie",
    "description": "LF7358"
  },
  {
    "latitude": 4.68889,
    "longitude": 43.77917,
    "name": "Aéroport",
    "city": "Tarascon",
    "description": "LF1351"
  },
  {
    "latitude": 4.82083,
    "longitude": 48.115,
    "name": "Aéroport",
    "city": "Juvancourt (LFQX)",
    "description": ""
  },
  {
    "latitude": 3.27028,
    "longitude": 46.36833,
    "name": "Aéroport",
    "city": "Verneuil en Boubonnais",
    "description": "LF0354"
  },
  {
    "latitude": 5.77222,
    "longitude": 46.38889,
    "name": "Aéroport",
    "city": "Saint Claude",
    "description": "Pratz (LFKZ)"
  },
  {
    "latitude": 6.63361,
    "longitude": 45.39667,
    "name": "Aéroport",
    "city": "Courchevel (LFLJ)",
    "description": ""
  },
  {
    "latitude": 5.28667,
    "longitude": 46.09583,
    "name": "Aéroport",
    "city": "La Trancliére",
    "description": "LF0121"
  },
  {
    "latitude": 0.73778,
    "longitude": 46.89111,
    "name": "Aéroport",
    "city": "La Guerche",
    "description": "LF3725"
  },
  {
    "latitude": 2.01444,
    "longitude": 46.63667,
    "name": "Aéroport",
    "city": "Lourouer St Laurent",
    "description": "LF3627"
  },
  {
    "latitude": 2.11667,
    "longitude": 43.91333,
    "name": "Aéroport",
    "city": "Albi",
    "description": "Le sequestre (LFCI)"
  },
  {
    "latitude": -0.8,
    "longitude": 46.89167,
    "name": "Aéroport",
    "city": "St Amand sur Sévre",
    "description": "LF7925"
  },
  {
    "latitude": 9.485,
    "longitude": 42.55,
    "name": "Aéroport",
    "city": "Bastia",
    "description": "Poretta (LFKB)"
  },
  {
    "latitude": 1.8185,
    "longitude": 43.74783,
    "name": "Aéroport",
    "city": "La Ramiére",
    "description": "LF8153"
  },
  {
    "latitude": -0.42139,
    "longitude": 45.48417,
    "name": "Aéroport",
    "city": "Janzac",
    "description": "Neulles (LFCJ)"
  },
  {
    "latitude": 6.26667,
    "longitude": 45.27222,
    "name": "Aéroport",
    "city": "La Toussuire",
    "description": "LF7334"
  },
  {
    "latitude": -0.55056,
    "longitude": 47.56417,
    "name": "Aéroport",
    "city": "Soulaire",
    "description": "LF4946"
  },
  {
    "latitude": 0.28638,
    "longitude": 44.36389,
    "name": "Aéroport",
    "city": "Villeton",
    "description": "LF4738"
  },
  {
    "latitude": 4.81972,
    "longitude": 47.30972,
    "name": "Aéroport",
    "city": "Le Chéteau La Chassagne",
    "description": "LF2161"
  },
  {
    "latitude": 1.42083,
    "longitude": 45.40833,
    "name": "Aéroport",
    "city": "Pompadour",
    "description": "LF1927"
  },
  {
    "latitude": 0.1975,
    "longitude": 44.50111,
    "name": "Aéroport",
    "city": "Marmande",
    "description": "Vrazeil (LFDM)"
  },
  {
    "latitude": 0.90861,
    "longitude": 43.79,
    "name": "Aéroport",
    "city": "Maubec - Solomiac",
    "description": "LF8252"
  },
  {
    "latitude": 2.78306,
    "longitude": 47.38361,
    "name": "Aéroport",
    "city": "Sury en Vaux",
    "description": "LF1826"
  },
  {
    "latitude": 4.39528,
    "longitude": 44.08472,
    "name": "Aéroport",
    "city": "Uzes (LFNU)",
    "description": ""
  },
  {
    "latitude": 4.81722,
    "longitude": 46.82833,
    "name": "Aéroport",
    "city": "Chalon",
    "description": "Champforgeuil (LFLH)"
  },
  {
    "latitude": 1.08278,
    "longitude": 42.88444,
    "name": "Aéroport",
    "city": "Bethmale",
    "description": "LF0923"
  },
  {
    "latitude": -0.8525,
    "longitude": 45.62417,
    "name": "Aéroport",
    "city": "Corme Ecluse",
    "description": "LF1751"
  },
  {
    "latitude": 5.10333,
    "longitude": 45.06611,
    "name": "Aéroport",
    "city": "Romans",
    "description": "Saint Paul (LFHE)"
  },
  {
    "latitude": 0.75278,
    "longitude": 43.98194,
    "name": "Aéroport",
    "city": "Miradoux",
    "description": "LF3223"
  },
  {
    "latitude": 3.89944,
    "longitude": 47.50306,
    "name": "Aéroport",
    "city": "Avallon (LFGE)",
    "description": ""
  },
  {
    "latitude": 6.45278,
    "longitude": 47.30278,
    "name": "Aéroport",
    "city": "Lanans",
    "description": "LF2521"
  },
  {
    "latitude": 2.31306,
    "longitude": 49.16583,
    "name": "Aéroport",
    "city": "Persan Beaumont",
    "description": "LFPA"
  },
  {
    "latitude": -1.42222,
    "longitude": 43.3375,
    "name": "Aéroport",
    "city": "Itxassou (LFIX)",
    "description": ""
  },
  {
    "latitude": 6.35944,
    "longitude": 51.33389,
    "name": "Aéroport",
    "city": "Grefrath-Niershorst",
    "description": "EDLF"
  },
  {
    "latitude": 2.41667,
    "longitude": 44.8975,
    "name": "Aéroport",
    "city": "Aurillac (LFLW)",
    "description": ""
  },
  {
    "latitude": -2.34639,
    "longitude": 47.28944,
    "name": "Aéroport",
    "city": "La Baule",
    "description": "Escoublec (LFRE)"
  },
  {
    "latitude": 4.97917,
    "longitude": 45.16861,
    "name": "Aéroport",
    "city": "Ratiéres Les Allandaines",
    "description": "LF2629"
  },
  {
    "latitude": 3.19611,
    "longitude": 48.24944,
    "name": "Aéroport",
    "city": "Le Petit Fay",
    "description": "LF8927"
  },
  {
    "latitude": 4.27667,
    "longitude": 48.28333,
    "name": "Aéroport",
    "city": "Lusigny s Barse",
    "description": "LF1051"
  },
  {
    "latitude": 2.67083,
    "longitude": 48.60528,
    "name": "Aéroport",
    "city": "Melun",
    "description": "Villaroche (LFPM)"
  },
  {
    "latitude": -0.45222,
    "longitude": 45.27444,
    "name": "Aéroport",
    "city": "Montendre",
    "description": "Marcillac (LFDC)"
  },
  {
    "latitude": -3.19833,
    "longitude": 47.32667,
    "name": "Aéroport",
    "city": "Belle Ile (LFEA)",
    "description": ""
  },
  {
    "latitude": 4.29639,
    "longitude": 46.30333,
    "name": "Aéroport",
    "city": "La Clayette",
    "description": "LF7151"
  },
  {
    "latitude": 0.16,
    "longitude": 49.36333,
    "name": "Aéroport",
    "city": "Deauville",
    "description": "Saint Gatien (LFRG)"
  },
  {
    "latitude": -2.15694,
    "longitude": 47.31083,
    "name": "Aéroport",
    "city": "Saint Nazaire",
    "description": "Montoir (LFRZ)"
  },
  {
    "latitude": 2.82194,
    "longitude": 50.46722,
    "name": "Aéroport",
    "city": "Lens",
    "description": "Bénifontaine (LFQL)"
  },
  {
    "latitude": 2.01111,
    "longitude": 42.60833,
    "name": "Aéroport",
    "city": "Coste del Palm",
    "description": "LF6621"
  },
  {
    "latitude": -0.13611,
    "longitude": 44.985,
    "name": "Aéroport",
    "city": "Libourne",
    "description": "Artiuges de Lussac (LFDI)"
  },
  {
    "latitude": 0.43389,
    "longitude": 43.51611,
    "name": "Aéroport",
    "city": "Idrac Respaillés",
    "description": "LF3232"
  },
  {
    "latitude": 3.63167,
    "longitude": 49.59583,
    "name": "Aéroport",
    "city": "Laon",
    "description": "Chambry (LFAF)"
  },
  {
    "latitude": -0.24528,
    "longitude": 43.70944,
    "name": "Aéroport",
    "city": "Aire sur l'adour (LFDA)",
    "description": ""
  },
  {
    "latitude": 6.06667,
    "longitude": 48.325,
    "name": "Aéroport",
    "city": "Epinal",
    "description": "Mirecourt (LFSG)"
  },
  {
    "latitude": 1.46667,
    "longitude": 44.82,
    "name": "Aéroport",
    "city": "Loupiac",
    "description": "LF4624"
  },
  {
    "latitude": 6.07139,
    "longitude": 43.68361,
    "name": "Aéroport",
    "city": "Quinson",
    "description": "LF8321"
  },
  {
    "latitude": 3.19861,
    "longitude": 47.55028,
    "name": "Aéroport",
    "city": "Treigny",
    "description": "LF8929"
  },
  {
    "latitude": 2.03389,
    "longitude": 50.54667,
    "name": "Aéroport",
    "city": "Verchocq",
    "description": "LF6252"
  },
  {
    "latitude": 4.43333,
    "longitude": 49.91667,
    "name": "Aéroport",
    "city": "Rocroi",
    "description": "LF0822"
  },
  {
    "latitude": -0.18778,
    "longitude": 44.46278,
    "name": "Aéroport",
    "city": "Bazas Cazats",
    "description": "LF3321"
  },
  {
    "latitude": 5.09083,
    "longitude": 44.02333,
    "name": "Aéroport",
    "city": "Carpentras (LFNH)",
    "description": ""
  },
  {
    "latitude": 4.82583,
    "longitude": 45.25611,
    "name": "Aéroport",
    "city": "Saint Rambert d'Albon (LFLR)",
    "description": ""
  },
  {
    "latitude": 4.86861,
    "longitude": 44.14028,
    "name": "Aéroport",
    "city": "Orange",
    "description": "Caritat (LFMO)"
  },
  {
    "latitude": 6.24111,
    "longitude": 48.59278,
    "name": "Aéroport",
    "city": "Nancy",
    "description": "Azelot (LFEX)"
  },
  {
    "latitude": -1.6,
    "longitude": 46.59,
    "name": "Aéroport",
    "city": "Le Girouard",
    "description": "LF8524"
  },
  {
    "latitude": 5.51667,
    "longitude": 47.31667,
    "name": "Aéroport",
    "city": "Broye les Pesmes",
    "description": "LF7122"
  },
  {
    "latitude": 3.43333,
    "longitude": 47.49583,
    "name": "Aéroport",
    "city": "Charmois",
    "description": "LF5828"
  },
  {
    "latitude": 2.54172,
    "longitude": 44.56235,
    "name": "Aéroport",
    "city": "Mailo",
    "description": "LF1254"
  },
  {
    "latitude": -0.485,
    "longitude": 45.85417,
    "name": "Aéroport",
    "city": "Nantille",
    "description": "LF1727"
  },
  {
    "latitude": 3.70556,
    "longitude": 48.08611,
    "name": "Aéroport",
    "city": "Chailley",
    "description": "LFJM"
  },
  {
    "latitude": 7.215,
    "longitude": 43.66556,
    "name": "Aéroport",
    "city": "Nice Céte d'Azur (LFMN)",
    "description": ""
  },
  {
    "latitude": 6.775,
    "longitude": 45.49167,
    "name": "Aéroport",
    "city": "Glacier de la Chiaupe Champagny",
    "description": "LF7323"
  },
  {
    "latitude": 3.49667,
    "longitude": 47.84639,
    "name": "Aéroport",
    "city": "Auxerre",
    "description": "Branches (LFLA)"
  },
  {
    "latitude": 0.86667,
    "longitude": 47.66667,
    "name": "Aéroport",
    "city": "Authon",
    "description": "LF4127"
  },
  {
    "latitude": -0.91528,
    "longitude": 46.9375,
    "name": "Aéroport",
    "city": "St Laurent sur Sévre",
    "description": "LF8529"
  },
  {
    "latitude": 5.66667,
    "longitude": 46.83333,
    "name": "Aéroport",
    "city": "Francourt",
    "description": "LF7022"
  },
  {
    "latitude": 1.59333,
    "longitude": 44.51417,
    "name": "Aéroport",
    "city": "Cabrerets",
    "description": "LF4629"
  },
  {
    "latitude": 1.645,
    "longitude": 45.48639,
    "name": "Aéroport",
    "city": "Eyburie",
    "description": "LF1921"
  },
  {
    "latitude": 4.93333,
    "longitude": 44.16667,
    "name": "Aéroport",
    "city": "Orange",
    "description": "Plan de Dieu (LF??)"
  },
  {
    "latitude": -1.32556,
    "longitude": 46.93306,
    "name": "Aéroport",
    "city": "Montaigu",
    "description": "Saint Georges (LFFW)"
  },
  {
    "latitude": -0.11361,
    "longitude": 47.25667,
    "name": "Aéroport",
    "city": "Saumur",
    "description": "Saint Florent (LFOD)"
  },
  {
    "latitude": 3.57611,
    "longitude": 49.58639,
    "name": "Aéroport",
    "city": "Besny-Loizy",
    "description": "LF0251"
  },
  {
    "latitude": -1.84389,
    "longitude": 47.53333,
    "name": "Aéroport",
    "city": "Plessé",
    "description": "LF4422"
  },
  {
    "latitude": -2.03667,
    "longitude": 47.69944,
    "name": "Aéroport",
    "city": "Redon",
    "description": "Bains sur Oust (LFER)"
  },
  {
    "latitude": -1.87806,
    "longitude": 47.23805,
    "name": "Aéroport",
    "city": "Frossay",
    "description": "LF4451"
  },
  {
    "latitude": 2.04083,
    "longitude": 49.09667,
    "name": "Aéroport",
    "city": "Pontoise",
    "description": "Cormeilles en Vexin (LFPT)"
  },
  {
    "latitude": 0.45944,
    "longitude": 44.41139,
    "name": "Aéroport",
    "city": "Castelmoron",
    "description": "LF4721"
  },
  {
    "latitude": 2.04721,
    "longitude": 42.47778,
    "name": "Aéroport",
    "city": "Hippopotame Saillagouse",
    "description": "LF6625"
  },
  {
    "latitude": -0.60916,
    "longitude": 46.17361,
    "name": "Aéroport",
    "city": "Usseau",
    "description": "LF7951"
  },
  {
    "latitude": 6.64167,
    "longitude": 47.56667,
    "name": "Aéroport",
    "city": "Saulnot",
    "description": "LF7023"
  },
  {
    "latitude": 0.02222,
    "longitude": 42.7625,
    "name": "Aéroport",
    "city": "Coumely",
    "description": "LF6523"
  },
  {
    "latitude": 2.06889,
    "longitude": 45.42139,
    "name": "Aéroport",
    "city": "Egletons (LFDE)",
    "description": ""
  },
  {
    "latitude": -0.65,
    "longitude": 44.11667,
    "name": "Aéroport",
    "city": "Sabres",
    "description": "LF4023"
  },
  {
    "latitude": -0.49306,
    "longitude": 48.01278,
    "name": "Aéroport",
    "city": "La Bazouge de Chemére",
    "description": "LF5323"
  },
  {
    "latitude": 1.73139,
    "longitude": 44.22417,
    "name": "Aéroport",
    "city": "Caylus",
    "description": "LF8226"
  },
  {
    "latitude": 5.93278,
    "longitude": 49.15278,
    "name": "Aéroport",
    "city": "Doncourt les Conflans (LFGR)",
    "description": ""
  },
  {
    "latitude": 6.9375,
    "longitude": 45.89167,
    "name": "Aéroport",
    "city": "Glacier du Tacul Chamonix",
    "description": "LF7425"
  },
  {
    "latitude": -1.53111,
    "longitude": 43.46833,
    "name": "Aéroport",
    "city": "Biarritz",
    "description": "Bayonne"
  },
  {
    "latitude": 7,
    "longitude": 45.98333,
    "name": "Aéroport",
    "city": "Glacier du Tour Chamonix",
    "description": "LF7426"
  },
  {
    "latitude": 5.49694,
    "longitude": 46.03972,
    "name": "Aéroport",
    "city": "Corlier (LFJD)",
    "description": ""
  },
  {
    "latitude": 1.01806,
    "longitude": 45.00556,
    "name": "Aéroport",
    "city": "Fleurac",
    "description": "LF2427"
  },
  {
    "latitude": 2.57222,
    "longitude": 46.35361,
    "name": "Aéroport",
    "city": "Montlucon",
    "description": "Domerat (LFLT)"
  },
  {
    "latitude": 3.64889,
    "longitude": 47.19806,
    "name": "Aéroport",
    "city": "Maltaverne",
    "description": "LF5852"
  },
  {
    "latitude": 1.56667,
    "longitude": 47.11111,
    "name": "Aéroport",
    "city": "Vicq-sur-Nahon - Echalier",
    "description": "LF3625"
  },
  {
    "latitude": 5.74444,
    "longitude": 44.31222,
    "name": "Aéroport",
    "city": "Nossage Le Priora",
    "description": "LF0521"
  },
  {
    "latitude": 0.65917,
    "longitude": 48.75972,
    "name": "Aéroport",
    "city": "L'Aigle",
    "description": "Saint Michel (LFOL)"
  },
  {
    "latitude": -0.41639,
    "longitude": 45.55917,
    "name": "Aéroport",
    "city": "Jarnac Champagne",
    "description": "LF1726"
  },
  {
    "latitude": 0.93944,
    "longitude": 44.08361,
    "name": "Aéroport",
    "city": "Pommevic",
    "description": "LF8233"
  },
  {
    "latitude": -0.12056,
    "longitude": 43.835,
    "name": "Aéroport",
    "city": "Maupas La Grande Borde",
    "description": "LF3234"
  },
  {
    "latitude": 5.68056,
    "longitude": 45.51667,
    "name": "Aéroport",
    "city": "Saint Jean d'Avelanne (LFKH)",
    "description": ""
  },
  {
    "latitude": 5.7725,
    "longitude": 44.86667,
    "name": "Aéroport",
    "city": "St Jean d'Hérans",
    "description": "LF3868"
  },
  {
    "latitude": 4.86556,
    "longitude": 44.14,
    "name": "Aéroport",
    "city": "Orange Caritat",
    "description": "LFMO"
  },
  {
    "latitude": 1.2525,
    "longitude": 44.96667,
    "name": "Aéroport",
    "city": "St Crépin Carlucet",
    "description": "LF2434"
  },
  {
    "latitude": -0.56472,
    "longitude": 48.12361,
    "name": "Aéroport",
    "city": "Montsérs La Javeliére",
    "description": "LF5326"
  },
  {
    "latitude": 2.37694,
    "longitude": 46.87111,
    "name": "Aéroport",
    "city": "Chateauneuf sur Cher (LFFU)",
    "description": ""
  },
  {
    "latitude": 4.37167,
    "longitude": 44.53944,
    "name": "Aéroport",
    "city": "Aubenas",
    "description": "Ardeche Méridionale (LFHO)"
  },
  {
    "latitude": 2.4125,
    "longitude": 48.02361,
    "name": "Aéroport",
    "city": "Montliard",
    "description": "LF4521"
  },
  {
    "latitude": 2.95694,
    "longitude": 44.89167,
    "name": "Aéroport",
    "city": "La Taillade Neuvéglise",
    "description": "LF1521"
  },
  {
    "latitude": -0.21333,
    "longitude": 43.24528,
    "name": "Aéroport",
    "city": "Boeil Bezing",
    "description": "LF6422"
  },
  {
    "latitude": 5.43111,
    "longitude": 49.45417,
    "name": "Aéroport",
    "city": "Marville Montmédy",
    "description": "LFYK"
  },
  {
    "latitude": 0.5,
    "longitude": 42.875,
    "name": "Aéroport",
    "city": "Ferrere Batmale",
    "description": "LF6524"
  },
  {
    "latitude": 3.96139,
    "longitude": 43.58333,
    "name": "Aéroport",
    "city": "Montpeller",
    "description": "Méditerrannée (LFMT)"
  },
  {
    "latitude": 5.79222,
    "longitude": 44.32028,
    "name": "Aéroport",
    "city": "L'Ile d'Oriane",
    "description": "LF0536"
  },
  {
    "latitude": 0.49361,
    "longitude": 45.54389,
    "name": "Aéroport",
    "city": "Hautefaye",
    "description": "LF2449"
  },
  {
    "latitude": 4.13694,
    "longitude": 45.19194,
    "name": "Aéroport",
    "city": "Les Barrys",
    "description": "LF4322"
  },
  {
    "latitude": 7.975,
    "longitude": 48.99167,
    "name": "Aéroport",
    "city": "Wissembourg",
    "description": "LF6724"
  },
  {
    "latitude": -0.00306,
    "longitude": 43.18556,
    "name": "Aéroport",
    "city": "Tarbes",
    "description": "Lourdes Pyrénnées (LFBT)"
  },
  {
    "latitude": 6.48889,
    "longitude": 45.35139,
    "name": "Aéroport",
    "city": "Col de la Fenétre",
    "description": "LF7321"
  },
  {
    "latitude": -0.13528,
    "longitude": 42.9525,
    "name": "Aéroport",
    "city": "Cabaliros Droumide",
    "description": "LF6522"
  },
  {
    "latitude": 6.13889,
    "longitude": 45.16056,
    "name": "Aéroport",
    "city": "Glacier de la Barbarate Vaujany",
    "description": "LF3824"
  },
  {
    "latitude": 1.24472,
    "longitude": 44.79333,
    "name": "Aéroport",
    "city": "Sarlat",
    "description": "Domme (LFDS)"
  },
  {
    "latitude": 2.99278,
    "longitude": 45.075,
    "name": "Aéroport",
    "city": "Saint Flour",
    "description": "Coltines (LFHQ)"
  },
  {
    "latitude": 3.02056,
    "longitude": 46.01333,
    "name": "Aéroport",
    "city": "Charbonniéres les Vieilles",
    "description": "LF6324"
  },
  {
    "latitude": 0.28333,
    "longitude": 47.11667,
    "name": "Aéroport",
    "city": "Ligré",
    "description": "LF3729"
  },
  {
    "latitude": 2.03889,
    "longitude": 42.575,
    "name": "Aéroport",
    "city": "Mont Llaret Pic d'Aude Les Angles",
    "description": "LF6623"
  },
  {
    "latitude": -0.59556,
    "longitude": 44.70028,
    "name": "Aéroport",
    "city": "Bordeaux",
    "description": "Léognan Saucats (LFCS)"
  },
  {
    "latitude": 7.2425,
    "longitude": 49.04194,
    "name": "Aéroport",
    "city": "Bining",
    "description": "LF5726"
  },
  {
    "latitude": 1.18111,
    "longitude": 49.38889,
    "name": "Aéroport",
    "city": "Rouen Vallée de Seine",
    "description": "LFOP"
  },
  {
    "latitude": -1.425,
    "longitude": 46.35833,
    "name": "Aéroport",
    "city": "La Tranche sur Mer",
    "description": "LF8522"
  },
  {
    "latitude": 0.91944,
    "longitude": 46.94194,
    "name": "Aéroport",
    "city": "La Raillere",
    "description": "LF3756"
  },
  {
    "latitude": -1.49444,
    "longitude": 48.70806,
    "name": "Aéroport",
    "city": "Dragey",
    "description": "LF5021"
  },
  {
    "latitude": 0.73111,
    "longitude": 45.21389,
    "name": "Aéroport",
    "city": "Champcevinel Bricard",
    "description": "LF2447"
  },
  {
    "latitude": -0.41667,
    "longitude": 47.58333,
    "name": "Aéroport",
    "city": "Soucelle",
    "description": "LF4925"
  },
  {
    "latitude": 6.38667,
    "longitude": 43.9925,
    "name": "Aéroport",
    "city": "Barréme",
    "description": "LF0423"
  },
  {
    "latitude": 0.59056,
    "longitude": 44.17472,
    "name": "Aéroport",
    "city": "Agen La Garenne (LFBA)",
    "description": ""
  },
  {
    "latitude": 1.71833,
    "longitude": 43.80194,
    "name": "Aéroport",
    "city": "Coufouleux",
    "description": "LF8155"
  },
  {
    "latitude": 6.37306,
    "longitude": 44.41389,
    "name": "Aéroport",
    "city": "Col St Jean Seynes",
    "description": "LF0522"
  },
  {
    "latitude": 6.85,
    "longitude": 45.84583,
    "name": "Aéroport",
    "city": "Glacier du Déme du Goéter Chamonix",
    "description": "LF7424"
  },
  {
    "latitude": 2.58832,
    "longitude": 44.58275,
    "name": "Aéroport",
    "city": "Golinhac",
    "description": "LF1222"
  },
  {
    "latitude": 2.60611,
    "longitude": 48.89667,
    "name": "Aéroport",
    "city": "Chelles",
    "description": "Le Pin (LFPH)"
  },
  {
    "latitude": -1.07889,
    "longitude": 45.82333,
    "name": "Aéroport",
    "city": "Marennes (LFJI)",
    "description": ""
  },
  {
    "latitude": 1.68889,
    "longitude": 43.40167,
    "name": "Aéroport",
    "city": "Gardouch",
    "description": "LF3136"
  },
  {
    "latitude": 1.835,
    "longitude": 43.80194,
    "name": "Aéroport",
    "city": "Parisot",
    "description": "LF8152"
  },
  {
    "latitude": -2.4125,
    "longitude": 48.4875,
    "name": "Aéroport",
    "city": "Lamballe La Poterie",
    "description": "LF2222"
  },
  {
    "latitude": 3.40417,
    "longitude": 46.17194,
    "name": "Aéroport",
    "city": "Vichy",
    "description": "Charmeil (LFLV)"
  },
  {
    "latitude": -0.11972,
    "longitude": 43.2475,
    "name": "Aéroport",
    "city": "Latitude Pyrenees",
    "description": "LF6551"
  },
  {
    "latitude": 0.84889,
    "longitude": 42.85194,
    "name": "Aéroport",
    "city": "Uls Melles",
    "description": "LF3130"
  },
  {
    "latitude": 2.58056,
    "longitude": 46.68056,
    "name": "Aéroport",
    "city": "Colombiers",
    "description": "LF1821"
  },
  {
    "latitude": -0.26,
    "longitude": 48.29083,
    "name": "Aéroport",
    "city": "Courcité Fléchigné",
    "description": "LF5325"
  },
  {
    "latitude": 2.6075,
    "longitude": 48.89778,
    "name": "Aéroport",
    "city": "Chelles le Pin",
    "description": "LFPH"
  },
  {
    "latitude": 0.81528,
    "longitude": 45.1975,
    "name": "Aéroport",
    "city": "Périgueux",
    "description": "Bassillac (LFBX)"
  },
  {
    "latitude": 2.78583,
    "longitude": 44.77083,
    "name": "Aéroport",
    "city": "Graissac",
    "description": "LF1225"
  },
  {
    "latitude": 6.09861,
    "longitude": 45.7875,
    "name": "Aéroport",
    "city": "Montagne du Semnoz",
    "description": "LF7429"
  },
  {
    "latitude": 1.45944,
    "longitude": 46.20389,
    "name": "Aéroport",
    "city": "Le Pommier",
    "description": "LF2351"
  },
  {
    "latitude": -3.44,
    "longitude": 47.76056,
    "name": "Aéroport",
    "city": "Lorient",
    "description": "Lann Bihoue (LFRH)"
  },
  {
    "latitude": 5.82083,
    "longitude": 46.76444,
    "name": "Aéroport",
    "city": "Champagnole",
    "description": "Crotenay (LFGX)"
  },
  {
    "latitude": 2.49778,
    "longitude": 42.82222,
    "name": "Aéroport",
    "city": "Saint Paul de Fenouillet",
    "description": "LF6652"
  },
  {
    "latitude": 3.35917,
    "longitude": 45.325,
    "name": "Aéroport",
    "city": "Brioude",
    "description": "Beaumont (LFHR)"
  },
  {
    "latitude": 0.14306,
    "longitude": 43.8975,
    "name": "Aéroport",
    "city": "Bretagne d'Armagnac",
    "description": "LF3221"
  },
  {
    "latitude": 6.55556,
    "longitude": 49.18889,
    "name": "Aéroport",
    "city": "Denting",
    "description": "LF5721"
  },
  {
    "latitude": 1.46083,
    "longitude": 43.735,
    "name": "Aéroport",
    "city": "Labastide St Sernin",
    "description": "LF3154"
  },
  {
    "latitude": 0.17667,
    "longitude": 44.85361,
    "name": "Aéroport",
    "city": "Sainte Foy la Grande (LFDF)",
    "description": ""
  },
  {
    "latitude": 1.08528,
    "longitude": 49.88278,
    "name": "Aéroport",
    "city": "Dieppe",
    "description": "Saint Aubin (LFAB)"
  },
  {
    "latitude": -1.40444,
    "longitude": 48.66167,
    "name": "Aéroport",
    "city": "Avranches",
    "description": "Le Val Saint Pere (LFRW)"
  },
  {
    "latitude": 1.90861,
    "longitude": 43.44306,
    "name": "Aéroport",
    "city": "St Félix Lauragais",
    "description": "LF3135"
  },
  {
    "latitude": 3.58861,
    "longitude": 46.25389,
    "name": "Aéroport",
    "city": "La Palisse",
    "description": "Perigny (LFHX)"
  },
  {
    "latitude": 0.1,
    "longitude": 42.90278,
    "name": "Aéroport",
    "city": "Castillon de la Laquette Baréges",
    "description": "LF6528"
  },
  {
    "latitude": 7.43222,
    "longitude": 47.73806,
    "name": "Aéroport",
    "city": "Mulhouse",
    "description": "Habsheim (LFGB)"
  },
  {
    "latitude": 3.14833,
    "longitude": 46.25111,
    "name": "Aéroport",
    "city": "Deneuille les Chanteille",
    "description": "LF0352"
  },
  {
    "latitude": 5.47389,
    "longitude": 44.59222,
    "name": "Aéroport",
    "city": "Luc en Diois",
    "description": "LF2632"
  },
  {
    "latitude": 6.10639,
    "longitude": 45.93083,
    "name": "Aéroport",
    "city": "Annecy",
    "description": "Meythet (LFLP)"
  },
  {
    "latitude": 5.66667,
    "longitude": 48.08333,
    "name": "Aéroport",
    "city": "Damblain",
    "description": "LFYD"
  },
  {
    "latitude": 1.52778,
    "longitude": 48.59167,
    "name": "Aéroport",
    "city": "Pierres",
    "description": "LF2834"
  },
  {
    "latitude": 1.405,
    "longitude": 46.45361,
    "name": "Aéroport",
    "city": "St Benoit",
    "description": "LF3622"
  },
  {
    "latitude": 2.23722,
    "longitude": 45.62139,
    "name": "Aéroport",
    "city": "St Germain",
    "description": "LF1924"
  },
  {
    "latitude": 5.05,
    "longitude": 48.09167,
    "name": "Aéroport",
    "city": "Chaumont",
    "description": "Semoutiers (LFJA)"
  },
  {
    "latitude": 4.01667,
    "longitude": 48.32167,
    "name": "Aéroport",
    "city": "Troyes",
    "description": "Barberey (LFQB)"
  },
  {
    "latitude": 2.21111,
    "longitude": 47.44861,
    "name": "Aéroport",
    "city": "Souesmes",
    "description": "LF4123"
  },
  {
    "latitude": 6.44167,
    "longitude": 48.54167,
    "name": "Aéroport",
    "city": "Mont sur Meurthe",
    "description": "LF5421"
  },
  {
    "latitude": 5.72139,
    "longitude": 48.3625,
    "name": "Aéroport",
    "city": "Neufchateau",
    "description": "Rouceux (LFFT)"
  },
  {
    "latitude": 5.96861,
    "longitude": 44.84972,
    "name": "Aéroport",
    "city": "Notre Dame de la Salette",
    "description": "LF3826"
  },
  {
    "latitude": -1.3,
    "longitude": 48.18333,
    "name": "Aéroport",
    "city": "Vitre",
    "description": "LF3521"
  },
  {
    "latitude": 6.54444,
    "longitude": 49.39333,
    "name": "Aéroport",
    "city": "Falstrof",
    "description": "LF5728"
  },
  {
    "latitude": 0.68083,
    "longitude": 47.94277,
    "name": "Aéroport",
    "city": "Montaillé (St Calais)",
    "description": "LF7251"
  },
  {
    "latitude": 6.12944,
    "longitude": 43.31222,
    "name": "Aéroport",
    "city": "Ste Anastasie sur Issole",
    "description": "LF8325"
  },
  {
    "latitude": 6.12722,
    "longitude": 43.24778,
    "name": "Aéroport",
    "city": "Cuers",
    "description": "Pierrefeu (LFTF)"
  },
  {
    "latitude": 0.67556,
    "longitude": 43.34222,
    "name": "Aéroport",
    "city": "St Blancard",
    "description": "LF3253"
  },
  {
    "latitude": 1.21556,
    "longitude": 47.3875,
    "name": "Aéroport",
    "city": "Pontlevoy",
    "description": "LF4130"
  },
  {
    "latitude": -4.15139,
    "longitude": 48.53028,
    "name": "Aéroport",
    "city": "Landivisiau (LFRJ)",
    "description": ""
  },
  {
    "latitude": -0.3175,
    "longitude": 45.65833,
    "name": "Aéroport",
    "city": "Cognac",
    "description": "Chateaubernard (LFBG)"
  },
  {
    "latitude": 5.435,
    "longitude": 47.04278,
    "name": "Aéroport",
    "city": "Dole",
    "description": "Tavaux (LFGJ)"
  },
  {
    "latitude": 0.29443,
    "longitude": 44.42083,
    "name": "Aéroport",
    "city": "Bénézit Fauillet",
    "description": "LF4754"
  },
  {
    "latitude": 0.76111,
    "longitude": 44.40028,
    "name": "Aéroport",
    "city": "Villeneuve sur Lot (LFCW)",
    "description": ""
  },
  {
    "latitude": 6.03083,
    "longitude": 44.32528,
    "name": "Aéroport",
    "city": "La Motte du Caire",
    "description": "LF0431"
  },
  {
    "latitude": 5.88028,
    "longitude": 45.63944,
    "name": "Aéroport",
    "city": "Chambéry",
    "description": "Aix les Bains (LFLB)"
  },
  {
    "latitude": 0.37111,
    "longitude": 49.26444,
    "name": "Aéroport",
    "city": "Bonneville la Louvet",
    "description": "LF1422"
  },
  {
    "latitude": 2.99333,
    "longitude": 50.33833,
    "name": "Aéroport",
    "city": "Vitry en artois (LFQS)",
    "description": ""
  },
  {
    "latitude": 4.08694,
    "longitude": 49.00528,
    "name": "Aéroport",
    "city": "Epernay",
    "description": "Plivot (LFSW)"
  },
  {
    "latitude": 0.08806,
    "longitude": 49.53389,
    "name": "Aéroport",
    "city": "Le Havre",
    "description": "Octeville (LFOH)"
  },
  {
    "latitude": 4.07028,
    "longitude": 43.61028,
    "name": "Aéroport",
    "city": "Montpellier",
    "description": "candillargues (LFNG)"
  },
  {
    "latitude": 3.38333,
    "longitude": 44.88333,
    "name": "Aéroport",
    "city": "Le Malzieu",
    "description": "LF4821"
  },
  {
    "latitude": 9.09667,
    "longitude": 41.50222,
    "name": "Aéroport",
    "city": "Figari",
    "description": "Sud Corse (LFKF)"
  },
  {
    "latitude": 5.68028,
    "longitude": 49.22917,
    "name": "Aéroport",
    "city": "étain Rouvres",
    "description": "LFQE"
  },
  {
    "latitude": 6.21361,
    "longitude": 44.54944,
    "name": "Aéroport",
    "city": "Montgardin",
    "description": "LF0530"
  },
  {
    "latitude": 1.25056,
    "longitude": 48.89861,
    "name": "Aéroport",
    "city": "Saint Andre de l'Eure (LFFD)",
    "description": ""
  },
  {
    "latitude": -0.15639,
    "longitude": 45.63417,
    "name": "Aéroport",
    "city": "St Méme les Carriéres",
    "description": "LF1628"
  },
  {
    "latitude": 1.09528,
    "longitude": 48.64194,
    "name": "Aéroport",
    "city": "Dreux Senonches",
    "description": "LF2828"
  },
  {
    "latitude": 4.30583,
    "longitude": 45.60722,
    "name": "Aéroport",
    "city": "Saint Galmier (LFKM)",
    "description": ""
  },
  {
    "latitude": 5.90417,
    "longitude": 44.80306,
    "name": "Aéroport",
    "city": "Pellafol",
    "description": "LF0527"
  },
  {
    "latitude": 7.24194,
    "longitude": 49.06361,
    "name": "Aéroport",
    "city": "Gros Rederching",
    "description": "LF5730"
  },
  {
    "latitude": 6.645,
    "longitude": 43.45972,
    "name": "Aéroport",
    "city": "Roquebrune sur Argens",
    "description": "LF8351"
  },
  {
    "latitude": 4.15667,
    "longitude": 49.20861,
    "name": "Aéroport",
    "city": "Reims",
    "description": "Prunay (LFQA)"
  },
  {
    "latitude": 0.475,
    "longitude": 43.86667,
    "name": "Aéroport",
    "city": "St Puy",
    "description": "LF3237"
  },
  {
    "latitude": 0.46667,
    "longitude": 44.11167,
    "name": "Aéroport",
    "city": "Saumont Gentieu",
    "description": "LF4729"
  },
  {
    "latitude": 0.41389,
    "longitude": 43.35,
    "name": "Aéroport",
    "city": "Duffort",
    "description": "LF3228"
  },
  {
    "latitude": 1.49722,
    "longitude": 48.21666,
    "name": "Aéroport",
    "city": "Le Gault St Denis",
    "description": "LF2853"
  },
  {
    "latitude": -2.08,
    "longitude": 48.58778,
    "name": "Aéroport",
    "city": "Dinard",
    "description": "Pleurtuit"
  },
  {
    "latitude": 5.75361,
    "longitude": 44.80556,
    "name": "Aéroport",
    "city": "Mens",
    "description": "LF3828"
  },
  {
    "latitude": 7,
    "longitude": 45.94167,
    "name": "Aéroport",
    "city": "Glacier d'Argentiére",
    "description": "LF7422"
  },
  {
    "latitude": 1.03333,
    "longitude": 49.25,
    "name": "Aéroport",
    "city": "St Cyr La Campagne",
    "description": "LF2721"
  },
  {
    "latitude": 0.35278,
    "longitude": 46.03556,
    "name": "Aéroport",
    "city": "Messeux",
    "description": "LF1630"
  },
  {
    "latitude": -0.94917,
    "longitude": 43.91583,
    "name": "Aéroport",
    "city": "Rion dse Landes (LFIL)",
    "description": ""
  },
  {
    "latitude": -0.69639,
    "longitude": 46.90389,
    "name": "Aéroport",
    "city": "Mauléon (LFJB)",
    "description": ""
  },
  {
    "latitude": -2.39111,
    "longitude": 46.71861,
    "name": "Aéroport",
    "city": "Ile d'Yeu (LFEY)",
    "description": ""
  },
  {
    "latitude": -1.11583,
    "longitude": 45.38056,
    "name": "Aéroport",
    "city": "Vendays Montalivet (LFIV)",
    "description": ""
  },
  {
    "latitude": 5.10833,
    "longitude": 43.60306,
    "name": "Aéroport",
    "city": "Salon de Provence (LFMY)",
    "description": ""
  },
  {
    "latitude": 6.16472,
    "longitude": 43.87028,
    "name": "Aéroport",
    "city": "Puimoisson (LFTP)",
    "description": ""
  },
  {
    "latitude": 0.07833,
    "longitude": 43.475,
    "name": "Aéroport",
    "city": "Sauveterre",
    "description": "LF6532"
  },
  {
    "latitude": 5.76,
    "longitude": 46.92,
    "name": "Aéroport",
    "city": "Arbois (LFGD)",
    "description": ""
  },
  {
    "latitude": 1.21527,
    "longitude": 45.10722,
    "name": "Aéroport",
    "city": "Condat sur Vézére",
    "description": "LF2423"
  },
  {
    "latitude": 2.37889,
    "longitude": 47.06444,
    "name": "Aéroport",
    "city": "Bourges (LFLD)",
    "description": ""
  },
  {
    "latitude": 1.52389,
    "longitude": 48.45889,
    "name": "Aéroport",
    "city": "Chartres",
    "description": "Champhol (LFOR)"
  },
  {
    "latitude": 1.87556,
    "longitude": 43.88389,
    "name": "Aéroport",
    "city": "Gaillac",
    "description": "Lisle sur Tarn (LFDG)"
  },
  {
    "latitude": 0.73806,
    "longitude": 47.22055,
    "name": "Aéroport",
    "city": "St Branchs",
    "description": "LF3754"
  },
  {
    "latitude": 2.72083,
    "longitude": 44.89417,
    "name": "Aéroport",
    "city": "Therondels",
    "description": "LF1226"
  },
  {
    "latitude": 5.87222,
    "longitude": 47.42222,
    "name": "Aéroport",
    "city": "Bucey les Gy",
    "description": "LF7021"
  },
  {
    "latitude": 4.5,
    "longitude": 49,
    "name": "Aéroport",
    "city": "Courtisols les Houches",
    "description": "LF5123"
  },
  {
    "latitude": 5.71944,
    "longitude": 49.27917,
    "name": "Aéroport",
    "city": "Dommary",
    "description": "LF5522"
  },
  {
    "latitude": -1.71083,
    "longitude": 49.33611,
    "name": "Aéroport",
    "city": "Portbail",
    "description": "LF5022"
  },
  {
    "latitude": 1.05,
    "longitude": 43.26667,
    "name": "Aéroport",
    "city": "Le Fousseret",
    "description": "LF3151"
  },
  {
    "latitude": -0.14472,
    "longitude": 48.92722,
    "name": "Aéroport",
    "city": "Falaise",
    "description": "Mont d'Eraines (LFAS)"
  },
  {
    "latitude": 3.2675,
    "longitude": 45.515,
    "name": "Aéroport",
    "city": "Issoire",
    "description": "Le Broc (LFHA)"
  },
  {
    "latitude": 2.94611,
    "longitude": 46.71278,
    "name": "Aéroport",
    "city": "Lurcy Levis (LFJU)",
    "description": ""
  },
  {
    "latitude": 3,
    "longitude": 42.8,
    "name": "Aéroport",
    "city": "Perpignan la Salanque",
    "description": "LF6628"
  },
  {
    "latitude": 5.40333,
    "longitude": 44.49972,
    "name": "Aéroport",
    "city": "La Motte Chalancon (LFJE)",
    "description": ""
  },
  {
    "latitude": 3.78889,
    "longitude": 45.67917,
    "name": "Aéroport",
    "city": "Col du Béal",
    "description": "LF4221"
  },
  {
    "latitude": 1.37833,
    "longitude": 44.0275,
    "name": "Aéroport",
    "city": "Montauban (LFDB)",
    "description": ""
  },
  {
    "latitude": 4.82944,
    "longitude": 45.46417,
    "name": "Aéroport",
    "city": "Vienne",
    "description": "Reventin (LFHH)"
  },
  {
    "latitude": 1.08583,
    "longitude": 46.62,
    "name": "Aéroport",
    "city": "Le Blanc (LFEL)",
    "description": ""
  },
  {
    "latitude": 5.78611,
    "longitude": 43.25222,
    "name": "Aéroport",
    "city": "Le Castellet (LFMQ)",
    "description": ""
  },
  {
    "latitude": 6.10111,
    "longitude": 44.59722,
    "name": "Aéroport",
    "city": "Les Furons",
    "description": "LF0552"
  },
  {
    "latitude": -1.38194,
    "longitude": 46.7025,
    "name": "Aéroport",
    "city": "La Roche sur Yon",
    "description": "Les Ajoncs (LFRI)"
  },
  {
    "latitude": -0.17083,
    "longitude": 43.02639,
    "name": "Aéroport",
    "city": "Vallon du Bergons",
    "description": "LF6536"
  },
  {
    "latitude": -1.49075,
    "longitude": 47.993,
    "name": "Aéroport",
    "city": "Amanlis (Janzé)",
    "description": "LF3552"
  },
  {
    "latitude": 5.03778,
    "longitude": 49.65972,
    "name": "Aéroport",
    "city": "Sedan",
    "description": "Douzy (LFSJ)"
  },
  {
    "latitude": 2.51917,
    "longitude": 49.25361,
    "name": "Aéroport",
    "city": "Creil (LFPC)",
    "description": ""
  },
  {
    "latitude": 3.36,
    "longitude": 47.29389,
    "name": "Aéroport",
    "city": "Champlemy Varzy",
    "description": "LF5826"
  },
  {
    "latitude": 2.45556,
    "longitude": 45.93611,
    "name": "Aéroport",
    "city": "Lioux",
    "description": "LF2323"
  },
  {
    "latitude": 2.48193,
    "longitude": 44.55972,
    "name": "Aéroport",
    "city": "Lunel",
    "description": "LF1253"
  },
  {
    "latitude": -1.82917,
    "longitude": 49.62417,
    "name": "Aéroport",
    "city": "Vauville (LFAU)",
    "description": ""
  },
  {
    "latitude": 0.52056,
    "longitude": 44.82444,
    "name": "Aéroport",
    "city": "Bergerac",
    "description": "Roumaniere (LFBE)"
  },
  {
    "latitude": 6.95528,
    "longitude": 43.5475,
    "name": "Aéroport",
    "city": "Cannes Mandelieu",
    "description": "LFMD"
  },
  {
    "latitude": 5.69583,
    "longitude": 48.76333,
    "name": "Aéroport",
    "city": "Corniéville Géville",
    "description": "LF5521"
  },
  {
    "latitude": 5.68833,
    "longitude": 48.77083,
    "name": "Aéroport",
    "city": "Geville",
    "description": "LF5551"
  },
  {
    "latitude": 8.07417,
    "longitude": 48.96889,
    "name": "Aéroport",
    "city": "Salmbach",
    "description": "LF6723"
  },
  {
    "latitude": 6.65222,
    "longitude": 45.82083,
    "name": "Aéroport",
    "city": "Mégeve (LFHM)",
    "description": ""
  },
  {
    "latitude": 5.57472,
    "longitude": 44.22056,
    "name": "Aéroport",
    "city": "Séderon",
    "description": "LF2635"
  },
  {
    "latitude": 0.70111,
    "longitude": 47.2675,
    "name": "Aéroport",
    "city": "Tours Sorigny",
    "description": "LFEN"
  },
  {
    "latitude": 4.03139,
    "longitude": 50.30917,
    "name": "Aéroport",
    "city": "Maubeuge",
    "description": "Elesmes (LFQJ)"
  },
  {
    "latitude": 5.23332,
    "longitude": 44.825,
    "name": "Aéroport",
    "city": "L'Escoulin Quartie des Maillets",
    "description": "LF2624"
  },
  {
    "latitude": 0.51666,
    "longitude": 46.33333,
    "name": "Aéroport",
    "city": "St Secondin",
    "description": "LF8626"
  },
  {
    "latitude": 1.82889,
    "longitude": 44.84861,
    "name": "Aéroport",
    "city": "St Medard de Presque",
    "description": "LF4627"
  },
  {
    "latitude": 5.20556,
    "longitude": 48.09278,
    "name": "Aéroport",
    "city": "Laville aux Bois",
    "description": "LF5225"
  },
  {
    "latitude": 0.92,
    "longitude": 45.90333,
    "name": "Aéroport",
    "city": "Saint Junien (LFBJ)",
    "description": ""
  },
  {
    "latitude": 6.03194,
    "longitude": 45.06417,
    "name": "Aéroport",
    "city": "Bourg d'Oisans",
    "description": "LF3864"
  },
  {
    "latitude": 2.80611,
    "longitude": 49.43444,
    "name": "Aéroport",
    "city": "Compiegne",
    "description": "Margny (LFAD)"
  },
  {
    "latitude": 0.66667,
    "longitude": 43.925,
    "name": "Aéroport",
    "city": "Lectoure",
    "description": "LF3222"
  },
  {
    "latitude": 5.18583,
    "longitude": 48.86833,
    "name": "Aéroport",
    "city": "Bar Le Duc",
    "description": "Les Hauts de Chee (LFEU)"
  },
  {
    "latitude": 1.28333,
    "longitude": 44.04806,
    "name": "Aéroport",
    "city": "Banadets",
    "description": "LF8255"
  },
  {
    "latitude": 5.17833,
    "longitude": 43.53778,
    "name": "Aéroport",
    "city": "Berre La Fare (LFNR)",
    "description": ""
  },
  {
    "latitude": 5.78722,
    "longitude": 43.25333,
    "name": "Aéroport",
    "city": "Le Castellet",
    "description": "LFMQ"
  },
  {
    "latitude": 0.26694,
    "longitude": 45.24028,
    "name": "Aéroport",
    "city": "Riberac",
    "description": "Saint Aulaye (LFIK)"
  },
  {
    "latitude": 6.54194,
    "longitude": 47.95861,
    "name": "Aéroport",
    "city": "Dropt",
    "description": "LF8852"
  },
  {
    "latitude": 0.56667,
    "longitude": 49.10278,
    "name": "Aéroport",
    "city": "Bernay Saint Martin (LFPD)",
    "description": ""
  },
  {
    "latitude": 6.05,
    "longitude": 48.6,
    "name": "Aéroport",
    "city": "Pont St Vincent",
    "description": "LFSV"
  },
  {
    "latitude": 0.05417,
    "longitude": 46.01139,
    "name": "Aéroport",
    "city": "Nord Charente ULM",
    "description": "LF1652"
  },
  {
    "latitude": 1.94278,
    "longitude": 48.99833,
    "name": "Aéroport",
    "city": "Les Mureaux",
    "description": "LFXU"
  },
  {
    "latitude": 2.28333,
    "longitude": 46.51389,
    "name": "Aéroport",
    "city": "St Saturnin",
    "description": "LF1823"
  },
  {
    "latitude": 6.03778,
    "longitude": 44.455,
    "name": "Aéroport",
    "city": "Gap",
    "description": "Tallard (LFNA)"
  },
  {
    "latitude": 2.21667,
    "longitude": 43.28333,
    "name": "Aéroport",
    "city": "Moussoulens (LF**)",
    "description": ""
  },
  {
    "latitude": 4.07527,
    "longitude": 49.48073,
    "name": "Aéroport",
    "city": "Avaux - Les Bourdons",
    "description": "LF0851"
  },
  {
    "latitude": 4.41639,
    "longitude": 43.7575,
    "name": "Aéroport",
    "city": "Némes",
    "description": "Garons (LFTW)"
  },
  {
    "latitude": 6.49361,
    "longitude": 44.98278,
    "name": "Aéroport",
    "city": "Le Casset",
    "description": "LF0531"
  },
  {
    "latitude": -1.56389,
    "longitude": 48.88306,
    "name": "Aéroport",
    "city": "Grancille (LFRF)",
    "description": ""
  },
  {
    "latitude": 0.16139,
    "longitude": 44.46638,
    "name": "Aéroport",
    "city": "Fourques",
    "description": "LF4751"
  },
  {
    "latitude": 7.52917,
    "longitude": 47.59,
    "name": "Aéroport",
    "city": "Mulhouse",
    "description": "béle (LFSB)"
  },
  {
    "latitude": 2.29889,
    "longitude": 49.31667,
    "name": "Aéroport",
    "city": "Mouy",
    "description": "LF6051"
  },
  {
    "latitude": -0.41833,
    "longitude": 46.89417,
    "name": "Aéroport",
    "city": "Noirterre",
    "description": "LF7924"
  },
  {
    "latitude": 3.41667,
    "longitude": 44.58333,
    "name": "Aéroport",
    "city": "Brassalieres",
    "description": "LF4824"
  },
  {
    "latitude": -3.66278,
    "longitude": 48.05472,
    "name": "Aéroport",
    "city": "Guiscriff Scaér",
    "description": "LFES"
  },
  {
    "latitude": 4.58056,
    "longitude": 47.84639,
    "name": "Aéroport",
    "city": "Chatillon sur Seine (LFQH)",
    "description": ""
  },
  {
    "latitude": 0.55722,
    "longitude": 45.55444,
    "name": "Aéroport",
    "city": "Javerlhac",
    "description": "LF2428"
  },
  {
    "latitude": 4.9075,
    "longitude": 47.21222,
    "name": "Aéroport",
    "city": "Chamboeuf",
    "description": "LF2127"
  },
  {
    "latitude": 6.83056,
    "longitude": 47.91667,
    "name": "Aéroport",
    "city": "La Téte des Champs Le Menil",
    "description": "LF8821"
  },
  {
    "latitude": 3.64722,
    "longitude": 47.30833,
    "name": "Aéroport",
    "city": "Dirol",
    "description": "LF5822"
  },
  {
    "latitude": 4.64278,
    "longitude": 49.785,
    "name": "Aéroport",
    "city": "Charleville Mézieres (LFQV)",
    "description": ""
  },
  {
    "latitude": 3.12778,
    "longitude": 47.87917,
    "name": "Aéroport",
    "city": "Perreux",
    "description": "LF8928"
  },
  {
    "latitude": -0.52528,
    "longitude": 45.96639,
    "name": "Aéroport",
    "city": "Saint Jean d'Angely",
    "description": "St Denis du Pin (LFIY)"
  },
  {
    "latitude": 0.00333,
    "longitude": 47.69417,
    "name": "Aéroport",
    "city": "La Fleche",
    "description": "Thorée Les Pins (LFAL)"
  },
  {
    "latitude": 3.20667,
    "longitude": 49.81694,
    "name": "Aéroport",
    "city": "Saint Quentin Roupy (LFOW)",
    "description": ""
  },
  {
    "latitude": 4.97667,
    "longitude": 46.56278,
    "name": "Aéroport",
    "city": "Tournus",
    "description": "Cuisery (LFFX)"
  },
  {
    "latitude": 6.44389,
    "longitude": 46.28611,
    "name": "Aéroport",
    "city": "Cervens",
    "description": "LF7470"
  },
  {
    "latitude": 5.14667,
    "longitude": 46.2575,
    "name": "Aéroport",
    "city": "Polliat",
    "description": "LF0154"
  },
  {
    "latitude": 5.99667,
    "longitude": 43.65917,
    "name": "Aéroport",
    "city": "Salernes",
    "description": "LF8354"
  },
  {
    "latitude": 7.72861,
    "longitude": 48.80444,
    "name": "Aéroport",
    "city": "Batzendorf",
    "description": "LF6751"
  },
  {
    "latitude": 6.77028,
    "longitude": 48.56056,
    "name": "Aéroport",
    "city": "Herbéviller",
    "description": "LF5423"
  },
  {
    "latitude": 5.4125,
    "longitude": 48.46667,
    "name": "Aéroport",
    "city": "Chassey",
    "description": "LF5523"
  },
  {
    "latitude": 2.34861,
    "longitude": 48.38639,
    "name": "Aéroport",
    "city": "Genevrelle é Maisse",
    "description": "LF9151"
  },
  {
    "latitude": 1.1975,
    "longitude": 47.33694,
    "name": "Aéroport",
    "city": "St Julien-Montrichard",
    "description": "LF4125"
  },
  {
    "latitude": 0.29778,
    "longitude": 44.70972,
    "name": "Aéroport",
    "city": "St Jean de Duras",
    "description": "LF4737"
  },
  {
    "latitude": -1.50667,
    "longitude": 49.20306,
    "name": "Aéroport",
    "city": "Lessay (LFOM)",
    "description": ""
  },
  {
    "latitude": 6.08472,
    "longitude": 45.08833,
    "name": "Aéroport",
    "city": "L'Alpe d'Huez (LFHU)",
    "description": ""
  },
  {
    "latitude": -0.25833,
    "longitude": 43.16944,
    "name": "Aéroport",
    "city": "Asson",
    "description": "LF6421"
  },
  {
    "latitude": 1.31528,
    "longitude": 44.9425,
    "name": "Aéroport",
    "city": "Eyrignac",
    "description": "LF2426"
  },
  {
    "latitude": 4.2975,
    "longitude": 45.53417,
    "name": "Aéroport",
    "city": "Saint Etienne",
    "description": "Bouthéon (LFMH)"
  },
  {
    "latitude": 3.08694,
    "longitude": 50.56361,
    "name": "Aéroport",
    "city": "Lille",
    "description": "Lesquin (LFQQ)"
  },
  {
    "latitude": 6.22611,
    "longitude": 48.69222,
    "name": "Aéroport",
    "city": "Nancy",
    "description": "Essey (LFSN)"
  },
  {
    "latitude": 3.18333,
    "longitude": 43.98917,
    "name": "Aéroport",
    "city": "Millau Larzac (LFCM)",
    "description": ""
  },
  {
    "latitude": -0.515,
    "longitude": 45.57,
    "name": "Aéroport",
    "city": "Pons Avy (LFCP)",
    "description": ""
  },
  {
    "latitude": 6.47139,
    "longitude": 43.74917,
    "name": "Aéroport",
    "city": "Trigance",
    "description": "LF8322"
  },
  {
    "latitude": 0.41028,
    "longitude": 43.67833,
    "name": "Aéroport",
    "city": "Biran",
    "description": "LF3225"
  },
  {
    "latitude": 3.19167,
    "longitude": 46.07222,
    "name": "Aéroport",
    "city": "Jayet Gannat",
    "description": "LF6326"
  },
  {
    "latitude": 3.77833,
    "longitude": 47.98222,
    "name": "Aéroport",
    "city": "Saint Florentin Cheu (LFGP)",
    "description": ""
  },
  {
    "latitude": -0.97556,
    "longitude": 45.63111,
    "name": "Aéroport",
    "city": "Royan",
    "description": "Médis (LFCY)"
  },
  {
    "latitude": 1.60111,
    "longitude": 46.59583,
    "name": "Aéroport",
    "city": "Argenton sur Creuse (LFEG)",
    "description": ""
  },
  {
    "latitude": 4.91361,
    "longitude": 45.65417,
    "name": "Aéroport",
    "city": "Lyon",
    "description": "Corbas (LFHJ)"
  },
  {
    "latitude": 3.21667,
    "longitude": 49.75,
    "name": "Aéroport",
    "city": "Saint Simon Clastres (LFYT)",
    "description": ""
  },
  {
    "latitude": 4.90806,
    "longitude": 44.33694,
    "name": "Aéroport",
    "city": "Valréas",
    "description": "Visan (LFNV)"
  },
  {
    "latitude": 2.36278,
    "longitude": 46.22611,
    "name": "Aéroport",
    "city": "Montlucon",
    "description": "Guéret (LFBK)"
  },
  {
    "latitude": 1.63861,
    "longitude": 49.30611,
    "name": "Aéroport",
    "city": "Etrepagny (LFFY)",
    "description": ""
  },
  {
    "latitude": 5.38472,
    "longitude": 45.56,
    "name": "Aéroport",
    "city": "La Tour du Pin",
    "description": "Cessieu (LFKP)"
  },
  {
    "latitude": 2.17917,
    "longitude": 43.75806,
    "name": "Aéroport",
    "city": "Venes",
    "description": "LF8122"
  },
  {
    "latitude": 6.58611,
    "longitude": 45.95,
    "name": "Aéroport",
    "city": "St Roch Mayéres",
    "description": "LF7430"
  },
  {
    "latitude": 3.55833,
    "longitude": 48.31389,
    "name": "Aéroport",
    "city": "Courgenay",
    "description": "LF8922"
  },
  {
    "latitude": -0.26111,
    "longitude": 45.375,
    "name": "Aéroport",
    "city": "Baignes",
    "description": "LF1621"
  },
  {
    "latitude": 6.94833,
    "longitude": 47.80333,
    "name": "Aéroport",
    "city": "Maseveaux Oberbruck",
    "description": "LF6821"
  },
  {
    "latitude": -3.66389,
    "longitude": 48.35833,
    "name": "Aéroport",
    "city": "Poullaouen Le Stancou",
    "description": "LF2922"
  },
  {
    "latitude": -0.28333,
    "longitude": 43.42778,
    "name": "Aéroport",
    "city": "Lasclaverie",
    "description": "LF6426"
  },
  {
    "latitude": 5.85694,
    "longitude": 44.56028,
    "name": "Aéroport",
    "city": "Montmaur",
    "description": "LF0537"
  },
  {
    "latitude": 0.98333,
    "longitude": 49.8,
    "name": "Aéroport",
    "city": "Lammerville",
    "description": "LF7621"
  },
  {
    "latitude": -1.08222,
    "longitude": 45.495,
    "name": "Aéroport",
    "city": "Soulac sur Mer (LFDK)",
    "description": ""
  },
  {
    "latitude": 1.68972,
    "longitude": 49.07889,
    "name": "Aéroport",
    "city": "Mantes",
    "description": "Cherence (LFFC)"
  },
  {
    "latitude": 5.11333,
    "longitude": 48.7825,
    "name": "Aéroport",
    "city": "Fains Véel",
    "description": "LF5525"
  },
  {
    "latitude": 2.42556,
    "longitude": 45.53694,
    "name": "Aéroport",
    "city": "Ussel",
    "description": "Thalamy (LFCU)"
  },
  {
    "latitude": 4.74472,
    "longitude": 47.32167,
    "name": "Aéroport",
    "city": "Mesmont",
    "description": "LF2130"
  },
  {
    "latitude": -1.575,
    "longitude": 46.495,
    "name": "Aéroport",
    "city": "Talmont Vendée Air Park",
    "description": "LF8521"
  },
  {
    "latitude": 3.265,
    "longitude": 50.1425,
    "name": "Aéroport",
    "city": "Cambrai",
    "description": "Niergnies (LFYG)"
  },
  {
    "latitude": 1.5775,
    "longitude": 50.70361,
    "name": "Aéroport",
    "city": "Boulogne sur mer - Le Portel",
    "description": "LF6251"
  },
  {
    "latitude": 1.57694,
    "longitude": 43.36944,
    "name": "Aéroport",
    "city": "Nailloux",
    "description": "LF3123"
  },
  {
    "latitude": 5.86667,
    "longitude": 47.93333,
    "name": "Aéroport",
    "city": "Moulin de Lachat Enfonvelle",
    "description": "LF5221"
  },
  {
    "latitude": 4.75556,
    "longitude": 43.99694,
    "name": "Aéroport",
    "city": "Avignon",
    "description": "Pujaut (LFNT)"
  },
  {
    "latitude": 7.63222,
    "longitude": 48.54056,
    "name": "Aéroport",
    "city": "Strasbourg Entzheim",
    "description": "LFST"
  },
  {
    "latitude": 6.79139,
    "longitude": 47.48667,
    "name": "Aéroport",
    "city": "Montbéliard",
    "description": "Courcelles (LFSM)"
  },
  {
    "latitude": 0.64639,
    "longitude": 44.69722,
    "name": "Aéroport",
    "city": "Castillonés - Cavarc",
    "description": "LF4722"
  },
  {
    "latitude": 4.135,
    "longitude": 46.46778,
    "name": "Aéroport",
    "city": "Paray le Monial (LFGN)",
    "description": ""
  },
  {
    "latitude": 0.76861,
    "longitude": 43.89472,
    "name": "Aéroport",
    "city": "Saint Clar",
    "description": "LF3254"
  },
  {
    "latitude": 6.89444,
    "longitude": 45.425,
    "name": "Aéroport",
    "city": "Glacier de la Grande Motte Tignes",
    "description": "LF7324"
  },
  {
    "latitude": 3.50861,
    "longitude": 47.43833,
    "name": "Aéroport",
    "city": "Clamecy (LFJC)",
    "description": ""
  },
  {
    "latitude": 4.01417,
    "longitude": 49.71667,
    "name": "Aéroport",
    "city": "Thiérache - Vigneux",
    "description": "LF0255"
  },
  {
    "latitude": 2.38444,
    "longitude": 45.22056,
    "name": "Aéroport",
    "city": "Sion Le Vigean",
    "description": "LF1551"
  },
  {
    "latitude": -0.16667,
    "longitude": 44.63333,
    "name": "Aéroport",
    "city": "Ste Foy",
    "description": "LF3323"
  },
  {
    "latitude": 3.08583,
    "longitude": 46.92333,
    "name": "Aéroport",
    "city": "Gimouille",
    "description": "LF5853"
  },
  {
    "latitude": 6.21833,
    "longitude": 48.765,
    "name": "Aéroport",
    "city": "Grand Couronné",
    "description": "LF5453"
  },
  {
    "latitude": 5.33278,
    "longitude": 45.36306,
    "name": "Aéroport",
    "city": "Grenoble",
    "description": "Saint Geoirs (LFLS)"
  },
  {
    "latitude": 6.08417,
    "longitude": 47.27472,
    "name": "Aéroport",
    "city": "Besancon",
    "description": "Thise (LFSA)"
  },
  {
    "latitude": 4.77055,
    "longitude": 47.92361,
    "name": "Aéroport",
    "city": "Souhil",
    "description": "LF2132"
  },
  {
    "latitude": 0.51971,
    "longitude": 43.95944,
    "name": "Aéroport",
    "city": "Lectoure Marsolan",
    "description": "LF3233"
  },
  {
    "latitude": 0.20167,
    "longitude": 47.94861,
    "name": "Aéroport",
    "city": "Le Mans",
    "description": "Arnage (LFRM)"
  },
  {
    "latitude": 7.09472,
    "longitude": 47.72444,
    "name": "Aéroport",
    "city": "Soppe",
    "description": "LF6852"
  },
  {
    "latitude": 1.35722,
    "longitude": 43.54917,
    "name": "Aéroport",
    "city": "Toulouse",
    "description": "Francazal (LFBF)"
  },
  {
    "latitude": 6.16,
    "longitude": 43.79167,
    "name": "Aéroport",
    "city": "Ste Croix sur Verdon",
    "description": "LF0429"
  },
  {
    "latitude": 4.23332,
    "longitude": 43.91667,
    "name": "Aéroport",
    "city": "Mas le Comte",
    "description": "LF3021"
  },
  {
    "latitude": 6.4825,
    "longitude": 43.20639,
    "name": "Aéroport",
    "city": "La Mole (LFTZ)",
    "description": ""
  },
  {
    "latitude": 0.72722,
    "longitude": 44.10444,
    "name": "Aéroport",
    "city": "Caudecoste",
    "description": "LF4753"
  },
  {
    "latitude": 2.025,
    "longitude": 42.58056,
    "name": "Aéroport",
    "city": "Mont Llaret Roc d'Aude Les Angles",
    "description": "LF6626"
  },
  {
    "latitude": 2.2,
    "longitude": 43.55,
    "name": "Aéroport",
    "city": "St Afrique les Montagnes",
    "description": "LF8123"
  },
  {
    "latitude": -4.2525,
    "longitude": 47.82444,
    "name": "Aéroport",
    "city": "Querlan Lesconil",
    "description": "LF2923"
  },
  {
    "latitude": 7.10833,
    "longitude": 49.12806,
    "name": "Aéroport",
    "city": "Sarreguemines",
    "description": "Neunkirch (LFGU)"
  },
  {
    "latitude": 1.78333,
    "longitude": 44.4,
    "name": "Aéroport",
    "city": "Limogne en Quercy",
    "description": "LF4626"
  },
  {
    "latitude": 3.68333,
    "longitude": 47.6,
    "name": "Aéroport",
    "city": "Mailly",
    "description": "LF8924"
  },
  {
    "latitude": 2.03889,
    "longitude": 42.65417,
    "name": "Aéroport",
    "city": "Clos de Legua",
    "description": "LF6624"
  },
  {
    "latitude": 4.34417,
    "longitude": 47.48194,
    "name": "Aéroport",
    "city": "Sémur en Auxois (LFGQ)",
    "description": ""
  },
  {
    "latitude": 5.60939,
    "longitude": 49.32539,
    "name": "Aéroport",
    "city": "Billy-sous-Mangiennes",
    "description": "LF5552"
  },
  {
    "latitude": 1.29389,
    "longitude": 47.22083,
    "name": "Aéroport",
    "city": "Orbigny Les Pallis",
    "description": "LF3724"
  },
  {
    "latitude": 7.34167,
    "longitude": 48.35833,
    "name": "Aéroport",
    "city": "Albe",
    "description": "LF6721"
  },
  {
    "latitude": 1.55222,
    "longitude": 44.05833,
    "name": "Aéroport",
    "city": "Négrepelisse",
    "description": "LF8232"
  },
  {
    "latitude": 2.86972,
    "longitude": 42.74083,
    "name": "Aéroport",
    "city": "Perpignan",
    "description": "Rivessaltes (LFMP)"
  },
  {
    "latitude": 4.68444,
    "longitude": 48.70333,
    "name": "Aéroport",
    "city": "Vitry Le Franéois",
    "description": "Vauclerc (LFSK)"
  },
  {
    "latitude": 3.23639,
    "longitude": 45.97667,
    "name": "Aéroport",
    "city": "Sardon Lachamps",
    "description": "LF6329"
  },
  {
    "latitude": 1.18028,
    "longitude": 45.86083,
    "name": "Aéroport",
    "city": "Limoges",
    "description": "Bellegarde (LFBL)"
  },
  {
    "latitude": 0.72778,
    "longitude": 49.63861,
    "name": "Aéroport",
    "city": "Yvetot",
    "description": "LF7622"
  },
  {
    "latitude": 6.69778,
    "longitude": 43.42333,
    "name": "Aéroport",
    "city": "Frejus",
    "description": "LF8352"
  },
  {
    "latitude": 6.35,
    "longitude": 47.16667,
    "name": "Aéroport",
    "city": "Le Valdahon (LFXH)",
    "description": ""
  },
  {
    "latitude": 0.6,
    "longitude": 43.68694,
    "name": "Aéroport",
    "city": "Auch",
    "description": "Lamotte (LFDH)"
  },
  {
    "latitude": 3.99361,
    "longitude": 48.58806,
    "name": "Aéroport",
    "city": "Plancy - La Caroline",
    "description": "LF1052"
  },
  {
    "latitude": 1.53333,
    "longitude": 44.48944,
    "name": "Aéroport",
    "city": "Vers",
    "description": "LF4631"
  },
  {
    "latitude": 5.6675,
    "longitude": 46.27917,
    "name": "Aéroport",
    "city": "Oyonnax",
    "description": "Arbent (LFLK)"
  },
  {
    "latitude": 6.73921,
    "longitude": 49.10167,
    "name": "Aéroport",
    "city": "St Avold",
    "description": "LF5723"
  },
  {
    "latitude": 5.776,
    "longitude": 45.714,
    "name": "Aéroport",
    "city": "Yenne",
    "description": "LF7351"
  },
  {
    "latitude": 9.19389,
    "longitude": 42.29083,
    "name": "Aéroport",
    "city": "Corte (LFKT)",
    "description": ""
  },
  {
    "latitude": -1.23833,
    "longitude": 46.4625,
    "name": "Aéroport",
    "city": "Luéon Chasnais",
    "description": "LF8523"
  },
  {
    "latitude": 3.67833,
    "longitude": 50.25194,
    "name": "Aéroport",
    "city": "Villereau",
    "description": "LF5951"
  },
  {
    "latitude": 5.65,
    "longitude": 44.42583,
    "name": "Aéroport",
    "city": "Le Grand Terrus",
    "description": "LF0524"
  },
  {
    "latitude": 6.46333,
    "longitude": 46.28889,
    "name": "Aéroport",
    "city": "Habére Poche",
    "description": "LF7469"
  },
  {
    "latitude": 3.45111,
    "longitude": 45.56194,
    "name": "Aéroport",
    "city": "Condat les Montboissiers",
    "description": "LF6325"
  },
  {
    "latitude": 4.56111,
    "longitude": 47.22139,
    "name": "Aéroport",
    "city": "Pouilly",
    "description": "Maconge (LFEP)"
  },
  {
    "latitude": 3.46556,
    "longitude": 50.32472,
    "name": "Aéroport",
    "city": "valenciennes",
    "description": "Denain (LFAV)"
  },
  {
    "latitude": 2.62389,
    "longitude": 48.82306,
    "name": "Aéroport",
    "city": "Lognes",
    "description": "Emerainville (LFPL)"
  },
  {
    "latitude": 0.38722,
    "longitude": 43.91028,
    "name": "Aéroport",
    "city": "Condom",
    "description": "Valance sur Baise (LFID)"
  },
  {
    "latitude": 2.16667,
    "longitude": 42.6625,
    "name": "Aéroport",
    "city": "Col de la Marrano",
    "description": "LF6622"
  },
  {
    "latitude": 8.79306,
    "longitude": 42.52056,
    "name": "Aéroport",
    "city": "Calvi",
    "description": "Sainte Catherine (LFKC)"
  },
  {
    "latitude": 5.15472,
    "longitude": 44.69639,
    "name": "Aéroport",
    "city": "Aubenasson (LFJF)",
    "description": ""
  },
  {
    "latitude": 2.11278,
    "longitude": 49.45444,
    "name": "Aéroport",
    "city": "Beauvais",
    "description": "Tille (LFOB)"
  },
  {
    "latitude": 1.18527,
    "longitude": 47.51972,
    "name": "Aéroport",
    "city": "Blois-Onzain",
    "description": "LF4151"
  },
  {
    "latitude": 6.025,
    "longitude": 45.0117,
    "name": "Aéroport",
    "city": "Villard Notre-Dame",
    "description": "LF3829"
  },
  {
    "latitude": 4.54722,
    "longitude": 46.07806,
    "name": "Aéroport",
    "city": "Croix Roziers Claveisolles",
    "description": "LF6921"
  },
  {
    "latitude": 6.22556,
    "longitude": 45.77667,
    "name": "Aéroport",
    "city": "Doussard",
    "description": "LF7455"
  },
  {
    "latitude": 5.88611,
    "longitude": 45.34111,
    "name": "Aéroport",
    "city": "Créte de Brouffiers",
    "description": "LF3822"
  },
  {
    "latitude": 1.18444,
    "longitude": 43.22667,
    "name": "Aéroport",
    "city": "Rieux",
    "description": "LF3125"
  },
  {
    "latitude": 3.28306,
    "longitude": 49.345,
    "name": "Aéroport",
    "city": "Soissons",
    "description": "Courmelles (LFJS)"
  },
  {
    "latitude": 1.94167,
    "longitude": 44.41667,
    "name": "Aéroport",
    "city": "Ste Croix",
    "description": "LF1232"
  },
  {
    "latitude": 5.16,
    "longitude": 43.86917,
    "name": "Aéroport",
    "city": "Coustellet",
    "description": "LF8424"
  },
  {
    "latitude": 2.11111,
    "longitude": 48.74972,
    "name": "Aéroport",
    "city": "Toussus Le Noble (LFPN)",
    "description": ""
  },
  {
    "latitude": 0.74667,
    "longitude": 44.88111,
    "name": "Aéroport",
    "city": "Lalinde",
    "description": "LF2430"
  },
  {
    "latitude": 5.47083,
    "longitude": 49.12222,
    "name": "Aéroport",
    "city": "Verdun",
    "description": "Le Rozelier (LFGW)"
  },
  {
    "latitude": 4.92417,
    "longitude": 43.5225,
    "name": "Aéroport",
    "city": "Istres",
    "description": "Le Tube (LFMI)"
  },
  {
    "latitude": 1.31472,
    "longitude": 46.52222,
    "name": "Aéroport",
    "city": "Prissac",
    "description": "LF3628"
  },
  {
    "latitude": 4.05083,
    "longitude": 49.31028,
    "name": "Aéroport",
    "city": "Reims",
    "description": "Champagne (LFSR)"
  },
  {
    "latitude": -0.8,
    "longitude": 44.85,
    "name": "Aéroport",
    "city": "Bordeaux Souge",
    "description": "LF3325"
  },
  {
    "latitude": 4.01222,
    "longitude": 44.24444,
    "name": "Aéroport",
    "city": "La Grand Combe (LFTN)",
    "description": ""
  },
  {
    "latitude": 2.82608,
    "longitude": 47.557,
    "name": "Aéroport",
    "city": "Beaulieu-sur-Loire",
    "description": "LF4554"
  },
  {
    "latitude": 1.76056,
    "longitude": 47.98778,
    "name": "Aéroport",
    "city": "Orléans",
    "description": "Bricy (LFOJ)"
  },
  {
    "latitude": 5.85,
    "longitude": 48.23333,
    "name": "Aéroport",
    "city": "Vittel Auzainvillier",
    "description": "LF8822"
  },
  {
    "latitude": 3.18333,
    "longitude": 43.31667,
    "name": "Aéroport",
    "city": "Limbardier",
    "description": "LF3422"
  },
  {
    "latitude": -0.93333,
    "longitude": 47.43333,
    "name": "Aéroport",
    "city": "St Sigismond",
    "description": "LF4923"
  },
  {
    "latitude": 2.37972,
    "longitude": 48.72333,
    "name": "Aéroport",
    "city": "Paris",
    "description": "Orly (LFPO)"
  },
  {
    "latitude": 5.80611,
    "longitude": 46.12417,
    "name": "Aéroport",
    "city": "Bellegarde",
    "description": "Vouvray (LFHN)"
  },
  {
    "latitude": 1.41917,
    "longitude": 45.11361,
    "name": "Aéroport",
    "city": "St Cernin de Larche",
    "description": "LF1929"
  },
  {
    "latitude": 1.85278,
    "longitude": 48.16111,
    "name": "Aéroport",
    "city": "Santilly",
    "description": "LF2825"
  },
  {
    "latitude": 6.66083,
    "longitude": 46.37333,
    "name": "Aéroport",
    "city": "Bernex",
    "description": "LF7451"
  },
  {
    "latitude": 6.48306,
    "longitude": 49.42056,
    "name": "Aéroport",
    "city": "Rémeling",
    "description": "LF5753"
  },
  {
    "latitude": 1.36778,
    "longitude": 43.63528,
    "name": "Aéroport",
    "city": "Toulouse",
    "description": "Blagnac (LFBO)"
  },
  {
    "latitude": 0.01694,
    "longitude": 45.26806,
    "name": "Aéroport",
    "city": "Chalais (LFIH)",
    "description": ""
  },
  {
    "latitude": -4.44361,
    "longitude": 48.2825,
    "name": "Aéroport",
    "city": "Lanveoc",
    "description": "Poulmic (LFRL)"
  },
  {
    "latitude": 0.64583,
    "longitude": 44.91889,
    "name": "Aéroport",
    "city": "Liorac",
    "description": "LF2431"
  },
  {
    "latitude": 6.21806,
    "longitude": 44.45833,
    "name": "Aéroport",
    "city": "Espinasses",
    "description": "LF0529"
  },
  {
    "latitude": -0.45,
    "longitude": 45.9,
    "name": "Aéroport",
    "city": "Fontenet",
    "description": "LF1723"
  },
  {
    "latitude": 0.21917,
    "longitude": 45.72944,
    "name": "Aéroport",
    "city": "Angouléme",
    "description": "Brie Champniers (LFBU)"
  },
  {
    "latitude": 0.51527,
    "longitude": 42.86306,
    "name": "Aéroport",
    "city": "Cap de Barres",
    "description": "LF3131"
  },
  {
    "latitude": -0.35,
    "longitude": 45.51667,
    "name": "Aéroport",
    "city": "Archiac",
    "description": "LF1721"
  },
  {
    "latitude": -0.67167,
    "longitude": 46.24583,
    "name": "Aéroport",
    "city": "St Georges de Rex",
    "description": "LF7928"
  },
  {
    "latitude": 2.73056,
    "longitude": 44.09722,
    "name": "Aéroport",
    "city": "Ayssénes",
    "description": "LF1230"
  },
  {
    "latitude": 5.78417,
    "longitude": 43.73778,
    "name": "Aéroport",
    "city": "Vinon (LFNF)",
    "description": ""
  },
  {
    "latitude": 4.08639,
    "longitude": 46.08806,
    "name": "Aéroport",
    "city": "Roanne Mably",
    "description": "LF4225"
  },
  {
    "latitude": 6.48333,
    "longitude": 49.03889,
    "name": "Aéroport",
    "city": "Vittoncourt",
    "description": "LF5724"
  },
  {
    "latitude": 2.73167,
    "longitude": 46.64944,
    "name": "Aéroport",
    "city": "St Bonnet Troncais",
    "description": "LF0321"
  },
  {
    "latitude": 1.01667,
    "longitude": 48.50833,
    "name": "Aéroport",
    "city": "Fontaine Simon",
    "description": "LF2827"
  },
  {
    "latitude": 1.11667,
    "longitude": 46.35833,
    "name": "Aéroport",
    "city": "Brigueil",
    "description": "LF8722"
  },
  {
    "latitude": 0.63332,
    "longitude": 43.06667,
    "name": "Aéroport",
    "city": "Cier de Riviere",
    "description": "LF3137"
  },
  {
    "latitude": -2.56917,
    "longitude": 48.55667,
    "name": "Aéroport",
    "city": "Le Val-André",
    "description": "LF2223"
  },
  {
    "latitude": 2.02806,
    "longitude": 44.37,
    "name": "Aéroport",
    "city": "Villefranche de Rouergue (LFCV)",
    "description": ""
  },
  {
    "latitude": 1.73083,
    "longitude": 48.56056,
    "name": "Aéroport",
    "city": "Ecrosnes",
    "description": "LF2830"
  },
  {
    "latitude": 1.01221,
    "longitude": 47.15361,
    "name": "Aéroport",
    "city": "Loches",
    "description": "LF3752"
  },
  {
    "latitude": 5.45361,
    "longitude": 45.68778,
    "name": "Aéroport",
    "city": "Morestel (LFHI)",
    "description": ""
  },
  {
    "latitude": 6.18306,
    "longitude": 43.62528,
    "name": "Aéroport",
    "city": "Aups",
    "description": "LF8326"
  },
  {
    "latitude": 1.80167,
    "longitude": 45.17778,
    "name": "Aéroport",
    "city": "Lagarde Enval",
    "description": "LF1926"
  },
  {
    "latitude": 0.72333,
    "longitude": 47.43194,
    "name": "Aéroport",
    "city": "Tours",
    "description": "Val de Loire (LFOT)"
  },
  {
    "latitude": 3.32806,
    "longitude": 45.94417,
    "name": "Aéroport",
    "city": "Grand Prouilhat - Maringues",
    "description": "LF6352"
  },
  {
    "latitude": -0.31222,
    "longitude": 47.56028,
    "name": "Aéroport",
    "city": "Angers",
    "description": "Marce (LFJR)"
  },
  {
    "latitude": 1.26667,
    "longitude": 45.33333,
    "name": "Aéroport",
    "city": "St Mesmin",
    "description": "LF2437"
  },
  {
    "latitude": 5.89056,
    "longitude": 49.41139,
    "name": "Aéroport",
    "city": "Villerupt (LFAW)",
    "description": ""
  },
  {
    "latitude": -0.01111,
    "longitude": 42.99306,
    "name": "Aéroport",
    "city": "Hautacam lieu dit Caucipeyre",
    "description": "LF6529"
  },
  {
    "latitude": 3.18833,
    "longitude": 44.84444,
    "name": "Aéroport",
    "city": "Fenestres",
    "description": "LF4825"
  },
  {
    "latitude": 1.72528,
    "longitude": 43.61222,
    "name": "Aéroport",
    "city": "Toulouse",
    "description": "Bours Dt Bernard (LFIT)"
  },
  {
    "latitude": -1.18806,
    "longitude": 47.74056,
    "name": "Aéroport",
    "city": "Chateaubriant",
    "description": "Pouance (LFTQ)"
  },
  {
    "latitude": 3.01444,
    "longitude": 48.8375,
    "name": "Aéroport",
    "city": "Coulommiers",
    "description": "Voisins (LFPK)"
  },
  {
    "latitude": 5.7475,
    "longitude": 45.44,
    "name": "Aéroport",
    "city": "Les Echelles",
    "description": "LF3862"
  },
  {
    "latitude": 3.5075,
    "longitude": 45.10556,
    "name": "Aéroport",
    "city": "Mazeyrat",
    "description": "LF4321"
  },
  {
    "latitude": 5.74333,
    "longitude": 47.97167,
    "name": "Aéroport",
    "city": "Bourbonne les Bains",
    "description": "LF5223"
  },
  {
    "latitude": -0.71528,
    "longitude": 43.34667,
    "name": "Aéroport",
    "city": "Navarrenx",
    "description": "LF6431"
  },
  {
    "latitude": 1.66111,
    "longitude": 49.25972,
    "name": "Aéroport",
    "city": "Les Noyers",
    "description": "LF2751"
  },
  {
    "latitude": 2.59805,
    "longitude": 48.16722,
    "name": "Aéroport",
    "city": "Mondreville",
    "description": "LF7752"
  },
  {
    "latitude": 7.07778,
    "longitude": 48.95139,
    "name": "Aéroport",
    "city": "Sarre Union (LFQU)",
    "description": ""
  },
  {
    "latitude": 0.67306,
    "longitude": 45.74111,
    "name": "Aéroport",
    "city": "Les Salles",
    "description": "LF8723"
  },
  {
    "latitude": 6.8325,
    "longitude": 47.70222,
    "name": "Aéroport",
    "city": "Belfort",
    "description": "Chaux (LFGG)"
  },
  {
    "latitude": 0.40389,
    "longitude": 44.36222,
    "name": "Aéroport",
    "city": "Clairac",
    "description": "LF4732"
  },
  {
    "latitude": 3.1625,
    "longitude": 45.78611,
    "name": "Aéroport",
    "city": "Clermont Ferrand",
    "description": "Auvergne (LFLC)"
  },
  {
    "latitude": 8.8025,
    "longitude": 41.92389,
    "name": "Aéroport",
    "city": "Ajaccio",
    "description": "Campo d(ell Oro (LFKJ)"
  },
  {
    "latitude": 6.70972,
    "longitude": 45.60722,
    "name": "Aéroport",
    "city": "Vaugellaz",
    "description": "LF7329"
  },
  {
    "latitude": 5.77367,
    "longitude": 45.795,
    "name": "Aéroport",
    "city": "Lavours",
    "description": "LF0125"
  },
  {
    "latitude": 1.98222,
    "longitude": 48.84361,
    "name": "Aéroport",
    "city": "Chavenay Villepreux",
    "description": "LFPX"
  },
  {
    "latitude": 2.34,
    "longitude": 47.79444,
    "name": "Aéroport",
    "city": "St Benoit sur Loire",
    "description": "LF4552"
  },
  {
    "latitude": 6.43889,
    "longitude": 48.715,
    "name": "Aéroport",
    "city": "Hoeville",
    "description": "LF5451"
  },
  {
    "latitude": 1.36278,
    "longitude": 48.70667,
    "name": "Aéroport",
    "city": "Dreux",
    "description": "Vernouillet (LFON)"
  },
  {
    "latitude": 2.64028,
    "longitude": 50.61667,
    "name": "Aéroport",
    "city": "Merville Calonne (LFQT)",
    "description": ""
  },
  {
    "latitude": 3.13333,
    "longitude": 43.9,
    "name": "Aéroport",
    "city": "St Beaulize",
    "description": "LF1227"
  },
  {
    "latitude": 6.33,
    "longitude": 46.90944,
    "name": "Aéroport",
    "city": "Pontarlier (LFSP)",
    "description": ""
  },
  {
    "latitude": 1.41722,
    "longitude": 43.20361,
    "name": "Aéroport",
    "city": "Villeneuve du Latou",
    "description": "LF0925"
  },
  {
    "latitude": 5.27611,
    "longitude": 43.74861,
    "name": "Aéroport",
    "city": "Puget",
    "description": "LF8425"
  },
  {
    "latitude": -2.18194,
    "longitude": 47.94389,
    "name": "Aéroport",
    "city": "Coétquidan (LFXQ)",
    "description": ""
  },
  {
    "latitude": 3.01667,
    "longitude": 42.74528,
    "name": "Aéroport",
    "city": "Torreilles",
    "description": "LF6651"
  },
  {
    "latitude": 7.045,
    "longitude": 47.62222,
    "name": "Aéroport",
    "city": "Valdieu-Lutran",
    "description": "LF6851"
  },
  {
    "latitude": 2.73806,
    "longitude": 49.11,
    "name": "Aéroport",
    "city": "Le Plessis Belleville (LFPP)",
    "description": ""
  },
  {
    "latitude": -2.85667,
    "longitude": 48.5375,
    "name": "Aéroport",
    "city": "Saint Brieuc",
    "description": "Armor (LFRT)"
  },
  {
    "latitude": 2.54833,
    "longitude": 45.26861,
    "name": "Aéroport",
    "city": "Trizac",
    "description": "LF1522"
  },
  {
    "latitude": 5.21194,
    "longitude": 47.5475,
    "name": "Aéroport",
    "city": "Til Chatel (LFET)",
    "description": ""
  },
  {
    "latitude": 6.61028,
    "longitude": 44.38833,
    "name": "Aéroport",
    "city": "Barcelonnette",
    "description": "Saint Pons (LFMR)"
  },
  {
    "latitude": 6.81472,
    "longitude": 47.17722,
    "name": "Aéroport",
    "city": "Fournet-Blancheroche",
    "description": "LF2553"
  },
  {
    "latitude": 0.52167,
    "longitude": 43.27944,
    "name": "Aéroport",
    "city": "Castelnau",
    "description": "Magnoac (LFDQ)"
  },
  {
    "latitude": -0.45,
    "longitude": 49.17333,
    "name": "Aéroport",
    "city": "Caen",
    "description": "Carpiquet (LFRK)"
  },
  {
    "latitude": 3.07667,
    "longitude": 50.68806,
    "name": "Aéroport",
    "city": "Lille Marcq en Baroeul",
    "description": "LFQO"
  },
  {
    "latitude": -1.1775,
    "longitude": 47.40806,
    "name": "Aéroport",
    "city": "Ancenis (LFFI)",
    "description": ""
  },
  {
    "latitude": 6.47361,
    "longitude": 44.07694,
    "name": "Aéroport",
    "city": "Thorame",
    "description": "LF0426"
  },
  {
    "latitude": 7.82028,
    "longitude": 48.79778,
    "name": "Aéroport",
    "city": "Haguenau (LFSH)",
    "description": ""
  },
  {
    "latitude": 4.83333,
    "longitude": 49.2,
    "name": "Aéroport",
    "city": "Servon Melzicourt",
    "description": "LF5122"
  },
  {
    "latitude": 6.60778,
    "longitude": 49.1175,
    "name": "Aéroport",
    "city": "Bambi Air Club",
    "description": "LF5710"
  },
  {
    "latitude": 4.86778,
    "longitude": 44.83722,
    "name": "Aéroport",
    "city": "Etoile Rhéne",
    "description": "LF2628"
  },
  {
    "latitude": 0.73806,
    "longitude": 47.75972,
    "name": "Aéroport",
    "city": "Sougé",
    "description": "LF4124"
  },
  {
    "latitude": 0.41667,
    "longitude": 43.32917,
    "name": "Aéroport",
    "city": "Sadournin",
    "description": "LF6530"
  },
  {
    "latitude": 5.62278,
    "longitude": 47.43333,
    "name": "Aéroport",
    "city": "Gray",
    "description": "Saint Adrien (LFEV)"
  },
  {
    "latitude": 2.38694,
    "longitude": 49.87306,
    "name": "Aéroport",
    "city": "Amiens (LFAY)",
    "description": ""
  },
  {
    "latitude": -0.84667,
    "longitude": 48.17361,
    "name": "Aéroport",
    "city": "Andouillé le Terte picard",
    "description": "LF5321"
  },
  {
    "latitude": 7.0125,
    "longitude": 47.65722,
    "name": "Aéroport",
    "city": "Belfort Fontaine",
    "description": "LF8921"
  },
  {
    "latitude": 6.64111,
    "longitude": 43.7775,
    "name": "Aéroport",
    "city": "Le Logis du Pin",
    "description": "LF8328"
  },
  {
    "latitude": -1.30417,
    "longitude": 43.71306,
    "name": "Aéroport",
    "city": "Soustons",
    "description": "LF4021"
  },
  {
    "latitude": 6.24583,
    "longitude": 44.99861,
    "name": "Aéroport",
    "city": "Déme de la Lauze La Grave",
    "description": "LF3823"
  },
  {
    "latitude": 6.54486,
    "longitude": 43.26028,
    "name": "Aéroport",
    "city": "Cogolin - Grimaud",
    "description": "LF8353"
  },
  {
    "latitude": 2.69139,
    "longitude": 49.9725,
    "name": "Aéroport",
    "city": "Albert Bray (LFAQ)",
    "description": ""
  },
  {
    "latitude": 2.61444,
    "longitude": 46.14361,
    "name": "Aéroport",
    "city": "St Fargeol Les Fougeres",
    "description": "LF0353"
  },
  {
    "latitude": 2.20722,
    "longitude": 47.07556,
    "name": "Aéroport",
    "city": "Sainte Thorette",
    "description": "LF1853"
  },
  {
    "latitude": 4.58333,
    "longitude": 45.39778,
    "name": "Aéroport",
    "city": "La Jasserie",
    "description": "LF4222"
  },
  {
    "latitude": 1.99028,
    "longitude": 43.4075,
    "name": "Aéroport",
    "city": "Montagne Noire (LFMG)",
    "description": ""
  },
  {
    "latitude": 2.07472,
    "longitude": 48.81139,
    "name": "Aéroport",
    "city": "St Cyr l'Ecole",
    "description": "LFPZ"
  },
  {
    "latitude": 3.52778,
    "longitude": 44.50417,
    "name": "Aéroport",
    "city": "Mende",
    "description": "Brenoux (LFNB)"
  },
  {
    "latitude": 1.98,
    "longitude": 43.48139,
    "name": "Aéroport",
    "city": "Revel",
    "description": "Montgey (LFIR)"
  },
  {
    "latitude": -1.161,
    "longitude": 48.42683,
    "name": "Aéroport",
    "city": "Landéan (Fougéres)",
    "description": "LF3551"
  },
  {
    "latitude": 1.01916,
    "longitude": 47.53639,
    "name": "Aéroport",
    "city": "Morand",
    "description": "LF3759"
  },
  {
    "latitude": 1.40417,
    "longitude": 43.31806,
    "name": "Aéroport",
    "city": "Esperce Pauzies",
    "description": "LF3122"
  },
  {
    "latitude": -0.63611,
    "longitude": 45.70194,
    "name": "Aéroport",
    "city": "Saintes",
    "description": "Thénac (LFXB)"
  },
  {
    "latitude": 6.60028,
    "longitude": 44.70167,
    "name": "Aéroport",
    "city": "Mont Dauphin",
    "description": "Saint Crépin (LFNC)"
  },
  {
    "latitude": 0.74167,
    "longitude": 45.96667,
    "name": "Aéroport",
    "city": "St Maurice",
    "description": "LF1627"
  },
  {
    "latitude": 3.29083,
    "longitude": 44.41333,
    "name": "Aéroport",
    "city": "La Canourgue Conques",
    "description": "LF4861"
  },
  {
    "latitude": 0.35833,
    "longitude": 46.10833,
    "name": "Aéroport",
    "city": "Genouille",
    "description": "LF8623"
  },
  {
    "latitude": -2.72333,
    "longitude": 47.71917,
    "name": "Aéroport",
    "city": "Vannes",
    "description": "Meucon (LFRV)"
  },
  {
    "latitude": 5.67611,
    "longitude": 49.22917,
    "name": "Aéroport",
    "city": "Etain",
    "description": "Rouvres (LFQE)"
  },
  {
    "latitude": 0.00306,
    "longitude": 43.05611,
    "name": "Aéroport",
    "city": "Artigues",
    "description": "LF6527"
  },
  {
    "latitude": 3.13061,
    "longitude": 43.21317,
    "name": "Aéroport",
    "city": "Fleury d'Aude",
    "description": "LF1151"
  },
  {
    "latitude": 4.3025,
    "longitude": 43.57472,
    "name": "Aéroport",
    "city": "Montcalm",
    "description": "LF3026"
  },
  {
    "latitude": 3.74639,
    "longitude": 45.51694,
    "name": "Aéroport",
    "city": "Ambert",
    "description": "Le Poyet (LFHT)"
  },
  {
    "latitude": -0.5736,
    "longitude": 47.49778,
    "name": "Aéroport",
    "city": "Angers Avrillé",
    "description": "LF4921"
  },
  {
    "latitude": 2.90444,
    "longitude": 48.70722,
    "name": "Aéroport",
    "city": "Fontenay Tresigny (LFPQ)",
    "description": ""
  },
  {
    "latitude": 0.03472,
    "longitude": 43.43583,
    "name": "Aéroport",
    "city": "Larreule",
    "description": "LF6540"
  },
  {
    "latitude": 3.14889,
    "longitude": 49.61028,
    "name": "Aéroport",
    "city": "Neuflieux",
    "description": "LF0253"
  },
  {
    "latitude": 4.41361,
    "longitude": 48.06694,
    "name": "Aéroport",
    "city": "Bar sur seine (LFFR)",
    "description": ""
  },
  {
    "latitude": 1.17167,
    "longitude": 46.30556,
    "name": "Aéroport",
    "city": "Lussac",
    "description": "LF8724"
  },
  {
    "latitude": 5.17,
    "longitude": 44.85278,
    "name": "Aéroport",
    "city": "Col de Bacchus",
    "description": "LF2623"
  },
  {
    "latitude": 2.11861,
    "longitude": 42.90583,
    "name": "Aéroport",
    "city": "Nébias",
    "description": "LF1125"
  },
  {
    "latitude": 3.35694,
    "longitude": 49.06722,
    "name": "Aéroport",
    "city": "Chateau Thierry",
    "description": "Belleau (LFFH)"
  },
  {
    "latitude": 5.93528,
    "longitude": 48.22389,
    "name": "Aéroport",
    "city": "Vittel",
    "description": "Champ de Courses (LFSZ)"
  },