[
  {
    "latitude": -1.32416,
    "longitude": 44.09326,
    "name": "Camping",
    "city": "Lous Seurrots **** Saint Julien en Born (Contis-plage)",
    "description": "+33 558428582"
  },
  {
    "latitude": 0.54999,
    "longitude": 47.34945,
    "name": "Camping",
    "city": "La Confluence",
    "description": "Savonnieres"
  },
  {
    "latitude": 5.77561,
    "longitude": 47.74305,
    "name": "Camping",
    "city": "du Lac",
    "description": "Preigney"
  },
  {
    "latitude": 3.66557,
    "longitude": 46.51665,
    "name": "Camping",
    "city": "Municipal ** Dompierre sur Bresbre",
    "description": "+33 470345557"
  },
  {
    "latitude": -1.30541,
    "longitude": 43.92245,
    "name": "Camping",
    "city": "L Oceane ** Vielle Saint Girons",
    "description": ""
  },
  {
    "latitude": 9.35998,
    "longitude": 41.59366,
    "name": "Camping",
    "city": "La Chiappa FKK",
    "description": "Piccovagia"
  },
  {
    "latitude": 6.33951,
    "longitude": 44.60451,
    "name": "Camping",
    "city": "Reallon",
    "description": "Reallon"
  },
  {
    "latitude": 1.16806,
    "longitude": 46.34806,
    "name": "Camping",
    "city": "Municipal Les Forges ** Lussac les Eglises",
    "description": ""
  },
  {
    "latitude": 7.71482,
    "longitude": 48.57539,
    "name": "Camping",
    "city": "La Montagne Verte ** Strasbourg",
    "description": ""
  },
  {
    "latitude": 4.39472,
    "longitude": 44.39306,
    "name": "Camping",
    "city": "Le Clapas *** Salavas",
    "description": "+33 475371476"
  },
  {
    "latitude": -2.9491,
    "longitude": 47.57295,
    "name": "Camping",
    "city": "Loc-Ker ** Locqmariaquer",
    "description": ""
  },
  {
    "latitude": -2.18597,
    "longitude": 46.94524,
    "name": "Camping",
    "city": "du Midi *** Barbatre",
    "description": "+33 251396374"
  },
  {
    "latitude": 2.46201,
    "longitude": 44.89887,
    "name": "Camping",
    "city": "Camp de la Cere *** Arpajon sur Cere",
    "description": "+33 471645507"
  },
  {
    "latitude": 1.95538,
    "longitude": 42.47879,
    "name": "Camping",
    "city": "Municipal Sol y Neu ** Angoustrine Villeneuve Escaldes",
    "description": ""
  },
  {
    "latitude": 0.64212,
    "longitude": 49.78334,
    "name": "Camping",
    "city": "Municipal *** Cany Barville",
    "description": "+33 235977037"
  },
  {
    "latitude": 2.47821,
    "longitude": 48.82803,
    "name": "Camping",
    "city": "Boulevard des Allies",
    "description": "Paris"
  },
  {
    "latitude": 4.40451,
    "longitude": 47.87035,
    "name": "Camping",
    "city": "Les Grebles du Lac ** Marcenay",
    "description": "Le Fourneau"
  },
  {
    "latitude": 5.42538,
    "longitude": 44.1028,
    "name": "Camping",
    "city": "du Deffends ** Sault",
    "description": "route de Saint Trinit"
  },
  {
    "latitude": 1.59431,
    "longitude": 43.4504,
    "name": "Camping",
    "city": "Les Peupliers * Ayguesvives",
    "description": "+33 561811111"
  },
  {
    "latitude": -1.40012,
    "longitude": 43.33938,
    "name": "Camping",
    "city": "Hiriberria *** Itxassou",
    "description": "+33 559299809"
  },
  {
    "latitude": 2.11604,
    "longitude": 47.86886,
    "name": "Camping",
    "city": "L Isle aux Moulins ** Jargeau",
    "description": ""
  },
  {
    "latitude": 3.03364,
    "longitude": 42.73881,
    "name": "Camping",
    "city": "Municipal de la Plage *** Sainte Marie la Mer",
    "description": "+33 468806859"
  },
  {
    "latitude": 5.153,
    "longitude": 44.365,
    "name": "Camping",
    "city": "Les Clos **** Nyons",
    "description": ""
  },
  {
    "latitude": -4.02694,
    "longitude": 47.85617,
    "name": "Camping",
    "city": "Plage de Cleut-Rouz *** Fouesnant",
    "description": "+33 298565319"
  },
  {
    "latitude": 6.8562,
    "longitude": 48.0639,
    "name": "Camping",
    "city": "Les Sapins *** Gerardmer",
    "description": ""
  },
  {
    "latitude": 2.4967,
    "longitude": 43.6284,
    "name": "Camping",
    "city": "La Lande ** Brassac",
    "description": ""
  },
  {
    "latitude": 3.04129,
    "longitude": 44.6621,
    "name": "Camping",
    "city": "Municipal * Nasbinals",
    "description": ""
  },
  {
    "latitude": 2.22244,
    "longitude": 45.1367,
    "name": "Camping",
    "city": "Entassit *** Pleaux",
    "description": "+33 471404005"
  },
  {
    "latitude": -1.21719,
    "longitude": 45.82249,
    "name": "Camping",
    "city": "Arepos **** Saint Trojan les Bains",
    "description": ""
  },
  {
    "latitude": -3.06587,
    "longitude": 47.60825,
    "name": "Camping",
    "city": "Le Moustoir *** Carnac",
    "description": ""
  },
  {
    "latitude": 4.49001,
    "longitude": 48.35667,
    "name": "Camping",
    "city": "Municipal Le Garillon ** Radonvilliers",
    "description": ""
  },
  {
    "latitude": 5.087,
    "longitude": 44.551,
    "name": "Camping",
    "city": "La Source du Jabron *** Dieulefit",
    "description": ""
  },
  {
    "latitude": 4.60473,
    "longitude": 49.87223,
    "name": "Camping",
    "city": "Lac des Vieilles Forges *** Les Mazures",
    "description": ""
  },
  {
    "latitude": 9.2946,
    "longitude": 41.6399,
    "name": "Camping",
    "city": "Pitrera",
    "description": "Torre"
  },
  {
    "latitude": -0.58449,
    "longitude": 46.32744,
    "name": "Camping",
    "city": "Municipal La Niquiere ** Coulon",
    "description": "+33 549358119"
  },
  {
    "latitude": 3.11929,
    "longitude": 42.47676,
    "name": "Camping",
    "city": "Municipal La Pinede ** Banyuls sur Mer",
    "description": ""
  },
  {
    "latitude": -1.3178,
    "longitude": 49.4089,
    "name": "Camping",
    "city": "Municipal *** Sainte Mere l Eglise",
    "description": ""
  },
  {
    "latitude": 4.20186,
    "longitude": 44.39619,
    "name": "Camping",
    "city": "Mazet plage *** Berrias et Casteljau",
    "description": "+33 475393256"
  },
  {
    "latitude": 6.56835,
    "longitude": 45.83666,
    "name": "Camping",
    "city": "Chantalouette ** Praz sur Arly",
    "description": "+33 450219025"
  },
  {
    "latitude": 2.78306,
    "longitude": 42.51,
    "name": "Camping",
    "city": "Les Casteillets *** Saint Jean Pla de Corts",
    "description": ""
  },
  {
    "latitude": 1.04717,
    "longitude": 47.44651,
    "name": "Camping",
    "city": "Le Jardin Botanique *** Limeray",
    "description": "+33 247301350"
  },
  {
    "latitude": -4.02466,
    "longitude": 47.94136,
    "name": "Camping",
    "city": "Keromen ** Saint Evarzec",
    "description": "+33 298567047"
  },
  {
    "latitude": 5.262,
    "longitude": 44.412,
    "name": "Camping",
    "city": "La Vallee Bleue *** Sahune",
    "description": ""
  },
  {
    "latitude": 5.13588,
    "longitude": 44.58386,
    "name": "Camping",
    "city": "Le Gap des Tortelles *** Bourdeaux",
    "description": "+33 475533045"
  },
  {
    "latitude": -1.4495,
    "longitude": 49.05,
    "name": "Camping",
    "city": "Municipal Les Vignettes ** Coutances",
    "description": ""
  },
  {
    "latitude": -3.0931,
    "longitude": 47.6089,
    "name": "Camping",
    "city": "Les Bruyeres *** Carnac",
    "description": ""
  },
  {
    "latitude": 9.55539,
    "longitude": 42.26444,
    "name": "Camping",
    "city": "Amurucciu",
    "description": "San Giuliano"
  },
  {
    "latitude": -3.01563,
    "longitude": 47.59878,
    "name": "Camping",
    "city": "Le Vieux Logis *** La Trinite sur Mer",
    "description": ""
  },
  {
    "latitude": -2.1302,
    "longitude": 48.6271,
    "name": "Camping",
    "city": "Emeraude *** Saint Briac sur Mer",
    "description": ""
  },
  {
    "latitude": 6.05222,
    "longitude": 45.86111,
    "name": "Camping",
    "city": "AU2La Vidome (Gite de France)",
    "description": "Montagny les Lanches"
  },
  {
    "latitude": 6.13984,
    "longitude": 48.65732,
    "name": "Camping",
    "city": "Le Brabois *** Villers les Nancy",
    "description": "+33 383271828"
  },
  {
    "latitude": -1.12508,
    "longitude": 44.46202,
    "name": "Camping",
    "city": "Domaine de la Rive **** Biscarrosse",
    "description": "+33 558781233"
  },
  {
    "latitude": 3.20965,
    "longitude": 44.1904,
    "name": "Camping",
    "city": "Le Brudy plage ** Le Rozier",
    "description": ""
  },
  {
    "latitude": 2.25563,
    "longitude": 43.61708,
    "name": "Camping",
    "city": "Gourjade *** Castres",
    "description": ""
  },
  {
    "latitude": 5.08116,
    "longitude": 47.60069,
    "name": "Camping",
    "city": "Municipal * Marey sur Tille",
    "description": "rue du Stade"
  },
  {
    "latitude": 4.02431,
    "longitude": 45.82931,
    "name": "Camping",
    "city": "Municipal ** Saint Germain Laval",
    "description": "+33 477654435"
  },
  {
    "latitude": -1.385,
    "longitude": 46.00333,
    "name": "Camping",
    "city": "Les Oliviers *** Saint Denis d Oleron",
    "description": "+33 546479342"
  },
  {
    "latitude": 6.96276,
    "longitude": 48.03491,
    "name": "Camping",
    "city": "Belle Hutte *** La Bresse",
    "description": "+33 329254975"
  },
  {
    "latitude": -2.77194,
    "longitude": 47.50553,
    "name": "Camping",
    "city": "An Trest *** Sarzeau",
    "description": "+33 297417960"
  },
  {
    "latitude": 4.2519,
    "longitude": 43.69411,
    "name": "Camping",
    "city": "Les Tourrades *** Vauvert",
    "description": ""
  },
  {
    "latitude": 8.69983,
    "longitude": 42.26311,
    "name": "Camping",
    "city": "Municipal",
    "description": "Porto"
  },
  {
    "latitude": 0.0536,
    "longitude": 43.6076,
    "name": "Camping",
    "city": "L Arros *** Plaisance du Gers",
    "description": ""
  },
  {
    "latitude": 5.18699,
    "longitude": 47.53042,
    "name": "Camping",
    "city": "Les Sapins * Til Chatel",
    "description": ""
  },
  {
    "latitude": 0.16028,
    "longitude": 49.63111,
    "name": "Camping",
    "city": "Le Grand Hameau *** Saint Jouin Bruneval",
    "description": ""
  },
  {
    "latitude": 4.54865,
    "longitude": 47.26545,
    "name": "Camping",
    "city": "Le Vert Auxois ** Pouilly en Auxois",
    "description": "+33 380907189"
  },
  {
    "latitude": -2.93938,
    "longitude": 47.5561,
    "name": "Camping",
    "city": "La Falaise *** Locqmariaquer",
    "description": ""
  },
  {
    "latitude": 2.31644,
    "longitude": 45.21863,
    "name": "Camping",
    "city": "Le Val Saint Jean **** Mauriac",
    "description": "+33 473938044"
  },
  {
    "latitude": 2.42308,
    "longitude": 45.11571,
    "name": "Camping",
    "city": "Municipal Le Moulin du Teinturier **** Saint Martin Valmeroux",
    "description": "+33 471694312"
  },
  {
    "latitude": 4.20644,
    "longitude": 44.37722,
    "name": "Camping",
    "city": "La Source *** Berrias et Casteljau",
    "description": "+33 475393913"
  },
  {
    "latitude": 2.48351,
    "longitude": 45.41603,
    "name": "Camping",
    "city": "Les Aubazines *** Bort les Orgues",
    "description": ""
  },
  {
    "latitude": -3.54139,
    "longitude": 48.80991,
    "name": "Camping",
    "city": "du Port **** Landrellec",
    "description": ""
  },
  {
    "latitude": -3.14615,
    "longitude": 47.62864,
    "name": "Camping",
    "city": "Les Megalithes *** Erdeven",
    "description": "+33 297556876"
  },
  {
    "latitude": 2.30417,
    "longitude": 48.65512,
    "name": "Camping",
    "city": "Le Beau Village *** Villiers sur Orge",
    "description": ""
  },
  {
    "latitude": 5.12535,
    "longitude": 44.17782,
    "name": "Camping",
    "city": "Le Bosquet ** Malaucene",
    "description": "+33 490652909"
  },
  {
    "latitude": -1.35182,
    "longitude": 43.75424,
    "name": "Camping",
    "city": "Municipal l Airial *** Soustons",
    "description": ""
  },
  {
    "latitude": 3.4255,
    "longitude": 46.11638,
    "name": "Camping",
    "city": "Les Acacias **** Bellerive sur Allier",
    "description": "+33 470323622"
  },
  {
    "latitude": 1.82648,
    "longitude": 42.72849,
    "name": "Camping",
    "city": "Municipal Le Malazeou *** Savignac les Ormeaux",
    "description": "+33 561646914"
  },
  {
    "latitude": 8.81694,
    "longitude": 41.71428,
    "name": "Camping",
    "city": "Cyrnos",
    "description": "Favalello"
  },
  {
    "latitude": 3.78878,
    "longitude": 43.50058,
    "name": "Camping",
    "city": "Altea *** Vic la Gardiole",
    "description": "+33 467781409"
  },
  {
    "latitude": -0.77806,
    "longitude": 44.30858,
    "name": "Camping",
    "city": "Municipal *** Pissos",
    "description": "+33 558089038"
  },
  {
    "latitude": 9.55087,
    "longitude": 42.11163,
    "name": "Camping",
    "city": "Aleria",
    "description": "Plage de Padulone"
  },
  {
    "latitude": -3.04355,
    "longitude": 47.58788,
    "name": "Camping",
    "city": "Park Plijadur *** La Trinite sur Mer",
    "description": ""
  },
  {
    "latitude": 9.45927,
    "longitude": 42.83962,
    "name": "Camping",
    "city": "La Pietra",
    "description": "Pietracorbara"
  },
  {
    "latitude": 3.0615,
    "longitude": 45.9057,
    "name": "Camping",
    "city": "Municipal de la Croze ** Chatelguyon",
    "description": ""
  },
  {
    "latitude": 9.00951,
    "longitude": 42.62692,
    "name": "Camping",
    "city": "Le Clos des Chenes",
    "description": "Lozari"
  },
  {
    "latitude": 8.81628,
    "longitude": 41.62819,
    "name": "Camping",
    "city": "Campomoro",
    "description": "Campomoro"
  },
  {
    "latitude": 1.0889,
    "longitude": 44.0966,
    "name": "Camping",
    "city": "Ile du Bidounet *** Moissac",
    "description": ""
  },
  {
    "latitude": 1.8393,
    "longitude": 44.48394,
    "name": "Camping",
    "city": "Municipal ** Cajarc",
    "description": ""
  },
  {
    "latitude": 1.59785,
    "longitude": 50.82013,
    "name": "Camping",
    "city": "Municipal Les Ajoncs ** Audresselles",
    "description": ""
  },
  {
    "latitude": 5.73949,
    "longitude": 45.39118,
    "name": "Camping",
    "city": "Municipal Les Berges du Guiers ** Saint Laurent du Pont",
    "description": "+33 476552063"
  },
  {
    "latitude": -1.7873,
    "longitude": 48.3128,
    "name": "Camping",
    "city": "Les Peupliers *** Tinteniac",
    "description": ""
  },
  {
    "latitude": 7.3556,
    "longitude": 48.7308,
    "name": "Camping",
    "city": "Municipal *** Saverne",
    "description": ""
  },
  {
    "latitude": 2.05039,
    "longitude": 44.61023,
    "name": "Camping",
    "city": "Rives du Cele *** Figeac",
    "description": ""
  },
  {
    "latitude": -2.13078,
    "longitude": 46.84161,
    "name": "Camping",
    "city": "Les Pins **** Notre Dame de Monts",
    "description": ""
  },
  {
    "latitude": 0.56417,
    "longitude": 47.8125,
    "name": "Camping",
    "city": "Municipal l Etang Sort ** Courdemanche",
    "description": "+33 243448035"
  },
  {
    "latitude": 0.91678,
    "longitude": 44.91191,
    "name": "Camping",
    "city": "Le Rocher de la Granelle *** Le Bugue",
    "description": "+33 553072432"
  },
  {
    "latitude": -1.8327,
    "longitude": 48.3811,
    "name": "Camping",
    "city": "Domaine du Logis **** La Chapelle aux Filtzmeens",
    "description": "+33 299452545"
  },
  {
    "latitude": 0.59649,
    "longitude": 49.84962,
    "name": "Camping",
    "city": "Municipal *** Veulettes sur Mer",
    "description": "+33 235975344"
  },
  {
    "latitude": -1.3378,
    "longitude": 45.92019,
    "name": "Camping",
    "city": "Les Tamaris ** Saint Pierre d Oleron",
    "description": ""
  },
  {
    "latitude": -4.35901,
    "longitude": 48.10315,
    "name": "Camping",
    "city": "Municipal du Bois d Isis ** Douarnemez",
    "description": ""
  },
  {
    "latitude": 0.32346,
    "longitude": 43.10558,
    "name": "Camping",
    "city": "Les Craoues *** Capvern",
    "description": ""
  },
  {
    "latitude": -3.12016,
    "longitude": 47.49998,
    "name": "Camping",
    "city": "Beausejour ** Quiberon",
    "description": "+33 297304493"
  },
  {
    "latitude": 5.079,
    "longitude": 44.408,
    "name": "Camping",
    "city": "Les Terrasses Provencales *** Venterol",
    "description": ""
  },
  {
    "latitude": -0.42,
    "longitude": 48.54778,
    "name": "Camping",
    "city": "La Vee *** Bagnols de l Orne",
    "description": ""
  },
  {
    "latitude": -2.4835,
    "longitude": 48.6161,
    "name": "Camping",
    "city": "Les Roches *** Erquy",
    "description": ""
  },
  {
    "latitude": 3.04422,
    "longitude": 42.56667,
    "name": "Camping",
    "city": "Municipal Le Rousillonnais *** Argeles sur Mer",
    "description": "+33 468811042"
  },
  {
    "latitude": 5.00556,
    "longitude": 46.5625,
    "name": "Camping",
    "city": "Les Bords de Seille ** Cuisery",
    "description": ""
  },
  {
    "latitude": -3.38515,
    "longitude": 47.70356,
    "name": "Camping",
    "city": "Municipal Les Algues *** Larmor Plage",
    "description": "+33 297655547"
  },
  {
    "latitude": -4.34848,
    "longitude": 48.09645,
    "name": "Camping",
    "city": "Croas-Men ** Douarnemez",
    "description": ""
  },
  {
    "latitude": 7.44813,
    "longitude": 48.25473,
    "name": "Camping",
    "city": "Municipal Les Cigognes ** Selestat",
    "description": "+33 388920398"
  },
  {
    "latitude": 8.83332,
    "longitude": 41.70488,
    "name": "Camping",
    "city": "Ras lubol",
    "description": "Abbartello"
  },
  {
    "latitude": -1.05167,
    "longitude": 49.38806,
    "name": "Camping",
    "city": "Le Joncal ** Grandcamp Maisy",
    "description": ""
  },
  {
    "latitude": 3.31976,
    "longitude": 43.26308,
    "name": "Camping",
    "city": "Serignan plage *** Serignan",
    "description": "+33 467323533"
  },
  {
    "latitude": -1.42972,
    "longitude": 43.65167,
    "name": "Camping",
    "city": "Municipal Bel Air *** Capbreton",
    "description": "+33 558721204"
  },
  {
    "latitude": 2.61485,
    "longitude": 47.64161,
    "name": "Camping",
    "city": "Bois du Bardelet **** Poilly lez Gien",
    "description": ""
  },
  {
    "latitude": 8.72682,
    "longitude": 41.93737,
    "name": "Camping",
    "city": "Les Mimosas ** Ajaccio",
    "description": "+33 495209985"
  },
  {
    "latitude": 6.56722,
    "longitude": 45.45111,
    "name": "Camping",
    "city": "La Piat ** Brides les Bains",
    "description": ""
  },
  {
    "latitude": -0.00336,
    "longitude": 42.8736,
    "name": "Camping",
    "city": "Toy ** Luz Saint Sauveur",
    "description": ""
  },
  {
    "latitude": -0.0026,
    "longitude": 46.66728,
    "name": "Camping",
    "city": "Le Bois de Saint Hilaire * Chalandray",
    "description": "+33 549602084"
  },
  {
    "latitude": -2.761,
    "longitude": 47.507,
    "name": "Camping",
    "city": "La Ferme de Lann Hoedic *** Sarzeau",
    "description": ""
  },
  {
    "latitude": 6.5226,
    "longitude": 44.6027,
    "name": "Camping",
    "city": "Les Cariamas ** Chateauroux les Alpes",
    "description": ""
  },
  {
    "latitude": -1.97833,
    "longitude": 46.72389,
    "name": "Camping",
    "city": "Plage de Riez *** Saint Hilaire de Riez",
    "description": ""
  },
  {
    "latitude": 3.02517,
    "longitude": 42.77763,
    "name": "Camping",
    "city": "L Oasis *** Le Barcares",
    "description": "+33 468861243"
  },
  {
    "latitude": 7.59776,
    "longitude": 48.14954,
    "name": "Camping",
    "city": "L Ile du Rhin ** Marckolsheim",
    "description": ""
  },
  {
    "latitude": 3.977,
    "longitude": 44.06432,
    "name": "Camping",
    "city": "Castel Rose *** Anduze",
    "description": ""
  },
  {
    "latitude": -0.01386,
    "longitude": 42.8828,
    "name": "Camping",
    "city": "International *** Esquiere Sere",
    "description": ""
  },
  {
    "latitude": 5.354,
    "longitude": 44.758,
    "name": "Camping",
    "city": "La Pinede *** Dieulefit",
    "description": ""
  },
  {
    "latitude": -2.02778,
    "longitude": 48.63556,
    "name": "Camping",
    "city": "Municipal Cite d Aleth ** Saint Malo",
    "description": ""
  },
  {
    "latitude": -1.31415,
    "longitude": 43.88414,
    "name": "Camping",
    "city": "Punta Lago ***** Leon",
    "description": "+33 558492440"
  },
  {
    "latitude": 2.49148,
    "longitude": 46.71803,
    "name": "Camping",
    "city": "La Roche *** Saint Amand Montrond",
    "description": "+33 248960936"
  },
  {
    "latitude": -0.06489,
    "longitude": 47.25998,
    "name": "Camping",
    "city": "L ile d Offard **** Saumur",
    "description": ""
  },
  {
    "latitude": 4.1675,
    "longitude": 44.40944,
    "name": "Camping",
    "city": "Domaine des Chenes *** Chassagnes",
    "description": "+33 475373435"
  },
  {
    "latitude": 9.54156,
    "longitude": 42.3172,
    "name": "Camping",
    "city": "Loro",
    "description": "Prunete"
  },
  {
    "latitude": 3.09195,
    "longitude": 44.10235,
    "name": "Camping",
    "city": "Cote Sud *** Millau",
    "description": ""
  },
  {
    "latitude": 3.72282,
    "longitude": 48.72803,
    "name": "Camping",
    "city": "Municipal ** Sezanne",
    "description": ""
  },
  {
    "latitude": 5.8137,
    "longitude": 46.6638,
    "name": "Camping",
    "city": "Chalain **** Doucier",
    "description": ""
  },
  {
    "latitude": 2.15972,
    "longitude": 48.79417,
    "name": "Camping",
    "city": "Huttopia",
    "description": "Versailles"
  },
  {
    "latitude": 3.38957,
    "longitude": 43.64753,
    "name": "Camping",
    "city": "Le Salagou ** Clermont l Herault",
    "description": ""
  },
  {
    "latitude": 1.2601,
    "longitude": 47.4933,
    "name": "Camping",
    "city": "La Grande Tortue **** Cande sur Beuvron",
    "description": ""
  },
  {
    "latitude": 4.69464,
    "longitude": 46.64627,
    "name": "Camping",
    "city": "Le Moulin de Collonge **** Saint Boil",
    "description": "+33 385440032"
  },
  {
    "latitude": 3.2532,
    "longitude": 43.2311,
    "name": "Camping",
    "city": "Les Vagues **** Vendres",
    "description": "+33 467373312"
  },
  {
    "latitude": 2.69523,
    "longitude": 45.3454,
    "name": "Camping",
    "city": "Municipal *** Saint Amandin",
    "description": "+33 471781828"
  },
  {
    "latitude": -3.9875,
    "longitude": 47.86028,
    "name": "Camping",
    "city": "Kervastard *** Fouesnant",
    "description": "+33 298949152"
  },
  {
    "latitude": -1.41533,
    "longitude": 48.62824,
    "name": "Camping",
    "city": "Le Saint Michel **** Courtils",
    "description": "+33 233709690"
  },
  {
    "latitude": 3.05247,
    "longitude": 49.40675,
    "name": "Camping",
    "city": "Municipal *** Attichy",
    "description": ""
  },
  {
    "latitude": 3.32015,
    "longitude": 44.3013,
    "name": "Camping",
    "city": "Municipal ** La Malene",
    "description": ""
  },
  {
    "latitude": -2.35691,
    "longitude": 48.65191,
    "name": "Camping",
    "city": "Municipal Le Pont de l Etang ** Frehel",
    "description": "+33 296414045"
  },
  {
    "latitude": 4.22002,
    "longitude": 44.40562,
    "name": "Camping",
    "city": "Les Actinidias ** Berrias et Casteljau",
    "description": "+33 475390279"
  },
  {
    "latitude": -2.11057,
    "longitude": 46.80918,
    "name": "Camping",
    "city": "Aux Coeurs Vendeens **** Saint Jean de Monts",
    "description": ""
  },
  {
    "latitude": -1.1133,
    "longitude": 45.68727,
    "name": "Camping",
    "city": "La Ferme *** Saint Augustin",
    "description": "+33 546391446"
  },
  {
    "latitude": 4.09694,
    "longitude": 44.07889,
    "name": "Camping",
    "city": "CFMas Cauvy (Maurin Daumet)",
    "description": "Saint Christol les Ales"
  },
  {
    "latitude": 2.43888,
    "longitude": 43.28552,
    "name": "Camping",
    "city": "Le Moulin de Sainte Anne *** Villegly",
    "description": ""
  },
  {
    "latitude": 6.49929,
    "longitude": 44.53204,
    "name": "Camping",
    "city": "Les Airelles *** Baratier",
    "description": "+33 492431157"
  },
  {
    "latitude": -3.10435,
    "longitude": 47.4762,
    "name": "Camping",
    "city": "Le Bois d Amour *** Quiberon",
    "description": "+33 297501352"
  },
  {
    "latitude": -3.99639,
    "longitude": 47.89167,
    "name": "Camping",
    "city": "Les Mimosas - Cap Coz ** Fouesnant",
    "description": "+33 298565581"
  },
  {
    "latitude": 1.6748,
    "longitude": 44.449,
    "name": "Camping",
    "city": "La Truffiere *** Saint Cirq Lapopie",
    "description": ""
  },
  {
    "latitude": -1.26362,
    "longitude": 49.67112,
    "name": "Camping",
    "city": "La Blanche Nef ** Barfleur",
    "description": ""
  },
  {
    "latitude": 4.97854,
    "longitude": 44.07885,
    "name": "Camping",
    "city": "de la Sainte Croix",
    "description": "Sarrians"
  },
  {
    "latitude": -2.23332,
    "longitude": 47.01601,
    "name": "Camping",
    "city": "La Clere * Noirmoutier en l Ile",
    "description": "+33 251392144"
  },
  {
    "latitude": 4.91306,
    "longitude": 43.99056,
    "name": "Camping",
    "city": "Flory *** Vedene",
    "description": "route d Entraigues"
  },
  {
    "latitude": 5.75924,
    "longitude": 48.92803,
    "name": "Camping",
    "city": "de Nonsard ** Nonsard",
    "description": "+33 329895676"
  },
  {
    "latitude": 3.81333,
    "longitude": 45.13417,
    "name": "Camping",
    "city": "Municipal La Rochambert *** Saint Paulien",
    "description": ""
  },
  {
    "latitude": 4.46173,
    "longitude": 44.56253,
    "name": "Camping",
    "city": "Les Rives d Auzon ** Lavilledieu",
    "description": "+33 475947064"
  },
  {
    "latitude": -2.98973,
    "longitude": 47.61534,
    "name": "Camping",
    "city": "Le Fort Espagnol *** Crach",
    "description": "+33 297551488"
  },
  {
    "latitude": 7.76535,
    "longitude": 48.80265,
    "name": "Camping",
    "city": "Municipal * Haguenau",
    "description": ""
  },
  {
    "latitude": 3.58667,
    "longitude": 47.78694,
    "name": "Camping",
    "city": "Municipal *** Auxerre",
    "description": ""
  },
  {
    "latitude": -0.86436,
    "longitude": 49.32572,
    "name": "Camping",
    "city": "La Roseraie **** Surrain",
    "description": "+33 231211771"
  },
  {
    "latitude": 7.32361,
    "longitude": 48.40611,
    "name": "Camping",
    "city": "Municipal ** Le Hohwald",
    "description": "+33 388083090"
  },
  {
    "latitude": 4.94455,
    "longitude": 46.65467,
    "name": "Camping",
    "city": "Chateau de l Eperviere **** Gigny sur Saone",
    "description": "+33 385941690"
  },
  {
    "latitude": 6.155,
    "longitude": 43.02972,
    "name": "Camping",
    "city": "La Tour Fondue *** Giens",
    "description": "+33 494582286"
  },
  {
    "latitude": -2.96463,
    "longitude": 47.66642,
    "name": "Camping",
    "city": "Les Pommiers",
    "description": "Auray"
  },
  {
    "latitude": 3.8283,
    "longitude": 46.90667,
    "name": "Camping",
    "city": "Les Bains **** Saint Honore les Bains",
    "description": ""
  },
  {
    "latitude": 6.22651,
    "longitude": 43.81984,
    "name": "Camping",
    "city": "Le Petit Lac ** Moustiers Sainte Marie",
    "description": ""
  },
  {
    "latitude": 4.8178,
    "longitude": 43.9939,
    "name": "Camping",
    "city": "l Ile des Papes",
    "description": "Villeneuve les Avignon"
  },
  {
    "latitude": 2.04528,
    "longitude": 50.99584,
    "name": "Camping",
    "city": "Clairette ** Oye plage",
    "description": ""
  },
  {
    "latitude": 2.40451,
    "longitude": 49.21458,
    "name": "Camping",
    "city": "L Abbatiale *** Saint Leu d Esserent",
    "description": "+33 344563876"
  },
  {
    "latitude": -4.04028,
    "longitude": 47.84972,
    "name": "Camping",
    "city": "La Pointe ** Fouesnant",
    "description": "+33 298560898"
  },
  {
    "latitude": -1.21232,
    "longitude": 44.58116,
    "name": "Camping",
    "city": "La Dune *** Pyla sur Mer",
    "description": ""
  },
  {
    "latitude": 4.3825,
    "longitude": 44.39694,
    "name": "Camping",
    "city": "Chauvieux *** Salavas",
    "description": "+33 475880537"
  },
  {
    "latitude": -1.174,
    "longitude": 44.651,
    "name": "Camping",
    "city": "Club d Arcachon *** Arcachon",
    "description": ""
  },
  {
    "latitude": 5.87896,
    "longitude": 43.74811,
    "name": "Camping",
    "city": "Regain ** Greoux les Bains",
    "description": "+33 492780923"
  },
  {
    "latitude": 2.09709,
    "longitude": 42.51967,
    "name": "Camping",
    "city": "Municipal * La Llagonne",
    "description": ""
  },
  {
    "latitude": -1.15745,
    "longitude": 46.19165,
    "name": "Camping",
    "city": "Municipal Le Parc *** Lagord",
    "description": "+33 546766154"
  },
  {
    "latitude": 4.22061,
    "longitude": 44.49617,
    "name": "Camping",
    "city": "Bois Simonet *** Joyeuse",
    "description": "+33 475395860"
  },
  {
    "latitude": 6.73232,
    "longitude": 48.11904,
    "name": "Camping",
    "city": "Le Barba ** Rehaupal",
    "description": ""
  },
  {
    "latitude": 5.128,
    "longitude": 44.578,
    "name": "Camping",
    "city": "Les Bois du Chatelas **** Bourdeaux",
    "description": ""
  },
  {
    "latitude": 1.28723,
    "longitude": 44.90445,
    "name": "Camping",
    "city": "Maillac *** Sainte Nathalene",
    "description": ""
  },
  {
    "latitude": 3.08709,
    "longitude": 44.11538,
    "name": "Camping",
    "city": "Le Millau Plage **** Millau",
    "description": ""
  },
  {
    "latitude": 6.18638,
    "longitude": 43.72192,
    "name": "Camping",
    "city": "Les Vallons de Bauduen *** Bauduen",
    "description": "+33 494700913"
  },
  {
    "latitude": -2.44281,
    "longitude": 48.63823,
    "name": "Camping",
    "city": "Le Vieux Moulin **** Erquy",
    "description": ""
  },
  {
    "latitude": 7.275,
    "longitude": 48.08528,
    "name": "Camping",
    "city": "Municipal Les Cigognes **** Thurckheim",
    "description": ""
  },
  {
    "latitude": 8.78447,
    "longitude": 41.82921,
    "name": "Camping",
    "city": "Le Sud",
    "description": "Le Ruppione"
  },
  {
    "latitude": -0.358,
    "longitude": 47.27345,
    "name": "Camping",
    "city": "Lac de Maine **** Angers",
    "description": ""
  },
  {
    "latitude": 4.73827,
    "longitude": 48.37683,
    "name": "Camping",
    "city": "Mal la Croix Badeau ** Soulaines Dhuys",
    "description": ""
  },
  {
    "latitude": 6.36639,
    "longitude": 44.46222,
    "name": "Camping",
    "city": "Municipal Le Fein * Saint Vincent les Forts",
    "description": "+33 492855157"
  },
  {
    "latitude": 5.50492,
    "longitude": 43.69532,
    "name": "Camping",
    "city": "Municipal Les Pinedes *** Pertuis",
    "description": ""
  },
  {
    "latitude": 6.58287,
    "longitude": 43.2802,
    "name": "Camping",
    "city": "BJ Riviera Holidays",
    "description": "Port Grimaud"
  },
  {
    "latitude": 4.08798,
    "longitude": 49.94342,
    "name": "Camping",
    "city": "la Cascade de Blangy ** Hirson",
    "description": ""
  },
  {
    "latitude": -0.0182,
    "longitude": 43.09551,
    "name": "Camping",
    "city": "Le Ruisseau Blanc * Lourdes",
    "description": ""
  },
  {
    "latitude": 9.26502,
    "longitude": 41.46752,
    "name": "Camping",
    "city": "La Rondinara",
    "description": "Suartone"
  },
  {
    "latitude": -3.99222,
    "longitude": 47.86944,
    "name": "Camping",
    "city": "La Roche Percee **** Fouesnant",
    "description": "30 Hent Kerveltrec"
  },
  {
    "latitude": 5.239,
    "longitude": 46.924,
    "name": "Camping",
    "city": "Les Pecheurs ** Lays sur le Doubs",
    "description": ""
  },
  {
    "latitude": 3.72827,
    "longitude": 45.53963,
    "name": "Camping",
    "city": "les Trois Chenes sous le Montel",
    "description": "Ambert"
  },
  {
    "latitude": -4.28985,
    "longitude": 48.16923,
    "name": "Camping",
    "city": "L Iroise **** Plomodiern",
    "description": ""
  },
  {
    "latitude": 3.1387,
    "longitude": 43.13242,
    "name": "Camping",
    "city": "Les Ayguades *** Gruissan",
    "description": "+33 468498159"
  },
  {
    "latitude": 1.545,
    "longitude": 44.16417,
    "name": "Camping",
    "city": "Municipal La Piboulette ** Caussade",
    "description": ""
  },
  {
    "latitude": 4.33187,
    "longitude": 44.42457,
    "name": "Camping",
    "city": "La Grand Terre *** Ruoms",
    "description": "+33 475396494"
  },
  {
    "latitude": -4.605,
    "longitude": 48.27731,
    "name": "Camping",
    "city": "Municipal du Lannic ** Camaret",
    "description": "+33 298279131"
  },
  {
    "latitude": 3.03451,
    "longitude": 42.56371,
    "name": "Camping",
    "city": "Les Marsouins *** Argeles sur Mer",
    "description": "+33 468811481"
  },
  {
    "latitude": -2.1651,
    "longitude": 47.1551,
    "name": "Camping",
    "city": "Le Ranch *** La Plaine sur Mer",
    "description": ""
  },
  {
    "latitude": -1.97194,
    "longitude": 46.71639,
    "name": "Camping",
    "city": "Municipal de Sion *** Saint Hilaire de Riez",
    "description": ""
  },
  {
    "latitude": 3.81555,
    "longitude": 47.05844,
    "name": "Camping",
    "city": "Le Manoir de Bezolle **** Saint Pereuse",
    "description": "+33 386844255"
  },
  {
    "latitude": 9.35562,
    "longitude": 41.68636,
    "name": "Camping",
    "city": "Santa Lucia",
    "description": "Poggioli"
  },
  {
    "latitude": -1.16054,
    "longitude": 44.42723,
    "name": "Camping",
    "city": "camp Bimbo **** Biscarosse",
    "description": "+33 558098233"
  },
  {
    "latitude": 7.11667,
    "longitude": 43.61083,
    "name": "Camping",
    "city": "Antipolis **** Antibes",
    "description": "+33 493339399"
  },
  {
    "latitude": 9.17928,
    "longitude": 41.41875,
    "name": "Camping",
    "city": "Pertamina",
    "description": "Bonifacio"
  },
  {
    "latitude": 2.05944,
    "longitude": 44.17833,
    "name": "Camping",
    "city": "La Prade *** Montirat",
    "description": ""
  },
  {
    "latitude": 9.34284,
    "longitude": 42.72922,
    "name": "Camping",
    "city": "A Stella",
    "description": "Braccolaccia"
  },
  {
    "latitude": -4.07871,
    "longitude": 48.39938,
    "name": "Camping",
    "city": "Municipal ** Sizun",
    "description": ""
  },
  {
    "latitude": -2.12372,
    "longitude": 46.85303,
    "name": "Camping",
    "city": "Le Lagon Bleu **** Notre Dame de Monts",
    "description": ""
  },
  {
    "latitude": -4.18497,
    "longitude": 48.29532,
    "name": "Camping",
    "city": "Municipal",
    "description": "Le Faou"
  },
  {
    "latitude": 3.03748,
    "longitude": 42.59945,
    "name": "Camping",
    "city": "Cala-Gogo **** Saint Cyprien",
    "description": "+33 468210712"
  },
  {
    "latitude": 9.32236,
    "longitude": 41.83478,
    "name": "Camping",
    "city": "La Bonne Frite",
    "description": "Rocchio Pinzuto"
  },
  {
    "latitude": 3.41639,
    "longitude": 43.29167,
    "name": "Camping",
    "city": "Le Napoleon **** Vias",
    "description": "+33 467010780"
  },
  {
    "latitude": 4.95528,
    "longitude": 49.42612,
    "name": "Camping",
    "city": "La Samaritaine *** Buzancy",
    "description": ""
  },
  {
    "latitude": 4.71511,
    "longitude": 47.52195,
    "name": "Camping",
    "city": "Municipal * Chanceaux",
    "description": "D 971"
  },
  {
    "latitude": 7.38543,
    "longitude": 48.23958,
    "name": "Camping",
    "city": "AN Mme Waliszek Cecile",
    "description": "Orschwiller"
  },
  {
    "latitude": 5.395,
    "longitude": 44.481,
    "name": "Camping",
    "city": "ANLa Ferme de Clareau",
    "description": "La Motte Chalencon"
  },
  {
    "latitude": -1.3925,
    "longitude": 46.015,
    "name": "Camping",
    "city": "Les Huttes ** Saint Denis d Oleron",
    "description": "+33 546752169"
  },
  {
    "latitude": 8.76785,
    "longitude": 42.55491,
    "name": "Camping",
    "city": "La Pinede",
    "description": "Calvi"
  },
  {
    "latitude": 1.41615,
    "longitude": 43.65606,
    "name": "Camping",
    "city": "Le Rupe ** Toulouse",
    "description": "+33 561700735"
  },
  {
    "latitude": 3.09434,
    "longitude": 46.14728,
    "name": "Camping",
    "city": "Chateau de la Mothe",
    "description": "Vicq"
  },
  {
    "latitude": 1.53222,
    "longitude": 43.48667,
    "name": "Camping",
    "city": "Les Violettes ** Deyme",
    "description": "+33 561817207"
  },
  {
    "latitude": 4.08999,
    "longitude": 48.19007,
    "name": "Camping",
    "city": "Municipal Rodaven ** Chateaulin",
    "description": "+33 298863293"
  },
  {
    "latitude": -1.61373,
    "longitude": 43.35953,
    "name": "Camping",
    "city": "La Nivelle ** Saint Pee sur Nivelle",
    "description": ""
  },
  {
    "latitude": 2.048,
    "longitude": 50.987,
    "name": "Camping",
    "city": "Bouscarel ** Oye plage",
    "description": ""
  },
  {
    "latitude": 6.12556,
    "longitude": 43.04,
    "name": "Camping",
    "city": "Le Clair de Lune *** Giens",
    "description": "+33 494582019"
  },
  {
    "latitude": 5.217,
    "longitude": 44.426,
    "name": "Camping",
    "city": "Le Trente Pas *** Saint Ferreol Trente Pas",
    "description": ""
  },
  {
    "latitude": -3.89998,
    "longitude": 47.85626,
    "name": "Camping",
    "city": "plage ** Concarneau",
    "description": ""
  },
  {
    "latitude": 1.63555,
    "longitude": 50.81793,
    "name": "Camping",
    "city": "Le Beaucamp *** Ambleteuse",
    "description": "+33 321326210"
  },
  {
    "latitude": 4.21773,
    "longitude": 44.40193,
    "name": "Camping",
    "city": "Les Tournaires *** Berrias et Casteljau",
    "description": "+33 475393639"
  },
  {
    "latitude": 7.1714,
    "longitude": 47.803,
    "name": "Camping",
    "city": "Municipal *** Cernay",
    "description": ""
  },
  {
    "latitude": 3.03123,
    "longitude": 42.71466,
    "name": "Camping",
    "city": "Le Sainte Marie *** Sainte Marie la Mer",
    "description": "+33 468804810"
  },
  {
    "latitude": 6.65782,
    "longitude": 43.97162,
    "name": "Camping",
    "city": "La Ribiere ** Annot",
    "description": "+33 492832144"
  },
  {
    "latitude": -2.46733,
    "longitude": 47.47161,
    "name": "Camping",
    "city": "Domaine d Inly **** Penestin",
    "description": "+33 299903509"
  },
  {
    "latitude": -1.09587,
    "longitude": 45.94821,
    "name": "Camping",
    "city": "Municipal La Garenne *** Port des Barques",
    "description": ""
  },
  {
    "latitude": 3.36409,
    "longitude": 43.28014,
    "name": "Camping",
    "city": "Mediterranee *** Vias",
    "description": "+33 467909907"
  },
  {
    "latitude": 1.6181,
    "longitude": 50.4725,
    "name": "Camping",
    "city": "Les Ormes ** Merlimont",
    "description": ""
  },
  {
    "latitude": 7.69831,
    "longitude": 48.3219,
    "name": "Camping",
    "city": "Tuilerie",
    "description": "Rhinau"
  },
  {
    "latitude": -3.07022,
    "longitude": 47.60229,
    "name": "Camping",
    "city": "Le Rosnual **** Carnac",
    "description": "+33 297521457"
  },
  {
    "latitude": 4.01889,
    "longitude": 46.25751,
    "name": "Camping",
    "city": "ANLe Bassin",
    "description": "Artaix"
  },
  {
    "latitude": 3.00139,
    "longitude": 44.895,
    "name": "Camping",
    "city": "Belvedere du Mont de Lanau **** Neuveglise Lanau",
    "description": "+33 471235050"
  },
  {
    "latitude": -0.68461,
    "longitude": 47.37192,
    "name": "Camping",
    "city": "Municipal du Port ** La Possonniere",
    "description": "+33 241722208"
  },
  {
    "latitude": 9.50515,
    "longitude": 42.58764,
    "name": "Camping",
    "city": "Saint Damianu",
    "description": "Pineto"
  },
  {
    "latitude": 4.29389,
    "longitude": 46.96472,
    "name": "Camping",
    "city": "Municipal de la Porte d Arroux *** Autun",
    "description": ""
  },
  {
    "latitude": 6.24321,
    "longitude": 43.79671,
    "name": "Camping",
    "city": "Municipal le Galetas ** Aiguines",
    "description": ""
  },
  {
    "latitude": 0.63412,
    "longitude": 49.82547,
    "name": "Camping",
    "city": "Municipal Les Grands Pres *** Vitteleur",
    "description": "+33 235975382"
  },
  {
    "latitude": -3.79808,
    "longitude": 47.79654,
    "name": "Camping",
    "city": "Le Vieux Verger - Ty Noul ** Nevez",
    "description": "+33 298068608"
  },
  {
    "latitude": 0.63385,
    "longitude": 47.35531,
    "name": "Camping",
    "city": "La Mignardiere **** Ballan Mire",
    "description": ""
  },
  {
    "latitude": 2.81889,
    "longitude": 44.51361,
    "name": "Camping",
    "city": "Belle Rive ** Saint Come d Olt",
    "description": ""
  },
  {
    "latitude": 2.3653,
    "longitude": 42.25956,
    "name": "Camping",
    "city": "Das Pinhiers *** Villemoustaussou",
    "description": "+33 468478190"
  },
  {
    "latitude": -3.96131,
    "longitude": 47.89919,
    "name": "Camping",
    "city": "Les Saules *** La Foret Fouesnant",
    "description": ""
  },
  {
    "latitude": -2.57328,
    "longitude": 47.9523,
    "name": "Camping",
    "city": "Le Bas de la Lande *** Guegon",
    "description": "+33 297222220"
  },
  {
    "latitude": -2.15332,
    "longitude": 47.17624,
    "name": "Camping",
    "city": "Le Bel Essor ** Saint Michel Chef Chef",
    "description": ""
  },
  {
    "latitude": 6.86861,
    "longitude": 48.0475,
    "name": "Camping",
    "city": "Les Myrtilles * Gerardmer",
    "description": "+33 329630533"
  },
  {
    "latitude": 8.70532,
    "longitude": 42.12961,
    "name": "Camping",
    "city": "Sagone",
    "description": "Sagone"
  },
  {
    "latitude": 7.3356,
    "longitude": 48.1957,
    "name": "Camping",
    "city": "Municipal **** Ribeauville",
    "description": ""
  },
  {
    "latitude": 4.88324,
    "longitude": 47.02706,
    "name": "Camping",
    "city": "Les Bouleaux *** Vignoles",
    "description": "9-11 rue Jaune"
  },
  {
    "latitude": 4.32028,
    "longitude": 46.29139,
    "name": "Camping",
    "city": "Les Bruyeres *** La Clayette",
    "description": ""
  },
  {
    "latitude": 3.12174,
    "longitude": 45.2673,
    "name": "Camping",
    "city": "Municipal * Auriac l Eglise",
    "description": "+33 471739128"
  },
  {
    "latitude": 1.4993,
    "longitude": 48.4342,
    "name": "Camping",
    "city": "",
    "description": "Chartres"
  },
  {
    "latitude": -2.22273,
    "longitude": 47.00704,
    "name": "Camping",
    "city": "La Vendette ** Noirmoutier en l Ile",
    "description": "+33 251390624"
  },
  {
    "latitude": -3.13503,
    "longitude": 47.53996,
    "name": "Camping",
    "city": "Municipal de Kerhostin ** Saint Pierre de Quiberon",
    "description": "+33 297309525"
  },
  {
    "latitude": 4.36365,
    "longitude": 44.66877,
    "name": "Camping",
    "city": "Municipal Au Fil de la Volane ** Vals les Bains",
    "description": "+33 475374685"
  },
  {
    "latitude": 5.71194,
    "longitude": 43.68666,
    "name": "Camping",
    "city": "La Vallee de l Oise",
    "description": "Saint Paul"
  },
  {
    "latitude": 2.75316,
    "longitude": 45.91346,
    "name": "Camping",
    "city": "Plage de Confolant *** Miremont",
    "description": "+33 473799806"
  },
  {
    "latitude": -0.71165,
    "longitude": 47.63068,
    "name": "Camping",
    "city": "Municipal Les Frenes ** Le Lion d Angers",
    "description": "+33 241953156"
  },
  {
    "latitude": -1.07305,
    "longitude": 44.75757,
    "name": "Camping",
    "city": "Pleine Foret *** Andernos",
    "description": ""
  },
  {
    "latitude": 2.55139,
    "longitude": 47.37056,
    "name": "Camping",
    "city": "Le Veridet ** Piriac sur Mer",
    "description": "+33 240235850"
  },
  {
    "latitude": 9.35095,
    "longitude": 42.95534,
    "name": "Camping",
    "city": "Mute",
    "description": "Centuri"
  },
  {
    "latitude": 0.17727,
    "longitude": 44.67796,
    "name": "Camping",
    "city": "Municipal a Cote du Chateau",
    "description": "Duras"
  },
  {
    "latitude": 4.76096,
    "longitude": 46.43809,
    "name": "Camping",
    "city": "d Aze *** Aze",
    "description": ""
  },
  {
    "latitude": 2.1376,
    "longitude": 48.543,
    "name": "Camping",
    "city": "Le Parc des Roches *** Saint Cheron",
    "description": ""
  },
  {
    "latitude": 2.30962,
    "longitude": 44.85415,
    "name": "Camping",
    "city": "Municipal *** Saint Mamet La Salvetat",
    "description": "+33 471647521"
  },
  {
    "latitude": -3.90417,
    "longitude": 47.8675,
    "name": "Camping",
    "city": "Le Moulin d Aurore ** Concarneau",
    "description": ""
  },
  {
    "latitude": 9.37555,
    "longitude": 41.68256,
    "name": "Camping",
    "city": "California",
    "description": "Pinarellu"
  },
  {
    "latitude": 8.68546,
    "longitude": 41.90962,
    "name": "Camping",
    "city": "Chateau de Barbicaggia ** Ajaccio",
    "description": "+33 495520117"
  },
  {
    "latitude": 0.79514,
    "longitude": 45.55216,
    "name": "Camping",
    "city": "Chateau Le Verdoyer **** Champs Romain",
    "description": "+33 553569464"
  },
  {
    "latitude": 6.74139,
    "longitude": 45.22834,
    "name": "Camping",
    "city": "Municipal La Buidonniere *** Aussois",
    "description": ""
  },
  {
    "latitude": 4.368,
    "longitude": 44.94252,
    "name": "Camping",
    "city": "Municipal ** Saint Martin de Valamas",
    "description": "+33 475304716"
  },
  {
    "latitude": 3.7414,
    "longitude": 48.21584,
    "name": "Camping",
    "city": "Municipal de la Mosle ** Aix en Othe",
    "description": ""
  },
  {
    "latitude": -3.9641,
    "longitude": 47.8987,
    "name": "Camping",
    "city": "Kersioual ** La Foret Fouesnant",
    "description": ""
  },
  {
    "latitude": -1.70192,
    "longitude": 43.3424,
    "name": "Camping",
    "city": "Aire-Ona ** Urrugne",
    "description": ""
  },
  {
    "latitude": -4.16198,
    "longitude": 47.85317,
    "name": "Camping",
    "city": "Le Bois d Amour ** Ile Tudy",
    "description": "+33 298564354"
  },
  {
    "latitude": -0.25472,
    "longitude": 49.26889,
    "name": "Camping",
    "city": "Municipal Les Pommiers *** Ouistreham",
    "description": ""
  },
  {
    "latitude": 5.53849,
    "longitude": 45.17038,
    "name": "Camping",
    "city": "Le Vercors *** Autrans",
    "description": "+33 476953188"
  },
  {
    "latitude": 2.41044,
    "longitude": 48.30133,
    "name": "Camping",
    "city": "Municipal La Vallee Doudemont *** Malesherbes",
    "description": "+33 238348563"
  },
  {
    "latitude": 6.77472,
    "longitude": 45.61167,
    "name": "Camping",
    "city": "Le Versoyen *** Bourg Saint Maurice",
    "description": ""
  },
  {
    "latitude": 2.66917,
    "longitude": 48.5255,
    "name": "Camping",
    "city": "La Belle Etoile *** Melun - La Rochette",
    "description": "+33 164394812"
  },
  {
    "latitude": 3.43862,
    "longitude": 48.41445,
    "name": "Camping",
    "city": "Municipal Saint Barthelemy ** Trainel",
    "description": ""
  },
  {
    "latitude": 7.50185,
    "longitude": 48.55007,
    "name": "Camping",
    "city": "Municipal ** Molsheim",
    "description": "+33 388498245"
  },
  {
    "latitude": 3.7318,
    "longitude": 47.6596,
    "name": "Camping",
    "city": "Les Coullemieres *** Vermenton",
    "description": ""
  },
  {
    "latitude": 3.62619,
    "longitude": 45.09352,
    "name": "Camping",
    "city": "Municipal ** Siaugues Sainte Marie",
    "description": "+33 471742368"
  },
  {
    "latitude": -4.15608,
    "longitude": 47.86901,
    "name": "Camping",
    "city": "Menez Lanveur ** Combrit",
    "description": ""
  },
  {
    "latitude": -3.01316,
    "longitude": 48.19862,
    "name": "Camping",
    "city": "Municipal ** Mur de Bretagne",
    "description": "+33 296260190"
  },
  {
    "latitude": 1.05306,
    "longitude": 44.48889,
    "name": "Camping",
    "city": "Le Clos Bouyssac ** Touzac",
    "description": ""
  },
  {
    "latitude": 1.88221,
    "longitude": 42.47032,
    "name": "Camping",
    "city": "L Oratoire ** La Tour de Carol",
    "description": ""
  },
  {
    "latitude": -1.45976,
    "longitude": 43.59563,
    "name": "Camping",
    "city": "Les Pins Bleus ** Labenne",
    "description": ""
  },
  {
    "latitude": 9.29861,
    "longitude": 41.62047,
    "name": "Camping",
    "city": "Les Ilots",
    "description": "La Trinite"
  },
  {
    "latitude": 3.04584,
    "longitude": 43.01497,
    "name": "Camping",
    "city": "Municipal du Golf ** Port la Nouvelle",
    "description": "+33 468480842"
  },
  {
    "latitude": 3.48253,
    "longitude": 43.32685,
    "name": "Camping",
    "city": "Sud Loisirs *** Agde",
    "description": "+33 467210910"
  },
  {
    "latitude": -1.55703,
    "longitude": 48.74971,
    "name": "Place de la Mairie",
    "city": "Carolles",
    "description": ""
  },
  {
    "latitude": -4.34534,
    "longitude": 48.67537,
    "name": "Camping",
    "city": "du Phare ** Brignogan",
    "description": ""
  },
  {
    "latitude": 3.5175,
    "longitude": 49.20833,
    "name": "Camping",
    "city": "Municipal des Bruyeres",
    "description": "Fere en Tardenois"
  },
  {
    "latitude": 4.44897,
    "longitude": 47.54304,
    "name": "Camping",
    "city": "Municipal Alesia * Venarey les Laumes",
    "description": "16-18 avenue Jean Jaures"
  },
  {
    "latitude": 5.36581,
    "longitude": 49.1538,
    "name": "Camping",
    "city": "Les Breuils *** Verdun",
    "description": "+33 329861531"
  },
  {
    "latitude": 2.76194,
    "longitude": 44.52167,
    "name": "Camping",
    "city": "Municipal Le Roc de l Arche ** Espalion",
    "description": ""
  },
  {
    "latitude": 4.68503,
    "longitude": 46.90718,
    "name": "Camping",
    "city": "Les Sources **** Santenay",
    "description": "avenue des Sources"
  },
  {
    "latitude": 5.111,
    "longitude": 44.593,
    "name": "Camping",
    "city": "Le Couspeau *** Poet Celard",
    "description": ""
  },
  {
    "latitude": -3.051,
    "longitude": 48.2088,
    "name": "Camping",
    "city": "Nautic International **** Caurel",
    "description": ""
  },
  {
    "latitude": -0.00805,
    "longitude": 42.87752,
    "name": "Camping",
    "city": "La Grande Bigourdane ** Esquiere Sere",
    "description": ""
  },
  {
    "latitude": 5.78695,
    "longitude": 43.96223,
    "name": "Camping",
    "city": "Indigo Forcalquier *** Forcalquier",
    "description": ""
  },
  {
    "latitude": 3.0333,
    "longitude": 42.73972,
    "name": "Camping",
    "city": "Le Palais de la Mer **** Sainte Marie la Mer",
    "description": "+33 468730794"
  },
  {
    "latitude": -2.21607,
    "longitude": 46.96633,
    "name": "Camping",
    "city": "Le Caravan Ile *** La Gueriniere",
    "description": "+33 251395029"
  },
  {
    "latitude": 4.39861,
    "longitude": 44.39816,
    "name": "Camping",
    "city": "Le Provencal **** Vallon Pont d Arc",
    "description": "+33 475880048"
  },
  {
    "latitude": 7.43204,
    "longitude": 48.63797,
    "name": "Camping",
    "city": "Municipal ** Wasselonne",
    "description": ""
  },
  {
    "latitude": 1.22421,
    "longitude": 49.22513,
    "name": "Camping",
    "city": "Le Saint Pierre *** Saint Pierre du Vauvray",
    "description": "rue du Chateau"
  },
  {
    "latitude": 3.50322,
    "longitude": 45.10437,
    "name": "Camping",
    "city": "Gorges de l Allier *** Langeac",
    "description": "+33 471770501"
  },
  {
    "latitude": 8.87369,
    "longitude": 42.60856,
    "name": "Camping",
    "city": "La Plage",
    "description": "Algajola"
  },
  {
    "latitude": -1.34154,
    "longitude": 45.92307,
    "name": "Camping",
    "city": "Les Pins ** Saint Pierre d Oleron",
    "description": ""
  },
  {
    "latitude": -1.73326,
    "longitude": 43.37617,
    "name": "Camping",
    "city": "La Corniche *** Urrugne",
    "description": ""
  },
  {
    "latitude": 5.53222,
    "longitude": 45.12954,
    "name": "Camping",
    "city": "Les Buissonnets *** Meaudre",
    "description": "+33 476952104"
  },
  {
    "latitude": 0.4567,
    "longitude": 47.5267,
    "name": "Camping",
    "city": "L Arada Parc **** Sonzay",
    "description": ""
  },
  {
    "latitude": -4.52336,
    "longitude": 48.63038,
    "name": "Camping",
    "city": "La Greve Blanche ** Plouguerneau",
    "description": ""
  },
  {
    "latitude": 6.72058,
    "longitude": 43.48399,
    "name": "Camping",
    "city": "La Pierre Verte **** Frejus",
    "description": "+33 494408830"
  },
  {
    "latitude": 3.03082,
    "longitude": 42.76576,
    "name": "Camping",
    "city": "Les Dunes *** Torreilles Plage",
    "description": ""
  },
  {
    "latitude": 0.87194,
    "longitude": 44.81083,
    "name": "Camping",
    "city": "Les Jardins de l Abbaye * Cadouin",
    "description": "+33 553618930"
  },
  {
    "latitude": 0.88815,
    "longitude": 44.2722,
    "name": "Camping",
    "city": "Les 2 lacs ** Beauville",
    "description": "+33 553675809"
  },
  {
    "latitude": 4.28194,
    "longitude": 46.43944,
    "name": "Camping",
    "city": "Municipal *** Charolles",
    "description": ""
  },
  {
    "latitude": 1.034,
    "longitude": 45.61486,
    "name": "Camping",
    "city": "Les Ribieres ** Bussiere Galant",
    "description": ""
  },
  {
    "latitude": -3.95353,
    "longitude": 47.8969,
    "name": "Camping",
    "city": "Village Club Saint Laurent **** La Foret Fouesnant",
    "description": ""
  },
  {
    "latitude": 4.40211,
    "longitude": 44.3993,
    "name": "Camping",
    "city": "Le Vieux Vallon * Vallon Pont d Arc",
    "description": "+33 475880147"
  },
  {
    "latitude": 6.19384,
    "longitude": 43.71265,
    "name": "Camping",
    "city": "Le Clos de Barbey ** Bauduen",
    "description": ""
  },
  {
    "latitude": 1.45941,
    "longitude": 47.59086,
    "name": "Camping",
    "city": "Val de Flux",
    "description": "Huisseau sur Cosson"
  },
  {
    "latitude": 3.79834,
    "longitude": 43.4456,
    "name": "Camping",
    "city": "Club du Soleil *** Frontignan",
    "description": ""
  },
  {
    "latitude": 4.78485,
    "longitude": 45.42471,
    "name": "Camping",
    "city": "Le Daxia *** Saint Clair du Rhone",
    "description": "+33 474564557"
  },
  {
    "latitude": -2.785,
    "longitude": 48.57861,
    "name": "Camping",
    "city": "Roc de l Hervieu *** Pordic",
    "description": ""
  },
  {
    "latitude": 3.02614,
    "longitude": 42.5723,
    "name": "Camping",
    "city": "Les Galets **** Argeles sur Mer",
    "description": "+33 468810812"
  },
  {
    "latitude": -3.91862,
    "longitude": 47.90424,
    "name": "Camping",
    "city": "Lochrist *** Concarneau",
    "description": ""
  },
  {
    "latitude": 0.00222,
    "longitude": 42.76012,
    "name": "Camping",
    "city": "Le Pain de Sucre ** Gavarnie",
    "description": ""
  },
  {
    "latitude": 3.53148,
    "longitude": 44.3716,
    "name": "Camping",
    "city": "Les Cerisiers ** Ispagnac",
    "description": "+33 466442124"
  },
  {
    "latitude": 4.87104,
    "longitude": 47.7742,
    "name": "Camping",
    "city": "Municipal * Recey sur Ource",
    "description": "route de Menesble"
  },
  {
    "latitude": 3.0777,
    "longitude": 45.9147,
    "name": "Camping",
    "city": "La Balanede ** Chatelguyon",
    "description": ""
  },
  {
    "latitude": 1.2342,
    "longitude": 48.0022,
    "name": "Camping",
    "city": "Parc de Loisirs **** Cloyes sur le Loir",
    "description": ""
  },
  {
    "latitude": 5.86347,
    "longitude": 45.65321,
    "name": "Camping",
    "city": "International de l Ile aux Cygnes *** Le Bourget du Lac",
    "description": "+33 479250176"
  },
  {
    "latitude": 1.52614,
    "longitude": 50.20306,
    "name": "Camping",
    "city": "Les Galets de Molliere *** Cayeux sur mer",
    "description": ""
  },
  {
    "latitude": -2.99748,
    "longitude": 47.59572,
    "name": "Camping",
    "city": "Chat Noir *** Saint Philibert",
    "description": ""
  },
  {
    "latitude": -1.37257,
    "longitude": 45.94802,
    "name": "Camping",
    "city": "Le Surot *** Saint Georges d Oleron",
    "description": ""
  },
  {
    "latitude": 5.75584,
    "longitude": 45.43362,
    "name": "Camping",
    "city": "L Arc en ciel *** Entre Deux Guiers",
    "description": ""
  },
  {
    "latitude": -3.98594,
    "longitude": 47.85917,
    "name": "Camping",
    "city": "Kerroland ** Fouesnant",
    "description": "+33 298949100"
  },
  {
    "latitude": -4.10325,
    "longitude": 47.88199,
    "name": "Camping",
    "city": "du Port de Plaisance **** Clohars Fouesnant",
    "description": ""
  },
  {
    "latitude": -2.69334,
    "longitude": 47.64151,
    "name": "Camping",
    "city": "Rhuys *** Theix",
    "description": ""
  },
  {
    "latitude": 2.23501,
    "longitude": 48.86834,
    "name": "Camping",
    "city": "Bois de Boulogne **** Paris",
    "description": "+33 145243000"
  },
  {
    "latitude": 3.19433,
    "longitude": 46.08518,
    "name": "Camping",
    "city": "Le Mont Libre *** Gannat",
    "description": ""
  },
  {
    "latitude": 4.23033,
    "longitude": 44.38968,
    "name": "Camping",
    "city": "Le Pont de Maisonneuve ** Beaulieu",
    "description": "+33 475393044"
  },
  {
    "latitude": -2.30308,
    "longitude": 47.02418,
    "name": "Camping",
    "city": "Pointe de l Herbaudiere ** L Herbaudiere",
    "description": "+33 240215205"
  },
  {
    "latitude": -1.10405,
    "longitude": 45.68097,
    "name": "Camping",
    "city": "Les Cotes de Saintonge *** Saint Augustin",
    "description": "+33 546232348"
  },
  {
    "latitude": 8.97433,
    "longitude": 41.64064,
    "name": "Camping",
    "city": "Olva",
    "description": "Sartene"
  },
  {
    "latitude": -3.47537,
    "longitude": 48.82839,
    "name": "Camping",
    "city": "Le Ranolien **** Ploumanach",
    "description": ""
  },
  {
    "latitude": -0.74219,
    "longitude": 45.18511,
    "name": "Camping",
    "city": "Les Gabarreys **** Pauillac",
    "description": ""
  },
  {
    "latitude": 4.06562,
    "longitude": 45.91168,
    "name": "Camping",
    "city": "Arpheuilles *** Saint Paul de Vezelin",
    "description": "+33 477634343"
  },
  {
    "latitude": 2.99,
    "longitude": 45.66861,
    "name": "Camping",
    "city": "Le Chadelas ** Aydat",
    "description": "+33 473793809"
  },
  {
    "latitude": 9.29401,
    "longitude": 42.67383,
    "name": "Camping",
    "city": "U Pezzo",
    "description": "Saint Florent"
  },
  {
    "latitude": 5.95811,
    "longitude": 45.70943,
    "name": "Camping",
    "city": "camp Marlice ** Trevignin",
    "description": "+33 479614474"
  },
  {
    "latitude": 2.78167,
    "longitude": 43.64806,
    "name": "Camping",
    "city": "Indigo **** Nages",
    "description": ""
  },
  {
    "latitude": -3.80156,
    "longitude": 47.82796,
    "name": "Camping",
    "city": "Le Fleuri ** Tregunc",
    "description": "+33 298067476"
  },
  {
    "latitude": 6.78333,
    "longitude": 46.05,
    "name": "Camping",
    "city": "Municipal le Pelly ** Sixt Fer  Cheval",
    "description": ""
  },
  {
    "latitude": 4.21611,
    "longitude": 44.40385,
    "name": "Camping",
    "city": "Le Vieux Moulin ** Berrias et Casteljau",
    "description": "+33 475392570"
  },
  {
    "latitude": -1.06057,
    "longitude": 45.6494,
    "name": "Camping",
    "city": "Ferme de Chauchamps ** Vaux sur Mer",
    "description": "+33 546380464"
  },
  {
    "latitude": -3.02277,
    "longitude": 47.57386,
    "name": "Camping",
    "city": "La Baie **** La Trinite sur Mer",
    "description": "+33 297557342"
  },
  {
    "latitude": -1.39921,
    "longitude": 43.79735,
    "name": "Camping",
    "city": "Le Vieux Port **** Messanges",
    "description": ""
  },
  {
    "latitude": -3.99278,
    "longitude": 47.88028,
    "name": "Camping",
    "city": "Kerscolper ** Fouesnant 0298560948",
    "description": ""
  },
  {
    "latitude": 2.95643,
    "longitude": 46.03279,
    "name": "Camping",
    "city": "camp Elan ** Blot l Eglise",
    "description": "+33 473974494"
  },
  {
    "latitude": 0.13965,
    "longitude": 43.08033,
    "name": "Camping",
    "city": "Le Bigourdan *** Pouzac",
    "description": ""
  },
  {
    "latitude": -4.3713,
    "longitude": 48.2252,
    "name": "Camping",
    "city": "Armorique *** Telgruc sur Mer",
    "description": ""
  },
  {
    "latitude": 6.8874,
    "longitude": 48.169,
    "name": "Camping",
    "city": "Le Clos de la Chaume ** Corcieux",
    "description": ""
  },
  {
    "latitude": 4.73473,
    "longitude": 48.37667,
    "name": "Camping",
    "city": "La Croix Badeau ** Soulaines Dhuys",
    "description": ""
  },
  {
    "latitude": 4.89898,
    "longitude": 46.44708,
    "name": "Camping",
    "city": "Aux Rives du Soleil *** Pont de Vaux",
    "description": "+33 385303365"
  },
  {
    "latitude": 2.15972,
    "longitude": 48.79416,
    "name": "Camping",
    "city": "International",
    "description": "Versailles"
  },
  {
    "latitude": 2.4716,
    "longitude": 43.6084,
    "name": "Camping",
    "city": "Le Plo ** Le Bez",
    "description": ""
  },
  {
    "latitude": 2.72661,
    "longitude": 48.26665,
    "name": "Camping",
    "city": "La Baraude ** Darvault",
    "description": ""
  },
  {
    "latitude": 4.13945,
    "longitude": 46.69362,
    "name": "Camping",
    "city": "Le Val d Arroux ** Toulon sur Arroux",
    "description": ""
  },
  {
    "latitude": -2.16918,
    "longitude": 46.92938,
    "name": "Camping",
    "city": "Les Oncheres *** Barbatre",
    "description": ""
  },
  {
    "latitude": 4.83834,
    "longitude": 46.32278,
    "name": "Camping",
    "city": "Municipal *** Macon",
    "description": ""
  },
  {
    "latitude": -0.65591,
    "longitude": 47.36024,
    "name": "Camping",
    "city": "Le Saint Offange *** Rochefort sur Loire",
    "description": "+33 241788211"
  },
  {
    "latitude": -0.67088,
    "longitude": 47.32838,
    "name": "Camping",
    "city": "Municipal du Layon ** Saint Aubin de Luigne",
    "description": "+33 241783328"
  },
  {
    "latitude": -3.5618,
    "longitude": 48.7651,
    "name": "Camping",
    "city": "Armor Loisirs *** Trebeurden",
    "description": ""
  },
  {
    "latitude": -1.11556,
    "longitude": 45.68674,
    "name": "Camping",
    "city": "L Ecureuil *** Saint Augustin",
    "description": "+33 546391339"
  },
  {
    "latitude": 2.37056,
    "longitude": 50.72778,
    "name": "Camping",
    "city": "Le Bloemstraete *** Renescure",
    "description": ""
  },
  {
    "latitude": -3.0623,
    "longitude": 47.5981,
    "name": "Camping",
    "city": "La Grande Metairie **** Carnac",
    "description": ""
  },
  {
    "latitude": 8.86342,
    "longitude": 42.53444,
    "name": "Camping",
    "city": "Avena",
    "description": "Montemaggiore"
  },
  {
    "latitude": 7.00722,
    "longitude": 43.69806,
    "name": "Camping",
    "city": "Les Rives du Loup *** Tourrettes sur Loup",
    "description": "+33 493241565"
  },
  {
    "latitude": -3.46538,
    "longitude": 48.80598,
    "name": "Camping",
    "city": "Claire Fontaine *** Perros Guirec",
    "description": ""
  },
  {
    "latitude": 8.87873,
    "longitude": 41.69852,
    "name": "Camping",
    "city": "Libecciu",
    "description": "Cappiciolo"
  },
  {
    "latitude": -1.09145,
    "longitude": 43.71966,
    "name": "Camping",
    "city": "Les Pins du Soleil *** Saint Paul les Dax",
    "description": ""
  },
  {
    "latitude": -0.82242,
    "longitude": 45.14852,
    "name": "Camping",
    "city": "Le Paradis ** Saint Laurent Medoc",
    "description": "+33 556594215"
  },
  {
    "latitude": 6.89363,
    "longitude": 49.04404,
    "name": "Camping",
    "city": "Municipal * Puttelange aux Lacs",
    "description": "Etang de Diefenbach"
  },
  {
    "latitude": 3.27216,
    "longitude": 44.81381,
    "name": "Camping",
    "city": "Municipal La Croix des Anglais ** Saint Chely d Apcher",
    "description": ""
  },
  {
    "latitude": 8.88437,
    "longitude": 41.69412,
    "name": "Camping",
    "city": "chez Antoine * Olmeto",
    "description": "+33 495760699"
  },
  {
    "latitude": 6.43139,
    "longitude": 43.8225,
    "name": "Camping",
    "city": "camp des Gorges du Verdon *** Castellane",
    "description": "+33 492836364"
  },
  {
    "latitude": 6.7309,
    "longitude": 48.0878,
    "name": "Camping",
    "city": "Le Noir Rupt **** Le Tholy",
    "description": ""
  },
  {
    "latitude": 6.83714,
    "longitude": 48.06986,
    "name": "Camping",
    "city": "Le Pre Vert ** Gerardmer",
    "description": "+33 329632047"
  },
  {
    "latitude": -2.93757,
    "longitude": 47.55942,
    "name": "Camping",
    "city": "Kerpenhir ** Locqmariaquer",
    "description": ""
  },
  {
    "latitude": 3.14293,
    "longitude": 43.3182,
    "name": "Camping",
    "city": "Les Peupliers ** Colombiers",
    "description": ""
  },
  {
    "latitude": 3.97655,
    "longitude": 50.29687,
    "name": "Camping",
    "city": "Le Clair de Lune *** Maubeuge",
    "description": ""
  },
  {
    "latitude": 1.15945,
    "longitude": 46.55112,
    "name": "Camping",
    "city": "Municipal La Quintaine ** Belabre",
    "description": ""
  },
  {
    "latitude": 6.14722,
    "longitude": 43.03972,
    "name": "Camping",
    "city": "L Ile d Or ** Giens",
    "description": "+33 494582055"
  },
  {
    "latitude": 4.72953,
    "longitude": 44.24317,
    "name": "Camping",
    "city": "La Pinede ** Mondragon",
    "description": "+33 490408298"
  },
  {
    "latitude": 6.78462,
    "longitude": 45.62224,
    "name": "Caravaneige Le Versoyen",
    "city": "Bourg Saint Maurice",
    "description": ""
  },
  {
    "latitude": 9.13417,
    "longitude": 42.29667,
    "name": "Camping",
    "city": "Ulivu ** Corte",
    "description": ""
  },
  {
    "latitude": 4.0227,
    "longitude": 44.03596,
    "name": "Camping",
    "city": "Domaine de Gaujac *** Anduze",
    "description": ""
  },
  {
    "latitude": -4.55691,
    "longitude": 48.02844,
    "name": "Camping",
    "city": "Kerivoas ** Audierne",
    "description": "+33 298702686"
  },
  {
    "latitude": 1.14829,
    "longitude": 44.83812,
    "name": "Camping",
    "city": "Le Capeyrou *** Beynac",
    "description": "+33 553295495"
  },
  {
    "latitude": 3.97276,
    "longitude": 44.0688,
    "name": "Camping",
    "city": "L Arche *** Anduze",
    "description": ""
  },
  {
    "latitude": 1.18778,
    "longitude": 47.48889,
    "name": "Camping",
    "city": "Municipal ** Onzain",
    "description": ""
  },
  {
    "latitude": 8.86857,
    "longitude": 41.64326,
    "name": "Camping",
    "city": "Lecci e Murta",
    "description": "Portigliolo"
  },
  {
    "latitude": 5.4329,
    "longitude": 45.8135,
    "name": "Camping",
    "city": "Le Point Vert **** Serrieres de Briord",
    "description": ""
  },
  {
    "latitude": -4.45949,
    "longitude": 48.29224,
    "name": "Camping",
    "city": "La Cale ** Lanveoc",
    "description": "+33 298275891"
  },
  {
    "latitude": 5.7751,
    "longitude": 46.6516,
    "name": "Camping",
    "city": "Les Merilles ** Doucier",
    "description": ""
  },
  {
    "latitude": 6.651,
    "longitude": 43.23385,
    "name": "Camping",
    "city": "La Toison d Or *** Ramatuelle",
    "description": ""
  },
  {
    "latitude": 2.58477,
    "longitude": 44.35394,
    "name": "Camping",
    "city": "Municipal de Layoule **** Rodez",
    "description": ""
  },
  {
    "latitude": -1.6964,
    "longitude": 43.38275,
    "name": "Camping",
    "city": "Untxin Socoa ** Urrugne",
    "description": ""
  },
  {
    "latitude": 2.0683,
    "longitude": 43.4555,
    "name": "Camping",
    "city": "Saint Martin *** Soreze",
    "description": ""
  },
  {
    "latitude": -4.56525,
    "longitude": 48.28078,
    "name": "Camping",
    "city": "Le Grand Large **** Camaret",
    "description": ""
  },
  {
    "latitude": -1.55667,
    "longitude": 47.2425,
    "name": "Camping",
    "city": "Municipal du Petit Port **** Nantes",
    "description": ""
  },
  {
    "latitude": 4.32226,
    "longitude": 44.42263,
    "name": "Camping",
    "city": "La Bastide en Ardeche **** Sampzon",
    "description": "+33 475396472"
  },
  {
    "latitude": 9.16581,
    "longitude": 41.39272,
    "name": "Camping",
    "city": "Araguina",
    "description": "Bonifacio"
  },
  {
    "latitude": -2.9554,
    "longitude": 47.6141,
    "name": "Camping",
    "city": "Mane Guernehue **** Baden",
    "description": ""
  },
  {
    "latitude": 9.37113,
    "longitude": 41.68453,
    "name": "Camping",
    "city": "Pinarellu ** Sainte Lucie de Porto Vecchio",
    "description": "+33 495714398"
  },
  {
    "latitude": -2.4793,
    "longitude": 48.594,
    "name": "Camping",
    "city": "Bellevue *** Erquy",
    "description": ""
  },
  {
    "latitude": 3.90528,
    "longitude": 47.03583,
    "name": "Camping",
    "city": "L Etang de la Fougeraie ** Saint Leger de Fougeret",
    "description": ""
  },
  {
    "latitude": 6.50715,
    "longitude": 43.84608,
    "name": "Camping",
    "city": "Les Lavandes ** Castellane",
    "description": "+33 492783351"
  },
  {
    "latitude": 3.05526,
    "longitude": 45.75874,
    "name": "Camping",
    "city": "Indigo L Ocledes **** Royat",
    "description": ""
  },
  {
    "latitude": 5.88593,
    "longitude": 45.70109,
    "name": "Camping",
    "city": "International du Sierroz *** Aix les Bains",
    "description": "+33 479612143"
  },
  {
    "latitude": -3.0916,
    "longitude": 47.4761,
    "name": "Camping",
    "city": "Le Conguel **** Quiberon",
    "description": ""
  },
  {
    "latitude": 4.40486,
    "longitude": 44.39039,
    "name": "Camping",
    "city": "les Tunnel",
    "description": "Vallon Pont d Arc"
  },
  {
    "latitude": -2.1528,
    "longitude": 47.1409,
    "name": "Camping",
    "city": "La Tabardiere *** La Plaine sur Mer",
    "description": ""
  },
  {
    "latitude": -0.69028,
    "longitude": 46.56618,
    "name": "Camping",
    "city": "camp du Bois du Roc * Puy de Serre",
    "description": ""
  },
  {
    "latitude": -1.22917,
    "longitude": 45.69694,
    "name": "Camping",
    "city": "Parc de la Cote Sauvage **** La Palmyre",
    "description": "+33 546224018"
  },
  {
    "latitude": -1.19624,
    "longitude": 44.7343,
    "name": "Camping",
    "city": "Les Viviers **** Lege Cap Ferret",
    "description": "+33 556607004"
  },
  {
    "latitude": -3.1631,
    "longitude": 47.62118,
    "name": "Camping",
    "city": "L Ideal *** Erdeven",
    "description": "+33 297556766"
  },
  {
    "latitude": 4.57437,
    "longitude": 44.50044,
    "name": "Camping",
    "city": "Municipal ** Valvignieres",
    "description": ""
  },
  {
    "latitude": 1.0856,
    "longitude": 47.3268,
    "name": "Camping",
    "city": "Le Moulin Fort *** Francueil Chenonceaux",
    "description": ""
  },
  {
    "latitude": 5.162,
    "longitude": 44.373,
    "name": "Camping",
    "city": "L Or Vert ** Aubres",
    "description": ""
  },
  {
    "latitude": 6.948,
    "longitude": 48.4553,
    "name": "Camping",
    "city": "Les Lacs *** Celles sur Plaine",
    "description": ""
  },
  {
    "latitude": 6.94259,
    "longitude": 48.07816,
    "name": "Camping",
    "city": "Municipal du Domaine de Longemer ** Xonrupt Longemer",
    "description": "+33 329630730"
  },
  {
    "latitude": -1.88926,
    "longitude": 48.68698,
    "name": "Camping",
    "city": "Tannee ** Saint Coulomb",
    "description": ""
  },
  {
    "latitude": -1.15642,
    "longitude": 44.07209,
    "name": "Camping",
    "city": "Sen-Yan **** Mezos",
    "description": ""
  },
  {
    "latitude": -1.31038,
    "longitude": 49.41008,
    "name": "Camping",
    "city": "",
    "description": "Sainte Mere Eglise"
  },
  {
    "latitude": -3.12046,
    "longitude": 47.49959,
    "name": "Camping",
    "city": "Do Mi Si La Mi *** Quiberon",
    "description": "+33 297502252"
  },
  {
    "latitude": 3.28298,
    "longitude": 44.70578,
    "name": "Camping",
    "city": "Municipal ** Aumont Aubrac",
    "description": ""
  },
  {
    "latitude": 5.55835,
    "longitude": 45.46796,
    "name": "International Campsite of Montferrat",
    "city": "Montferrat",
    "description": "1578 Route des Chevalliers de l'An Mil"
  },
  {
    "latitude": 9.02,
    "longitude": 42.637,
    "name": "Camping",
    "city": "Campeoles",
    "description": "Lozari"
  },
  {
    "latitude": 1.19444,
    "longitude": 47.48444,
    "name": "Camping",
    "city": "Municipal ** Chaumont sur Loire",
    "description": ""
  },
  {
    "latitude": -2.12958,
    "longitude": 46.84781,
    "name": "Camping",
    "city": "La Daviere **** Notre Dame de Monts",
    "description": ""
  },
  {
    "latitude": 1.37661,
    "longitude": 43.60585,
    "name": "Camping",
    "city": "La Bouriette ** Toulouse",
    "description": "+33 561496446"
  },
  {
    "latitude": 3.42228,
    "longitude": 43.29833,
    "name": "Camping",
    "city": "La Carabasse **** Vias",
    "description": "+33 467215990"
  },
  {
    "latitude": 5.706,
    "longitude": 44.666,
    "name": "Camping",
    "city": "Champ la Chevre ** Luz la Croix Haute",
    "description": ""
  },
  {
    "latitude": 0.56387,
    "longitude": 43.03187,
    "name": "Camping",
    "city": "Es Pibous *** Saint Bertrand de Comminges",
    "description": "+33 561883142"
  },
  {
    "latitude": -3.70917,
    "longitude": 47.81711,
    "name": "Camping",
    "city": "Chateau du Belon ** Riec sur Belon",
    "description": ""
  },
  {
    "latitude": 1.06861,
    "longitude": 47.33028,
    "name": "Camping",
    "city": "Municipal * Chenonceaux",
    "description": ""
  },
  {
    "latitude": -1.13417,
    "longitude": 45.81861,
    "name": "Camping",
    "city": "Au Bon Air ** Marennes",
    "description": "+33 546850240"
  },
  {
    "latitude": -2.59667,
    "longitude": 47.52,
    "name": "Camping",
    "city": "L Ile ** Damgan",
    "description": ""
  },
  {
    "latitude": 4.38306,
    "longitude": 44.39722,
    "name": "Camping",
    "city": "Municipal Zamenhof ** Vallon Pont d Arc",
    "description": "+33 475880473"
  },
  {
    "latitude": 4.25727,
    "longitude": 44.20943,
    "name": "Camping",
    "city": "Chateau de Boisson **** Allegre les Fumades",
    "description": "+33 466248561"
  },
  {
    "latitude": 8.89021,
    "longitude": 41.69209,
    "name": "Camping",
    "city": "Esplanade",
    "description": "Vetricella"
  },
  {
    "latitude": 5.74583,
    "longitude": 43.15306,
    "name": "Camping",
    "city": "Vallongue ** Bandol",
    "description": ""
  },
  {
    "latitude": -3.99944,
    "longitude": 47.885,
    "name": "Camping",
    "city": "Kersantic - Cap Coz ** Fouesnant",
    "description": "+33 298560866"
  },
  {
    "latitude": 0.71591,
    "longitude": 47.2904,
    "name": "Camping",
    "city": "La Grange Rouge *** Montbazon",
    "description": ""
  },
  {
    "latitude": 9.20162,
    "longitude": 42.72152,
    "name": "Camping",
    "city": "U Paradisu",
    "description": "Casta"
  },
  {
    "latitude": 0.5117,
    "longitude": 47.1081,
    "name": "Camping",
    "city": "Chateau de la Rolandiere *** Trogues",
    "description": ""
  },
  {
    "latitude": 1.14641,
    "longitude": 49.32237,
    "name": "Camping",
    "city": "Les Terrasses ** Igoville",
    "description": "rue de Rouen"
  },
  {
    "latitude": 5.71736,
    "longitude": 48.94111,
    "name": "Camping",
    "city": "Les Chenes Clairs Madine 2 *** Heudicourt sous les Cotes",
    "description": "+33 329893608"
  },
  {
    "latitude": 5.71736,
    "longitude": 48.94111,
    "name": "Camping",
    "city": "Les Passons Madine 2 ** Heudicourt sous les Cotes",
    "description": "+33 329893608"
  },
  {
    "latitude": -1.49273,
    "longitude": 46.24846,
    "name": "Camping",
    "city": "Municipal",
    "description": "Les Portes en Re"
  },
  {
    "latitude": 3.08706,
    "longitude": 44.11031,
    "name": "Camping",
    "city": "Larribal ** Millau",
    "description": ""
  },
  {
    "latitude": 2.90556,
    "longitude": 47.59389,
    "name": "Camping",
    "city": "Le Diben ** Larmor Baden",
    "description": "+33 297570536"
  },
  {
    "latitude": 0.01585,
    "longitude": 48.2835,
    "name": "Camping",
    "city": "Le Sans Soucis *** Fresnay sur Sarthe",
    "description": "+33 243973287"
  },
  {
    "latitude": -1.50429,
    "longitude": 49.42275,
    "name": "Camping",
    "city": "Municipal du Hable ** Omonville la Rogue",
    "description": ""
  },
  {
    "latitude": 5.282,
    "longitude": 44.823,
    "name": "Camping",
    "city": "ANLe Moulin de Rivet",
    "description": "Saint Julien en Quint"
  },
  {
    "latitude": 1.89784,
    "longitude": 44.8578,
    "name": "Camping",
    "city": "Le Soulhol *** Saint Cere",
    "description": ""
  },
  {
    "latitude": 1.53481,
    "longitude": 44.69233,
    "name": "Camping",
    "city": "La Faurie *** Seniergues",
    "description": ""
  },
  {
    "latitude": 3.04766,
    "longitude": 44.07381,
    "name": "Camping",
    "city": "Saint Martin ** Creissels",
    "description": ""
  },
  {
    "latitude": 4.88222,
    "longitude": 44.39706,
    "name": "Camping",
    "city": "Domaine de la Charmarade ** Chamaret",
    "description": ""
  },
  {
    "latitude": 3.04936,
    "longitude": 42.99804,
    "name": "Camping",
    "city": "Cote Vermeille ** Port la Nouvelle",
    "description": "+33 468480580"
  },
  {
    "latitude": 3.51661,
    "longitude": 45.20974,
    "name": "Camping",
    "city": "Municipal La Fridiere ** Paulhaguet",
    "description": ""
  },
  {
    "latitude": 2.6826,
    "longitude": 47.49667,
    "name": "Camping",
    "city": "La Gree Penvins ** Sarzeau",
    "description": "+33 297673396"
  },
  {
    "latitude": -4.03692,
    "longitude": 47.84885,
    "name": "Camping",
    "city": "Village le Grand Large **** Fouesnant",
    "description": "+33 298560406"
  },
  {
    "latitude": -4.61834,
    "longitude": 48.02538,
    "name": "Camping",
    "city": "Municipal Kermalero ** Primelin",
    "description": "+33 298748475"
  },
  {
    "latitude": 4.10728,
    "longitude": 43.55367,
    "name": "Camping",
    "city": "Le Boucanet **** Le Grau du Roi",
    "description": ""
  },
  {
    "latitude": 0.00519,
    "longitude": 42.83013,
    "name": "Camping",
    "city": "Saint Bazerque ** Luz Saint Sauveur",
    "description": ""
  },
  {
    "latitude": 8.68225,
    "longitude": 42.4654,
    "name": "Camping",
    "city": "Morsetta",
    "description": "Argentella"
  },
  {
    "latitude": 8.73132,
    "longitude": 42.07089,
    "name": "Camping",
    "city": "Sommalu",
    "description": "Tiuccia"
  },
  {
    "latitude": -1.57613,
    "longitude": 43.45468,
    "name": "Camping",
    "city": "Pavillon Royal **** Bidart",
    "description": ""
  },
  {
    "latitude": -2.4612,
    "longitude": 47.4092,
    "name": "Camping",
    "city": "Le Beaupre ** Kercabellec",
    "description": ""
  },
  {
    "latitude": 3.14228,
    "longitude": 43.14499,
    "name": "Camping",
    "city": "Le Soleil d Oc *** Narbonne plage",
    "description": "+33 468498621"
  },
  {
    "latitude": -1.74402,
    "longitude": 47.13484,
    "name": "Camping",
    "city": "Municipal La Moriniere * Port Saint Pere",
    "description": "+33 240315013"
  },
  {
    "latitude": -1.15778,
    "longitude": 44.3125,
    "name": "Camping",
    "city": "La Reserve **** Gastes",
    "description": ""
  },
  {
    "latitude": 6.27306,
    "longitude": 49.29861,
    "name": "Camping",
    "city": "Centre de loisirs ** Volstroff",
    "description": ""
  },
  {
    "latitude": 8.81688,
    "longitude": 42.25055,
    "name": "Camping",
    "city": "Luacciola",
    "description": "Evisa"
  },
  {
    "latitude": 0.54225,
    "longitude": 44.24416,
    "name": "Camping",
    "city": "Moulin de Mellet *** Saint Hilaire de Lusignan",
    "description": "+33 553683311"
  },
  {
    "latitude": 1.20257,
    "longitude": 47.88677,
    "name": "Camping",
    "city": "Municipal ** Freteval",
    "description": "+33 254826352"
  },
  {
    "latitude": 3.96484,
    "longitude": 44.07763,
    "name": "Camping",
    "city": "Cevennes-Provence *** Anduze",
    "description": ""
  },
  {
    "latitude": 3.66517,
    "longitude": 43.45061,
    "name": "Camping",
    "city": "Lou Labech *** Bouzigues",
    "description": ""
  },
  {
    "latitude": 4.52449,
    "longitude": 44.18865,
    "name": "Camping",
    "city": "Les Cascades *** La Roque sur Ceze",
    "description": "+33 486827297"
  },
  {
    "latitude": -2.16192,
    "longitude": 47.17234,
    "name": "Camping",
    "city": "La Popliniere ** Saint Michel Chef Chef",
    "description": ""
  },
  {
    "latitude": 1.5476,
    "longitude": 48.6089,
    "name": "Camping",
    "city": "Les Ilots de Saint Val *** Villiers le Morhier",
    "description": ""
  },
  {
    "latitude": 4.80338,
    "longitude": 47.06835,
    "name": "Camping",
    "city": "Municipal Les Premiers Pres ** Savigny les Beaune",
    "description": "5 rue des Chanterives"
  },
  {
    "latitude": 2.5104,
    "longitude": 48.393,
    "name": "Camping",
    "city": "La Musardiere *** Milly la Foret",
    "description": ""
  },
  {
    "latitude": 0.0725,
    "longitude": 48.42556,
    "name": "Camping",
    "city": "Guerame ** Alencon",
    "description": ""
  },
  {
    "latitude": -3.16563,
    "longitude": 47.61839,
    "name": "Camping",
    "city": "Les Ormeaux ** Erdeven",
    "description": "+33 297556757"
  },
  {
    "latitude": 8.60211,
    "longitude": 42.16499,
    "name": "Camping",
    "city": "Torraccia",
    "description": "Lozzi"
  },
  {
    "latitude": 4.57972,
    "longitude": 47.85944,
    "name": "Camping",
    "city": "Louis Rigoly ** Chatillon sur Seine",
    "description": ""
  },
  {
    "latitude": 4.56439,
    "longitude": 43.92649,
    "name": "Camping",
    "city": "La Soubeyrane **** Remoulins",
    "description": "+33 466370321"
  },
  {
    "latitude": -2.88306,
    "longitude": 47.55306,
    "name": "Camping",
    "city": "Municipal Le Tindio *** Arzon",
    "description": ""
  },
  {
    "latitude": 2.16643,
    "longitude": 43.93334,
    "name": "Camping",
    "city": "Caussel ** Albi",
    "description": ""
  },
  {
    "latitude": -2.0396,
    "longitude": 47.0851,
    "name": "Camping",
    "city": "Les Ecureuils *** La Bernerie en Retz",
    "description": ""
  },
  {
    "latitude": 1.61719,
    "longitude": 44.07862,
    "name": "Camping",
    "city": "Le Clos Lalande *** Montricoux",
    "description": ""
  },
  {
    "latitude": 4.41473,
    "longitude": 48.42639,
    "name": "Camping",
    "city": "ANLes Gravieres",
    "description": "Lesmont"
  },
  {
    "latitude": -4.703,
    "longitude": 48.33995,
    "name": "Camping",
    "city": "Les Terrasses de Bertheaume *** Plougonvelin",
    "description": ""
  },
  {
    "latitude": 2.23086,
    "longitude": 44.9349,
    "name": "Camping",
    "city": "La Presqu ile d Espinet *** Saint Gerons",
    "description": "+33 471622890"
  },
  {
    "latitude": 2.43522,
    "longitude": 47.38494,
    "name": "Camping",
    "city": "Le Martinet ** Briare",
    "description": ""
  },
  {
    "latitude": 1.54437,
    "longitude": 49.99414,
    "name": "Camping",
    "city": "Municipal Les Marguerites ** Gamaches",
    "description": "+33 322308951"
  },
  {
    "latitude": 5.37139,
    "longitude": 43.76806,
    "name": "Camping",
    "city": "Les Hautes Prairies *** Lourmarin",
    "description": "+33 490680289"
  },
  {
    "latitude": -1.21583,
    "longitude": 45.82917,
    "name": "Camping",
    "city": "La Combinette ** Saint Trojan les Bains",
    "description": "+33 546760047"
  },
  {
    "latitude": 6.43695,
    "longitude": 43.7956,
    "name": "Camping",
    "city": "Municipal Carajuan",
    "description": "Rougon"
  },
  {
    "latitude": -4.03583,
    "longitude": 47.85083,
    "name": "Camping",
    "city": "Penhoat *** Fouesnant",
    "description": "+33 298560898"
  },
  {
    "latitude": -3.16345,
    "longitude": 48.69492,
    "name": "Camping",
    "city": "Traou-Meledem",
    "description": "Pontrieux"
  },
  {
    "latitude": 6.60844,
    "longitude": 44.67702,
    "name": "Camping",
    "city": "Municipal Les Iscles *** Eygliers",
    "description": ""
  },
  {
    "latitude": -3.96748,
    "longitude": 47.95038,
    "name": "Camping",
    "city": "Municipal Bois de Pleuven **** Saint Yvi",
    "description": "+33 298947047"
  },
  {
    "latitude": 3.14458,
    "longitude": 43.14356,
    "name": "Camping",
    "city": "La Cote des Roses ** Narbonne plage",
    "description": "+33 468498365"
  },
  {
    "latitude": -1.14,
    "longitude": 45.06,
    "name": "Camping",
    "city": "Le Maubuisson ** Carcans",
    "description": "+33 556033012"
  },
  {
    "latitude": -0.7493,
    "longitude": 47.3502,
    "name": "Camping",
    "city": "Le Candais *** Chalonnes sur Loire",
    "description": "+33 546551001"
  },
  {
    "latitude": 1.08278,
    "longitude": 46.21028,
    "name": "Camping",
    "city": "Municipal de la Planche des Dames * Le Dorat",
    "description": ""
  },
  {
    "latitude": 6.98121,
    "longitude": 48.0687,
    "name": "Camping",
    "city": "L Eau Vive ** Xonrupt",
    "description": ""
  },
  {
    "latitude": -2.24649,
    "longitude": 47.01486,
    "name": "Camping",
    "city": "Les Roussieres *** Noirmoutier en l Ile",
    "description": "+33 251391301"
  },
  {
    "latitude": -1.1366,
    "longitude": 44.76312,
    "name": "Camping",
    "city": "Pasteur Vacances *** Ares",
    "description": ""
  },
  {
    "latitude": 5.07566,
    "longitude": 43.33027,
    "name": "Camping",
    "city": "Les Mouettes ** Martigues",
    "description": "+33 442807001"
  },
  {
    "latitude": 1.32611,
    "longitude": 43.89722,
    "name": "Camping",
    "city": "La Tisarne * Campsas",
    "description": ""
  },
  {
    "latitude": 0.36083,
    "longitude": 49.75639,
    "name": "Camping",
    "city": "Reneville ** Fecamp",
    "description": ""
  },
  {
    "latitude": 1.55841,
    "longitude": 47.68636,
    "name": "Camping",
    "city": "L Amitie ** Saint Laurent Nouan",
    "description": "+33 254870152"
  },
  {
    "latitude": -1.64594,
    "longitude": 48.13524,
    "name": "Camping",
    "city": "Les Gayeulles *** Rennes",
    "description": ""
  },
  {
    "latitude": -1.86709,
    "longitude": 47.10489,
    "name": "Camping",
    "city": "Municipal * Saint Hilaire de Chaleon",
    "description": ""
  },
  {
    "latitude": 4.14952,
    "longitude": 43.52264,
    "name": "Camping",
    "city": "L Abri de Camargue **** Le Grau du Roi",
    "description": ""
  },
  {
    "latitude": -1.00504,
    "longitude": 44.68389,
    "name": "Camping",
    "city": "Le Braou *** Audenge",
    "description": ""
  },
  {
    "latitude": 9.29602,
    "longitude": 42.67344,
    "name": "Camping",
    "city": "Kalliste",
    "description": "Saint Florent"
  },
  {
    "latitude": -1.31525,
    "longitude": 43.90568,
    "name": "Camping",
    "city": "Lou Puntaou ***** Leon",
    "description": ""
  },
  {
    "latitude": 6.6334,
    "longitude": 48.9563,
    "name": "Camping",
    "city": "La Mutche *** Morhange",
    "description": ""
  },
  {
    "latitude": 6.29778,
    "longitude": 43.55333,
    "name": "Camping",
    "city": "Le Ruou *** Villecroze",
    "description": ""
  },
  {
    "latitude": 3.21894,
    "longitude": 44.99905,
    "name": "Camping",
    "city": "Le Petit Bois *** Ruynes en Margeride",
    "description": "+33 471234226"
  },
  {
    "latitude": 5.86861,
    "longitude": 48.29333,
    "name": "Camping",
    "city": "L Arc en Ciel ** La Neuville sous Chatenois",
    "description": ""
  },
  {
    "latitude": 6.33106,
    "longitude": 43.12364,
    "name": "Camping",
    "city": "La Griotte ** Bormes les Mimosas",
    "description": ""
  },
  {
    "latitude": -4.01861,
    "longitude": 47.88194,
    "name": "Camping",
    "city": "Les Hortensias ** Fouesnant",
    "description": "+33 298565295"
  },
  {
    "latitude": -1.1558,
    "longitude": 44.43569,
    "name": "Camping",
    "city": "Mayotte Vacances **** Biscarrosse",
    "description": "+33 558780000"
  },
  {
    "latitude": 3.49861,
    "longitude": 43.31111,
    "name": "Camping",
    "city": "Les Sept Fonts ** Agde",
    "description": ""
  },
  {
    "latitude": 0.3604,
    "longitude": 42.86382,
    "name": "Camping",
    "city": "Le Ruisseau ** Gouaux",
    "description": "+33 562399549"
  },
  {
    "latitude": 3.96096,
    "longitude": 46.70788,
    "name": "Camping",
    "city": "L Etang Neuf **** Issy l Eveque",
    "description": ""
  },
  {
    "latitude": 7.0723,
    "longitude": 48.61319,
    "name": "Camping",
    "city": "Municipal ** Saint Quirin",
    "description": "+33 387086034"
  },
  {
    "latitude": -1.25395,
    "longitude": 43.19078,
    "name": "Camping",
    "city": "La Truite ** Ascarat",
    "description": ""
  },
  {
    "latitude": -1.31744,
    "longitude": 46.33227,
    "name": "Camping",
    "city": "La Cote de Lumiere ** La Faute sur Mer",
    "description": ""
  },
  {
    "latitude": 4.79708,
    "longitude": 43.95327,
    "name": "Camping",
    "city": "Bagatelle *** Avignon",
    "description": ""
  },
  {
    "latitude": -3.96899,
    "longitude": 48.69341,
    "name": "Camping",
    "city": "Ar Kleguer *** Saint Pol de Leon",
    "description": ""
  },
  {
    "latitude": 2.56584,
    "longitude": 44.64389,
    "name": "Camping",
    "city": "Val de Saures ** Entraygues sur Truyere",
    "description": ""
  },
  {
    "latitude": 2.71343,
    "longitude": 45.05182,
    "name": "Camping",
    "city": "Municipal Les Blats *** Saint Jacques des Blats",
    "description": "+33 471470600"
  },
  {
    "latitude": -3.3879,
    "longitude": 48.8156,
    "name": "Camping",
    "city": "Port l Epine *** Trelevern",
    "description": ""
  },
  {
    "latitude": 2.63341,
    "longitude": 44.97165,
    "name": "Camping",
    "city": "La Pommeraie **** Vic sur Cere",
    "description": "+33 471475418"
  },
  {
    "latitude": 2.72446,
    "longitude": 43.15087,
    "name": "Camping",
    "city": "AU0Camping",
    "description": ""
  },
  {
    "latitude": -3.54499,
    "longitude": 47.76854,
    "name": "Camping",
    "city": "Les Embruns ** Clohars Carnoet",
    "description": "rue du Philosophe Alain"
  },
  {
    "latitude": -2.3988,
    "longitude": 47.298,
    "name": "Camping",
    "city": "Tremondec *** Guerande",
    "description": ""
  },
  {
    "latitude": -1.43483,
    "longitude": 46.19335,
    "name": "Camping",
    "city": "Municipal *** La Couarde sur Mer",
    "description": ""
  },
  {
    "latitude": -1.1647,
    "longitude": 45.22285,
    "name": "Camping",
    "city": "Cote d Argent **** Hourtin Plage",
    "description": "+33 556091025"
  },
  {
    "latitude": 1.0277,
    "longitude": 44.08508,
    "name": "Camping",
    "city": "Le Plan d Eau ** Saint Nicolas de la Grave",
    "description": "+33 563955002"
  },
  {
    "latitude": -1.19333,
    "longitude": 45.01185,
    "name": "Camping",
    "city": "Les Grands Pins **** Lacanau",
    "description": "+33 556032077"
  },
  {
    "latitude": -1.75039,
    "longitude": 49.3643,
    "name": "Camping",
    "city": "Les Vikings *** Saint Jean de la Riviere",
    "description": ""
  },
  {
    "latitude": 6.16726,
    "longitude": 49.12211,
    "name": "Camping",
    "city": "Municipal Metz Plage **** Metz",
    "description": ""
  },
  {
    "latitude": 8.79122,
    "longitude": 42.50384,
    "name": "Camping",
    "city": "Paradella",
    "description": "Square"
  },
  {
    "latitude": 2.76674,
    "longitude": 44.21468,
    "name": "Camping",
    "city": "Le Caussanel *** Canet de Salars",
    "description": "+33 565468519"
  },
  {
    "latitude": -1.20028,
    "longitude": 45.69833,
    "name": "Camping",
    "city": "Bonne Anse plage **** La Palmyre",
    "description": "+33 546224090"
  },
  {
    "latitude": 3.36224,
    "longitude": 43.28754,
    "name": "Camping",
    "city": "L Emeraude *** Portiragnes Plage",
    "description": "+33 467909376"
  },
  {
    "latitude": 8.95849,
    "longitude": 42.63318,
    "name": "Camping",
    "city": "Le Bodri",
    "description": "Guardiola"
  },
  {
    "latitude": 5.26802,
    "longitude": 44.3699,
    "name": "Camping",
    "city": "ANUbertrop",
    "description": "Arpavon"
  },
  {
    "latitude": 9.20102,
    "longitude": 41.39908,
    "name": "Camping",
    "city": "Pian del Fosse",
    "description": "Saint Julien"
  },
  {
    "latitude": 5.95535,
    "longitude": 48.20778,
    "name": "Camping",
    "city": "Municipal ** Vittel",
    "description": "+33 329080271"
  },
  {
    "latitude": 0.64868,
    "longitude": 44.06596,
    "name": "Camping",
    "city": "Municipal * Astaffort",
    "description": "+33 553671006"
  },
  {
    "latitude": -2.28352,
    "longitude": 46.98523,
    "name": "Camping",
    "city": "Municipal La Bosse ** L Epine",
    "description": "+33 251390107"
  },
  {
    "latitude": -1.19799,
    "longitude": 48.10927,
    "name": "Camping",
    "city": "Municipal Saint Etienne ** Vitre",
    "description": ""
  },
  {
    "latitude": 1.04533,
    "longitude": 44.74165,
    "name": "Camping",
    "city": "Les Hauts de Ratebout **** Sainte Foy de Belves",
    "description": "+33 553290210"
  },
  {
    "latitude": -1.15011,
    "longitude": 44.78894,
    "name": "Camping",
    "city": "La Canadienne **** Ares",
    "description": "+33 556602491"
  },
  {
    "latitude": 5.78655,
    "longitude": 45.56906,
    "name": "Camping",
    "city": "Les Chavannes *** Novalaise",
    "description": ""
  },
  {
    "latitude": -3.55763,
    "longitude": 48.69305,
    "name": "Camping",
    "city": "Les Capucines **** Tredez",
    "description": ""
  },
  {
    "latitude": 2.5601,
    "longitude": 43.5624,
    "name": "Camping",
    "city": "Le Manoir de Boutaric **** Angles",
    "description": ""
  },
  {
    "latitude": 3.50875,
    "longitude": 48.50359,
    "name": "Camping",
    "city": "Municipal ** Nogent sur Seine",
    "description": ""
  },
  {
    "latitude": 6.34883,
    "longitude": 43.78034,
    "name": "Camping",
    "city": "Municipal le Grand Canyon",
    "description": "La Palud sur Verdon"
  },
  {
    "latitude": -1.69217,
    "longitude": 43.33602,
    "name": "Camping",
    "city": "Mendi-azpian ** Urrugne",
    "description": ""
  },
  {
    "latitude": 2.26065,
    "longitude": 44.68174,
    "name": "Camping",
    "city": "Le Moulin de Chaules *** Saint Constant",
    "description": "+33 471491102"
  },
  {
    "latitude": 2.25926,
    "longitude": 49.9208,
    "name": "Camping",
    "city": "Parc des Cygnes **** Amiens",
    "description": ""
  },
  {
    "latitude": -3.8013,
    "longitude": 47.79334,
    "name": "Camping",
    "city": "Raguenez Plage **** Nevez",
    "description": "+33 298068069"
  },
  {
    "latitude": 1.11154,
    "longitude": 44.89297,
    "name": "Camping",
    "city": "Les Charmes *** Saint Andre d Allas",
    "description": "+33 553310289"
  },
  {
    "latitude": 2.96406,
    "longitude": 48.37753,
    "name": "Camping",
    "city": "Le Marcassin",
    "description": "Montereau Fault Yonne"
  },
  {
    "latitude": 1.572,
    "longitude": 50.673,
    "name": "Camping",
    "city": "La Falaise *** Equihen plage",
    "description": ""
  },
  {
    "latitude": 4.33254,
    "longitude": 47.63218,
    "name": "Camping",
    "city": "Municipal **** Montbard",
    "description": "rue M.Servet"
  },
  {
    "latitude": 3.16237,
    "longitude": 43.15986,
    "name": "Camping",
    "city": "La Falaise *** Narbonne plage",
    "description": "+33 468498077"
  },
  {
    "latitude": 9.55537,
    "longitude": 42.19944,
    "name": "Camping",
    "city": "Bravone",
    "description": "Bravonne"
  },
  {
    "latitude": -1.68366,
    "longitude": 48.54939,
    "name": "Camping",
    "city": "Le Vieux Chene **** Baguer-Pican",
    "description": ""
  },
  {
    "latitude": 6.35064,
    "longitude": 43.11798,
    "name": "Camping",
    "city": "Camp du Domaine **** Bormes les Mimosas",
    "description": "+33 494710312"
  },
  {
    "latitude": 9.28333,
    "longitude": 42.67306,
    "name": "Camping",
    "city": "Acqua Dolce ** Saint Florent",
    "description": "+33 495370863"
  },
  {
    "latitude": 0.6549,
    "longitude": 47.1486,
    "name": "Camping",
    "city": "Parc de Fierbois **** Sainte Catherine de Fierbois",
    "description": ""
  },
  {
    "latitude": -2.59763,
    "longitude": 47.52172,
    "name": "Camping",
    "city": "Closnenn *** Damgan",
    "description": ""
  },
  {
    "latitude": 1.15589,
    "longitude": 49.30596,
    "name": "Camping",
    "city": "Eure et Seine ** Pont de l Arche",
    "description": "quai Marechal Foch"
  },
  {
    "latitude": 2.26556,
    "longitude": 44.92334,
    "name": "Camping",
    "city": "Municipal * Lacapelle Viescamp",
    "description": ""
  },
  {
    "latitude": 4.63595,
    "longitude": 44.8097,
    "name": "Camping",
    "city": "Domaine des Plantas **** Les Ollieres / Eyrieux",
    "description": "+33 475662153"
  },
  {
    "latitude": 9.01199,
    "longitude": 42.44308,
    "name": "Camping",
    "city": "Monte Cinto",
    "description": "Asco"
  },
  {
    "latitude": -0.59923,
    "longitude": 44.87604,
    "name": "Camping",
    "city": "Les Lierres ** Bruges",
    "description": "+33 556172261"
  },
  {
    "latitude": -0.18806,
    "longitude": 45.2179,
    "name": "Camping",
    "city": "La Motte",
    "description": "Le Fouilloux"
  },
  {
    "latitude": 6.2098,
    "longitude": 44.6245,
    "name": "Camping",
    "city": "Les Auches *** Ancelle",
    "description": ""
  },
  {
    "latitude": 2.25556,
    "longitude": 42.99472,
    "name": "Camping",
    "city": "Le Val d Aleth ** Alet les Bains",
    "description": "+33 468699040"
  },
  {
    "latitude": -0.09351,
    "longitude": 42.99684,
    "name": "Camping",
    "city": "La Prairie ** Lau Balagnas",
    "description": "+33 562971187"
  },
  {
    "latitude": 1.9676,
    "longitude": 43.7583,
    "name": "Camping",
    "city": "Le Lac de Nabeillou ** Graulhet",
    "description": ""
  },
  {
    "latitude": -4.3533,
    "longitude": 48.40123,
    "name": "Camping",
    "city": "Saint Jean *** Plougastel Daoulas",
    "description": ""
  },
  {
    "latitude": -3.10569,
    "longitude": 47.47416,
    "name": "Camping",
    "city": "Le Goviro ** Quiberon",
    "description": "+33 297501354"
  },
  {
    "latitude": -3.0619,
    "longitude": 47.5966,
    "name": "Camping",
    "city": "Moulin de Kermaux *** Carnac",
    "description": ""
  },
  {
    "latitude": 4.02732,
    "longitude": 44.03558,
    "name": "Camping",
    "city": "Domaine",
    "description": "Gaujac"
  },
  {
    "latitude": 3.93028,
    "longitude": 45.04265,
    "name": "Camping",
    "city": "Municipal d Audinet",
    "description": "Brives Charensac"
  },
  {
    "latitude": 6.34917,
    "longitude": 49.445,
    "name": "Camping",
    "city": "Municipal",
    "description": "Sierck les Bains"
  },
  {
    "latitude": 2.67154,
    "longitude": 45.01421,
    "name": "Camping",
    "city": "Municipal *** Thiezac",
    "description": "+33 471470041"
  },
  {
    "latitude": -2.14725,
    "longitude": 46.88558,
    "name": "Camping",
    "city": "La Grand Cote *** La Barre de Monts",
    "description": ""
  },
  {
    "latitude": -3.7997,
    "longitude": 47.81783,
    "name": "Camping",
    "city": "Les Genets ** Nevez",
    "description": "+33 298068613"
  },
  {
    "latitude": -4.18165,
    "longitude": 47.8127,
    "name": "Camping",
    "city": "Les Hortensias *** Loctudy",
    "description": "+33 298874664"
  },
  {
    "latitude": 5.5556,
    "longitude": 44.89634,
    "name": "Camping",
    "city": "Les 4 saisons *** Gresse en Vercors",
    "description": ""
  },