[
  {
    "latitude": -1.32416,
    "longitude": 44.09326,
    "name": "Camping Lous Seurrots ****",
    "city": "Saint Julien en Born (Contis-plage)",
    "description": "+33 558428582"
  },
  {
    "latitude": 0.54999,
    "longitude": 47.34945,
    "name": "Camping La Confluence",
    "city": "Savonnieres",
    "description": ""
  },
  {
    "latitude": 5.77561,
    "longitude": 47.74305,
    "name": "Camping du Lac",
    "city": "Preigney",
    "description": ""
  },
  {
    "latitude": 3.66557,
    "longitude": 46.51665,
    "name": "Camping Municipal **",
    "city": "Dompierre sur Bresbre",
    "description": "+33 470345557"
  },
  {
    "latitude": -1.30541,
    "longitude": 43.92245,
    "name": "Camping L Oceane **",
    "city": "Vielle Saint Girons",
    "description": ""
  },
  {
    "latitude": 9.35998,
    "longitude": 41.59366,
    "name": "Camping La Chiappa FKK",
    "city": "Piccovagia",
    "description": ""
  },
  {
    "latitude": 6.33951,
    "longitude": 44.60451,
    "name": "Camping Reallon",
    "city": "Reallon",
    "description": ""
  },
  {
    "latitude": 1.16806,
    "longitude": 46.34806,
    "name": "Camping Municipal Les Forges **",
    "city": "Lussac les Eglises",
    "description": ""
  },
  {
    "latitude": 7.71482,
    "longitude": 48.57539,
    "name": "Camping La Montagne Verte **",
    "city": "Strasbourg",
    "description": ""
  },
  {
    "latitude": 4.39472,
    "longitude": 44.39306,
    "name": "Camping Le Clapas ***",
    "city": "Salavas",
    "description": "+33 475371476"
  },
  {
    "latitude": -2.9491,
    "longitude": 47.57295,
    "name": "Camping Loc-Ker **",
    "city": "Locqmariaquer",
    "description": ""
  },
  {
    "latitude": -2.18597,
    "longitude": 46.94524,
    "name": "Camping du Midi ***",
    "city": "Barbatre",
    "description": "+33 251396374"
  },
  {
    "latitude": 2.46201,
    "longitude": 44.89887,
    "name": "Camping Camp de la Cere ***",
    "city": "Arpajon sur Cere",
    "description": "+33 471645507"
  },
  {
    "latitude": 1.95538,
    "longitude": 42.47879,
    "name": "Camping Municipal Sol y Neu **",
    "city": "Angoustrine Villeneuve Escaldes",
    "description": ""
  },
  {
    "latitude": 0.64212,
    "longitude": 49.78334,
    "name": "Camping Municipal ***",
    "city": "Cany Barville",
    "description": "+33 235977037"
  },
  {
    "latitude": 2.47821,
    "longitude": 48.82803,
    "name": "Camping Boulevard des Allies",
    "city": "Paris",
    "description": ""
  },
  {
    "latitude": 4.40451,
    "longitude": 47.87035,
    "name": "Camping Les Grebles du Lac **",
    "city": "Marcenay",
    "description": "Le Fourneau"
  },
  {
    "latitude": 5.42538,
    "longitude": 44.1028,
    "name": "Camping du Deffends **",
    "city": "Sault",
    "description": "route de Saint Trinit"
  },
  {
    "latitude": 1.59431,
    "longitude": 43.4504,
    "name": "Camping Les Peupliers *",
    "city": "Ayguesvives",
    "description": "+33 561811111"
  },
  {
    "latitude": -1.40012,
    "longitude": 43.33938,
    "name": "Camping Hiriberria ***",
    "city": "Itxassou",
    "description": "+33 559299809"
  },
  {
    "latitude": 2.11604,
    "longitude": 47.86886,
    "name": "Camping L Isle aux Moulins **",
    "city": "Jargeau",
    "description": ""
  },
  {
    "latitude": 3.03364,
    "longitude": 42.73881,
    "name": "Camping Municipal de la Plage ***",
    "city": "Sainte Marie la Mer",
    "description": "+33 468806859"
  },
  {
    "latitude": 5.153,
    "longitude": 44.365,
    "name": "Camping Les Clos ****",
    "city": "Nyons",
    "description": ""
  },
  {
    "latitude": -4.02694,
    "longitude": 47.85617,
    "name": "Camping Plage de Cleut-Rouz ***",
    "city": "Fouesnant",
    "description": "+33 298565319"
  },
  {
    "latitude": 6.8562,
    "longitude": 48.0639,
    "name": "Camping Les Sapins ***",
    "city": "Gerardmer",
    "description": ""
  },
  {
    "latitude": 2.4967,
    "longitude": 43.6284,
    "name": "Camping La Lande **",
    "city": "Brassac",
    "description": ""
  },
  {
    "latitude": 3.04129,
    "longitude": 44.6621,
    "name": "Camping Municipal *",
    "city": "Nasbinals",
    "description": ""
  },
  {
    "latitude": 2.22244,
    "longitude": 45.1367,
    "name": "Camping Entassit ***",
    "city": "Pleaux",
    "description": "+33 471404005"
  },
  {
    "latitude": -1.21719,
    "longitude": 45.82249,
    "name": "Camping Arepos ****",
    "city": "Saint Trojan les Bains",
    "description": ""
  },
  {
    "latitude": -3.06587,
    "longitude": 47.60825,
    "name": "Camping Le Moustoir ***",
    "city": "Carnac",
    "description": ""
  },
  {
    "latitude": 4.49001,
    "longitude": 48.35667,
    "name": "Camping Municipal Le Garillon **",
    "city": "Radonvilliers",
    "description": ""
  },
  {
    "latitude": 5.087,
    "longitude": 44.551,
    "name": "Camping La Source du Jabron ***",
    "city": "Dieulefit",
    "description": ""
  },
  {
    "latitude": 4.60473,
    "longitude": 49.87223,
    "name": "Camping Lac des Vieilles Forges ***",
    "city": "Les Mazures",
    "description": ""
  },
  {
    "latitude": 9.2946,
    "longitude": 41.6399,
    "name": "Camping Pitrera",
    "city": "Torre",
    "description": ""
  },
  {
    "latitude": -0.58449,
    "longitude": 46.32744,
    "name": "Camping Municipal La Niquiere **",
    "city": "Coulon",
    "description": "+33 549358119"
  },
  {
    "latitude": 3.11929,
    "longitude": 42.47676,
    "name": "Camping Municipal La Pinede **",
    "city": "Banyuls sur Mer",
    "description": ""
  },
  {
    "latitude": -1.3178,
    "longitude": 49.4089,
    "name": "Camping Municipal ***",
    "city": "Sainte Mere l Eglise",
    "description": ""
  },
  {
    "latitude": 4.20186,
    "longitude": 44.39619,
    "name": "Camping Mazet plage ***",
    "city": "Berrias et Casteljau",
    "description": "+33 475393256"
  },
  {
    "latitude": 6.56835,
    "longitude": 45.83666,
    "name": "Camping Chantalouette **",
    "city": "Praz sur Arly",
    "description": "+33 450219025"
  },
  {
    "latitude": 2.78306,
    "longitude": 42.51,
    "name": "Camping Les Casteillets ***",
    "city": "Saint Jean Pla de Corts",
    "description": ""
  },
  {
    "latitude": 1.04717,
    "longitude": 47.44651,
    "name": "Camping Le Jardin Botanique ***",
    "city": "Limeray",
    "description": "+33 247301350"
  },
  {
    "latitude": -4.02466,
    "longitude": 47.94136,
    "name": "Camping Keromen **",
    "city": "Saint Evarzec",
    "description": "+33 298567047"
  },
  {
    "latitude": 5.262,
    "longitude": 44.412,
    "name": "Camping La Vallee Bleue ***",
    "city": "Sahune",
    "description": ""
  },
  {
    "latitude": 5.13588,
    "longitude": 44.58386,
    "name": "Camping Le Gap des Tortelles ***",
    "city": "Bourdeaux",
    "description": "+33 475533045"
  },
  {
    "latitude": -1.4495,
    "longitude": 49.05,
    "name": "Camping Municipal Les Vignettes **",
    "city": "Coutances",
    "description": ""
  },
  {
    "latitude": -3.0931,
    "longitude": 47.6089,
    "name": "Camping Les Bruyeres ***",
    "city": "Carnac",
    "description": ""
  },
  {
    "latitude": 9.55539,
    "longitude": 42.26444,
    "name": "Camping Amurucciu",
    "city": "San Giuliano",
    "description": ""
  },
  {
    "latitude": -3.01563,
    "longitude": 47.59878,
    "name": "Camping Le Vieux Logis ***",
    "city": "La Trinite sur Mer",
    "description": ""
  },
  {
    "latitude": -2.1302,
    "longitude": 48.6271,
    "name": "Camping Emeraude ***",
    "city": "Saint Briac sur Mer",
    "description": ""
  },
  {
    "latitude": 6.05222,
    "longitude": 45.86111,
    "name": "Camping AU2La Vidome (Gite de France)",
    "city": "Montagny les Lanches",
    "description": "+33 450466131"
  },
  {
    "latitude": 6.13984,
    "longitude": 48.65732,
    "name": "Camping Le Brabois ***",
    "city": "Villers les Nancy",
    "description": "+33 383271828"
  },
  {
    "latitude": -1.12508,
    "longitude": 44.46202,
    "name": "Camping Domaine de la Rive ****",
    "city": "Biscarrosse",
    "description": "+33 558781233"
  },
  {
    "latitude": 3.20965,
    "longitude": 44.1904,
    "name": "Camping Le Brudy plage **",
    "city": "Le Rozier",
    "description": ""
  },
  {
    "latitude": 2.25563,
    "longitude": 43.61708,
    "name": "Camping Gourjade ***",
    "city": "Castres",
    "description": ""
  },
  {
    "latitude": 5.08116,
    "longitude": 47.60069,
    "name": "Camping Municipal *",
    "city": "Marey sur Tille",
    "description": "rue du Stade"
  },
  {
    "latitude": 4.02431,
    "longitude": 45.82931,
    "name": "Camping Municipal **",
    "city": "Saint Germain Laval",
    "description": "+33 477654435"
  },
  {
    "latitude": -1.385,
    "longitude": 46.00333,
    "name": "Camping Les Oliviers ***",
    "city": "Saint Denis d Oleron",
    "description": "+33 546479342"
  },
  {
    "latitude": 6.96276,
    "longitude": 48.03491,
    "name": "Camping Belle Hutte ***",
    "city": "La Bresse",
    "description": "+33 329254975"
  },
  {
    "latitude": -2.77194,
    "longitude": 47.50553,
    "name": "Camping An Trest ***",
    "city": "Sarzeau",
    "description": "+33 297417960"
  },
  {
    "latitude": 4.2519,
    "longitude": 43.69411,
    "name": "Camping Les Tourrades ***",
    "city": "Vauvert",
    "description": ""
  },
  {
    "latitude": 8.69983,
    "longitude": 42.26311,
    "name": "Camping Municipal",
    "city": "Porto",
    "description": ""
  },
  {
    "latitude": 0.0536,
    "longitude": 43.6076,
    "name": "Camping L Arros ***",
    "city": "Plaisance du Gers",
    "description": ""
  },
  {
    "latitude": 5.18699,
    "longitude": 47.53042,
    "name": "Camping Les Sapins *",
    "city": "Til Chatel",
    "description": ""
  },
  {
    "latitude": 0.16028,
    "longitude": 49.63111,
    "name": "Camping Le Grand Hameau ***",
    "city": "Saint Jouin Bruneval",
    "description": ""
  },
  {
    "latitude": 4.54865,
    "longitude": 47.26545,
    "name": "Camping Le Vert Auxois **",
    "city": "Pouilly en Auxois",
    "description": "+33 380907189"
  },
  {
    "latitude": -2.93938,
    "longitude": 47.5561,
    "name": "Camping La Falaise ***",
    "city": "Locqmariaquer",
    "description": ""
  },
  {
    "latitude": 2.31644,
    "longitude": 45.21863,
    "name": "Camping Le Val Saint Jean ****",
    "city": "Mauriac",
    "description": "+33 473938044"
  },
  {
    "latitude": 2.42308,
    "longitude": 45.11571,
    "name": "Camping Municipal Le Moulin du Teinturier ****",
    "city": "Saint Martin Valmeroux",
    "description": "+33 471694312"
  },
  {
    "latitude": 4.20644,
    "longitude": 44.37722,
    "name": "Camping La Source ***",
    "city": "Berrias et Casteljau",
    "description": "+33 475393913"
  },
  {
    "latitude": 2.48351,
    "longitude": 45.41603,
    "name": "Camping Les Aubazines ***",
    "city": "Bort les Orgues",
    "description": ""
  },
  {
    "latitude": -3.54139,
    "longitude": 48.80991,
    "name": "Camping du Port ****",
    "city": "Landrellec",
    "description": ""
  },
  {
    "latitude": -3.14615,
    "longitude": 47.62864,
    "name": "Camping Les Megalithes ***",
    "city": "Erdeven",
    "description": "+33 297556876"
  },
  {
    "latitude": 2.30417,
    "longitude": 48.65512,
    "name": "Camping Le Beau Village ***",
    "city": "Villiers sur Orge",
    "description": ""
  },
  {
    "latitude": 5.12535,
    "longitude": 44.17782,
    "name": "Camping Le Bosquet **",
    "city": "Malaucene",
    "description": "+33 490652909"
  },
  {
    "latitude": -1.35182,
    "longitude": 43.75424,
    "name": "Camping Municipal l Airial ***",
    "city": "Soustons",
    "description": ""
  },
  {
    "latitude": 3.4255,
    "longitude": 46.11638,
    "name": "Camping Les Acacias ****",
    "city": "Bellerive sur Allier",
    "description": "+33 470323622"
  },
  {
    "latitude": 1.82648,
    "longitude": 42.72849,
    "name": "Camping Municipal Le Malazeou ***",
    "city": "Savignac les Ormeaux",
    "description": "+33 561646914"
  },
  {
    "latitude": 8.81694,
    "longitude": 41.71428,
    "name": "Camping Cyrnos",
    "city": "Favalello",
    "description": ""
  },
  {
    "latitude": 3.78878,
    "longitude": 43.50058,
    "name": "Camping Altea ***",
    "city": "Vic la Gardiole",
    "description": "+33 467781409"
  },
  {
    "latitude": -0.77806,
    "longitude": 44.30858,
    "name": "Camping Municipal ***",
    "city": "Pissos",
    "description": "+33 558089038"
  },
  {
    "latitude": 9.55087,
    "longitude": 42.11163,
    "name": "Camping Aleria",
    "city": "Plage de Padulone",
    "description": ""
  },
  {
    "latitude": -3.04355,
    "longitude": 47.58788,
    "name": "Camping Park Plijadur ***",
    "city": "La Trinite sur Mer",
    "description": ""
  },
  {
    "latitude": 9.45927,
    "longitude": 42.83962,
    "name": "Camping La Pietra",
    "city": "Pietracorbara",
    "description": ""
  },
  {
    "latitude": 3.0615,
    "longitude": 45.9057,
    "name": "Camping Municipal de la Croze **",
    "city": "Chatelguyon",
    "description": ""
  },
  {
    "latitude": 9.00951,
    "longitude": 42.62692,
    "name": "Camping Le Clos des Chenes",
    "city": "Lozari",
    "description": ""
  },
  {
    "latitude": 8.81628,
    "longitude": 41.62819,
    "name": "Camping Campomoro",
    "city": "Campomoro",
    "description": ""
  },
  {
    "latitude": 1.0889,
    "longitude": 44.0966,
    "name": "Camping Ile du Bidounet ***",
    "city": "Moissac",
    "description": ""
  },
  {
    "latitude": 1.8393,
    "longitude": 44.48394,
    "name": "Camping Municipal **",
    "city": "Cajarc",
    "description": ""
  },
  {
    "latitude": 1.59785,
    "longitude": 50.82013,
    "name": "Camping Municipal Les Ajoncs **",
    "city": "Audresselles",
    "description": ""
  },
  {
    "latitude": 5.73949,
    "longitude": 45.39118,
    "name": "Camping Municipal Les Berges du Guiers **",
    "city": "Saint Laurent du Pont",
    "description": "+33 476552063"
  },
  {
    "latitude": -1.7873,
    "longitude": 48.3128,
    "name": "Camping Les Peupliers ***",
    "city": "Tinteniac",
    "description": ""
  },
  {
    "latitude": 7.3556,
    "longitude": 48.7308,
    "name": "Camping Municipal ***",
    "city": "Saverne",
    "description": ""
  },
  {
    "latitude": 2.05039,
    "longitude": 44.61023,
    "name": "Camping Rives du Cele ***",
    "city": "Figeac",
    "description": ""
  },
  {
    "latitude": -2.13078,
    "longitude": 46.84161,
    "name": "Camping Les Pins ****",
    "city": "Notre Dame de Monts",
    "description": ""
  },
  {
    "latitude": 0.56417,
    "longitude": 47.8125,
    "name": "Camping Municipal l Etang Sort **",
    "city": "Courdemanche",
    "description": "+33 243448035"
  },
  {
    "latitude": 0.91678,
    "longitude": 44.91191,
    "name": "Camping Le Rocher de la Granelle ***",
    "city": "Le Bugue",
    "description": "+33 553072432"
  },
  {
    "latitude": -1.8327,
    "longitude": 48.3811,
    "name": "Camping Domaine du Logis ****",
    "city": "La Chapelle aux Filtzmeens",
    "description": "+33 299452545"
  },
  {
    "latitude": 0.59649,
    "longitude": 49.84962,
    "name": "Camping Municipal ***",
    "city": "Veulettes sur Mer",
    "description": "+33 235975344"
  },
  {
    "latitude": -1.3378,
    "longitude": 45.92019,
    "name": "Camping Les Tamaris **",
    "city": "Saint Pierre d Oleron",
    "description": ""
  },
  {
    "latitude": -4.35901,
    "longitude": 48.10315,
    "name": "Camping Municipal du Bois d Isis **",
    "city": "Douarnemez",
    "description": ""
  },
  {
    "latitude": 0.32346,
    "longitude": 43.10558,
    "name": "Camping Les Craoues ***",
    "city": "Capvern",
    "description": ""
  },
  {
    "latitude": -3.12016,
    "longitude": 47.49998,
    "name": "Camping Beausejour **",
    "city": "Quiberon",
    "description": "+33 297304493"
  },
  {
    "latitude": 5.079,
    "longitude": 44.408,
    "name": "Camping Les Terrasses Provencales ***",
    "city": "Venterol",
    "description": ""
  },
  {
    "latitude": -0.42,
    "longitude": 48.54778,
    "name": "Camping La Vee ***",
    "city": "Bagnols de l Orne",
    "description": ""
  },
  {
    "latitude": -2.4835,
    "longitude": 48.6161,
    "name": "Camping Les Roches ***",
    "city": "Erquy",
    "description": ""
  },
  {
    "latitude": 3.04422,
    "longitude": 42.56667,
    "name": "Camping Municipal Le Rousillonnais ***",
    "city": "Argeles sur Mer",
    "description": "+33 468811042"
  },
  {
    "latitude": 5.00556,
    "longitude": 46.5625,
    "name": "Camping Les Bords de Seille **",
    "city": "Cuisery",
    "description": ""
  },
  {
    "latitude": -3.38515,
    "longitude": 47.70356,
    "name": "Camping Municipal Les Algues ***",
    "city": "Larmor Plage",
    "description": "+33 297655547"
  },
  {
    "latitude": -4.34848,
    "longitude": 48.09645,
    "name": "Camping Croas-Men **",
    "city": "Douarnemez",
    "description": ""
  },
  {
    "latitude": 7.44813,
    "longitude": 48.25473,
    "name": "Camping Municipal Les Cigognes **",
    "city": "Selestat",
    "description": "+33 388920398"
  },
  {
    "latitude": 8.83332,
    "longitude": 41.70488,
    "name": "Camping Ras lubol",
    "city": "Abbartello",
    "description": ""
  },
  {
    "latitude": -1.05167,
    "longitude": 49.38806,
    "name": "Camping Le Joncal **",
    "city": "Grandcamp Maisy",
    "description": ""
  },
  {
    "latitude": 3.31976,
    "longitude": 43.26308,
    "name": "Camping Serignan plage ***",
    "city": "Serignan",
    "description": "+33 467323533"
  },
  {
    "latitude": -1.42972,
    "longitude": 43.65167,
    "name": "Camping Municipal Bel Air ***",
    "city": "Capbreton",
    "description": "+33 558721204"
  },
  {
    "latitude": 2.61485,
    "longitude": 47.64161,
    "name": "Camping Bois du Bardelet ****",
    "city": "Poilly lez Gien",
    "description": ""
  },
  {
    "latitude": 8.72682,
    "longitude": 41.93737,
    "name": "Camping Les Mimosas **",
    "city": "Ajaccio",
    "description": "+33 495209985"
  },
  {
    "latitude": 6.56722,
    "longitude": 45.45111,
    "name": "Camping La Piat **",
    "city": "Brides les Bains",
    "description": ""
  },
  {
    "latitude": -0.00336,
    "longitude": 42.8736,
    "name": "Camping Toy **",
    "city": "Luz Saint Sauveur",
    "description": ""
  },
  {
    "latitude": -0.0026,
    "longitude": 46.66728,
    "name": "Camping Le Bois de Saint Hilaire *",
    "city": "Chalandray",
    "description": "+33 549602084"
  },
  {
    "latitude": -2.761,
    "longitude": 47.507,
    "name": "Camping La Ferme de Lann Hoedic ***",
    "city": "Sarzeau",
    "description": ""
  },
  {
    "latitude": 6.5226,
    "longitude": 44.6027,
    "name": "Camping Les Cariamas **",
    "city": "Chateauroux les Alpes",
    "description": ""
  },
  {
    "latitude": -1.97833,
    "longitude": 46.72389,
    "name": "Camping Plage de Riez ***",
    "city": "Saint Hilaire de Riez",
    "description": ""
  },
  {
    "latitude": 3.02517,
    "longitude": 42.77763,
    "name": "Camping L Oasis ***",
    "city": "Le Barcares",
    "description": "+33 468861243"
  },
  {
    "latitude": 7.59776,
    "longitude": 48.14954,
    "name": "Camping L Ile du Rhin **",
    "city": "Marckolsheim",
    "description": ""
  },
  {
    "latitude": 3.977,
    "longitude": 44.06432,
    "name": "Camping Castel Rose ***",
    "city": "Anduze",
    "description": ""
  },
  {
    "latitude": -0.01386,
    "longitude": 42.8828,
    "name": "Camping International ***",
    "city": "Esquiere Sere",
    "description": ""
  },
  {
    "latitude": 5.354,
    "longitude": 44.758,
    "name": "Camping La Pinede ***",
    "city": "Dieulefit",
    "description": ""
  },
  {
    "latitude": -2.02778,
    "longitude": 48.63556,
    "name": "Camping Municipal Cite d Aleth **",
    "city": "Saint Malo",
    "description": ""
  },
  {
    "latitude": -1.31415,
    "longitude": 43.88414,
    "name": "Camping Punta Lago *****",
    "city": "Leon",
    "description": "+33 558492440"
  },
  {
    "latitude": 2.49148,
    "longitude": 46.71803,
    "name": "Camping La Roche ***",
    "city": "Saint Amand Montrond",
    "description": "+33 248960936"
  },
  {
    "latitude": -0.06489,
    "longitude": 47.25998,
    "name": "Camping L ile d Offard ****",
    "city": "Saumur",
    "description": ""
  },
  {
    "latitude": 4.1675,
    "longitude": 44.40944,
    "name": "Camping Domaine des Chenes ***",
    "city": "Chassagnes",
    "description": "+33 475373435"
  },
  {
    "latitude": 9.54156,
    "longitude": 42.3172,
    "name": "Camping Loro",
    "city": "Prunete",
    "description": ""
  },
  {
    "latitude": 3.09195,
    "longitude": 44.10235,
    "name": "Camping Cote Sud ***",
    "city": "Millau",
    "description": ""
  },
  {
    "latitude": 3.72282,
    "longitude": 48.72803,
    "name": "Camping Municipal **",
    "city": "Sezanne",
    "description": ""
  },
  {
    "latitude": 5.8137,
    "longitude": 46.6638,
    "name": "Camping Chalain ****",
    "city": "Doucier",
    "description": ""
  },
  {
    "latitude": 2.15972,
    "longitude": 48.79417,
    "name": "Camping Huttopia",
    "city": "Versailles",
    "description": ""
  },
  {
    "latitude": 3.38957,
    "longitude": 43.64753,
    "name": "Camping Le Salagou **",
    "city": "Clermont l Herault",
    "description": ""
  },
  {
    "latitude": 1.2601,
    "longitude": 47.4933,
    "name": "Camping La Grande Tortue ****",
    "city": "Cande sur Beuvron",
    "description": ""
  },
  {
    "latitude": 4.69464,
    "longitude": 46.64627,
    "name": "Camping Le Moulin de Collonge ****",
    "city": "Saint Boil",
    "description": "+33 385440032"
  },
  {
    "latitude": 3.2532,
    "longitude": 43.2311,
    "name": "Camping Les Vagues ****",
    "city": "Vendres",
    "description": "+33 467373312"
  },
  {
    "latitude": 2.69523,
    "longitude": 45.3454,
    "name": "Camping Municipal ***",
    "city": "Saint Amandin",
    "description": "+33 471781828"
  },
  {
    "latitude": -3.9875,
    "longitude": 47.86028,
    "name": "Camping Kervastard ***",
    "city": "Fouesnant",
    "description": "+33 298949152"
  },
  {
    "latitude": -1.41533,
    "longitude": 48.62824,
    "name": "Camping Le Saint Michel ****",
    "city": "Courtils",
    "description": "+33 233709690"
  },
  {
    "latitude": 3.05247,
    "longitude": 49.40675,
    "name": "Camping Municipal ***",
    "city": "Attichy",
    "description": ""
  },
  {
    "latitude": 3.32015,
    "longitude": 44.3013,
    "name": "Camping Municipal **",
    "city": "La Malene",
    "description": ""
  },
  {
    "latitude": -2.35691,
    "longitude": 48.65191,
    "name": "Camping Municipal Le Pont de l Etang **",
    "city": "Frehel",
    "description": "+33 296414045"
  },
  {
    "latitude": 4.22002,
    "longitude": 44.40562,
    "name": "Camping Les Actinidias **",
    "city": "Berrias et Casteljau",
    "description": "+33 475390279"
  },
  {
    "latitude": -2.11057,
    "longitude": 46.80918,
    "name": "Camping Aux Coeurs Vendeens ****",
    "city": "Saint Jean de Monts",
    "description": ""
  },
  {
    "latitude": -1.1133,
    "longitude": 45.68727,
    "name": "Camping La Ferme ***",
    "city": "Saint Augustin",
    "description": "+33 546391446"
  },
  {
    "latitude": 4.09694,
    "longitude": 44.07889,
    "name": "Camping CFMas Cauvy (Maurin Daumet)",
    "city": "Saint Christol les Ales",
    "description": "+33 466607824"
  },
  {
    "latitude": 2.43888,
    "longitude": 43.28552,
    "name": "Camping Le Moulin de Sainte Anne ***",
    "city": "Villegly",
    "description": ""
  },
  {
    "latitude": 6.49929,
    "longitude": 44.53204,
    "name": "Camping Les Airelles ***",
    "city": "Baratier",
    "description": "+33 492431157"
  },
  {
    "latitude": -3.10435,
    "longitude": 47.4762,
    "name": "Camping Le Bois d Amour ***",
    "city": "Quiberon",
    "description": "+33 297501352"
  },
  {
    "latitude": -3.99639,
    "longitude": 47.89167,
    "name": "Camping Les Mimosas - Cap Coz **",
    "city": "Fouesnant",
    "description": "+33 298565581"
  },
  {
    "latitude": 1.6748,
    "longitude": 44.449,
    "name": "Camping La Truffiere ***",
    "city": "Saint Cirq Lapopie",
    "description": ""
  },
  {
    "latitude": -1.26362,
    "longitude": 49.67112,
    "name": "Camping La Blanche Nef **",
    "city": "Barfleur",
    "description": ""
  },
  {
    "latitude": 4.97854,
    "longitude": 44.07885,
    "name": "Camping de la Sainte Croix",
    "city": "Sarrians",
    "description": "+33 490654372"
  },
  {
    "latitude": -2.23332,
    "longitude": 47.01601,
    "name": "Camping La Clere *",
    "city": "Noirmoutier en l Ile",
    "description": "+33 251392144"
  },
  {
    "latitude": 4.91306,
    "longitude": 43.99056,
    "name": "Camping Flory ***",
    "city": "Vedene",
    "description": "route d Entraigues"
  },
  {
    "latitude": 5.75924,
    "longitude": 48.92803,
    "name": "Camping de Nonsard **",
    "city": "Nonsard",
    "description": "+33 329895676"
  },
  {
    "latitude": 3.81333,
    "longitude": 45.13417,
    "name": "Camping Municipal La Rochambert ***",
    "city": "Saint Paulien",
    "description": ""
  },
  {
    "latitude": 4.46173,
    "longitude": 44.56253,
    "name": "Camping Les Rives d Auzon **",
    "city": "Lavilledieu",
    "description": "+33 475947064"
  },
  {
    "latitude": -2.98973,
    "longitude": 47.61534,
    "name": "Camping Le Fort Espagnol ***",
    "city": "Crach",
    "description": "+33 297551488"
  },
  {
    "latitude": 7.76535,
    "longitude": 48.80265,
    "name": "Camping Municipal *",
    "city": "Haguenau",
    "description": ""
  },
  {
    "latitude": 3.58667,
    "longitude": 47.78694,
    "name": "Camping Municipal ***",
    "city": "Auxerre",
    "description": ""
  },
  {
    "latitude": -0.86436,
    "longitude": 49.32572,
    "name": "Camping La Roseraie ****",
    "city": "Surrain",
    "description": "+33 231211771"
  },
  {
    "latitude": 7.32361,
    "longitude": 48.40611,
    "name": "Camping Municipal **",
    "city": "Le Hohwald",
    "description": "+33 388083090"
  },
  {
    "latitude": 4.94455,
    "longitude": 46.65467,
    "name": "Camping Chateau de l Eperviere ****",
    "city": "Gigny sur Saone",
    "description": "+33 385941690"
  },
  {
    "latitude": 6.155,
    "longitude": 43.02972,
    "name": "Camping La Tour Fondue ***",
    "city": "Giens",
    "description": "+33 494582286"
  },
  {
    "latitude": -2.96463,
    "longitude": 47.66642,
    "name": "Camping Les Pommiers",
    "city": "Auray",
    "description": ""
  },
  {
    "latitude": 3.8283,
    "longitude": 46.90667,
    "name": "Camping Les Bains ****",
    "city": "Saint Honore les Bains",
    "description": ""
  },
  {
    "latitude": 6.22651,
    "longitude": 43.81984,
    "name": "Camping Le Petit Lac **",
    "city": "Moustiers Sainte Marie",
    "description": ""
  },
  {
    "latitude": 4.8178,
    "longitude": 43.9939,
    "name": "Camping l Ile des Papes",
    "city": "Villeneuve les Avignon",
    "description": "980 boulevard Frederic Mistral"
  },
  {
    "latitude": 2.04528,
    "longitude": 50.99584,
    "name": "Camping Clairette **",
    "city": "Oye plage",
    "description": ""
  },
  {
    "latitude": 2.40451,
    "longitude": 49.21458,
    "name": "Camping L Abbatiale ***",
    "city": "Saint Leu d Esserent",
    "description": "+33 344563876"
  },
  {
    "latitude": -4.04028,
    "longitude": 47.84972,
    "name": "Camping La Pointe **",
    "city": "Fouesnant",
    "description": "+33 298560898"
  },
  {
    "latitude": -1.21232,
    "longitude": 44.58116,
    "name": "Camping La Dune ***",
    "city": "Pyla sur Mer",
    "description": ""
  },
  {
    "latitude": 4.3825,
    "longitude": 44.39694,
    "name": "Camping Chauvieux ***",
    "city": "Salavas",
    "description": "+33 475880537"
  },
  {
    "latitude": -1.174,
    "longitude": 44.651,
    "name": "Camping Club d Arcachon ***",
    "city": "Arcachon",
    "description": ""
  },
  {
    "latitude": 5.87896,
    "longitude": 43.74811,
    "name": "Camping Regain **",
    "city": "Greoux les Bains",
    "description": "+33 492780923"
  },
  {
    "latitude": 2.09709,
    "longitude": 42.51967,
    "name": "Camping Municipal *",
    "city": "La Llagonne",
    "description": ""
  },
  {
    "latitude": -1.15745,
    "longitude": 46.19165,
    "name": "Camping Municipal Le Parc ***",
    "city": "Lagord",
    "description": "+33 546766154"
  },
  {
    "latitude": 4.22061,
    "longitude": 44.49617,
    "name": "Camping Bois Simonet ***",
    "city": "Joyeuse",
    "description": "+33 475395860"
  },
  {
    "latitude": 6.73232,
    "longitude": 48.11904,
    "name": "Camping Le Barba **",
    "city": "Rehaupal",
    "description": ""
  },
  {
    "latitude": 5.128,
    "longitude": 44.578,
    "name": "Camping Les Bois du Chatelas ****",
    "city": "Bourdeaux",
    "description": ""
  },
  {
    "latitude": 1.28723,
    "longitude": 44.90445,
    "name": "Camping Maillac ***",
    "city": "Sainte Nathalene",
    "description": ""
  },
  {
    "latitude": 3.08709,
    "longitude": 44.11538,
    "name": "Camping Le Millau Plage ****",
    "city": "Millau",
    "description": ""
  },
  {
    "latitude": 6.18638,
    "longitude": 43.72192,
    "name": "Camping Les Vallons de Bauduen ***",
    "city": "Bauduen",
    "description": "+33 494700913"
  },
  {
    "latitude": -2.44281,
    "longitude": 48.63823,
    "name": "Camping Le Vieux Moulin ****",
    "city": "Erquy",
    "description": ""
  },
  {
    "latitude": 7.275,
    "longitude": 48.08528,
    "name": "Camping Municipal Les Cigognes ****",
    "city": "Thurckheim",
    "description": ""
  },
  {
    "latitude": 8.78447,
    "longitude": 41.82921,
    "name": "Camping Le Sud",
    "city": "Le Ruppione",
    "description": ""
  },
  {
    "latitude": -0.358,
    "longitude": 47.27345,
    "name": "Camping Lac de Maine ****",
    "city": "Angers",
    "description": ""
  },
  {
    "latitude": 4.73827,
    "longitude": 48.37683,
    "name": "Camping Mal la Croix Badeau **",
    "city": "Soulaines Dhuys",
    "description": ""
  },
  {
    "latitude": 6.36639,
    "longitude": 44.46222,
    "name": "Camping Municipal Le Fein *",
    "city": "Saint Vincent les Forts",
    "description": "+33 492855157"
  },
  {
    "latitude": 5.50492,
    "longitude": 43.69532,
    "name": "Camping Municipal Les Pinedes ***",
    "city": "Pertuis",
    "description": ""
  },
  {
    "latitude": 6.58287,
    "longitude": 43.2802,
    "name": "Camping BJ Riviera Holidays",
    "city": "Port Grimaud",
    "description": "+33 494560356"
  },
  {
    "latitude": 4.08798,
    "longitude": 49.94342,
    "name": "Camping la Cascade de Blangy **",
    "city": "Hirson",
    "description": ""
  },
  {
    "latitude": -0.0182,
    "longitude": 43.09551,
    "name": "Camping Le Ruisseau Blanc *",
    "city": "Lourdes",
    "description": ""
  },
  {
    "latitude": 9.26502,
    "longitude": 41.46752,
    "name": "Camping La Rondinara",
    "city": "Suartone",
    "description": ""
  },
  {
    "latitude": -3.99222,
    "longitude": 47.86944,
    "name": "Camping La Roche Percee ****",
    "city": "Fouesnant",
    "description": "30 Hent Kerveltrec"
  },
  {
    "latitude": 5.239,
    "longitude": 46.924,
    "name": "Camping Les Pecheurs **",
    "city": "Lays sur le Doubs",
    "description": ""
  },
  {
    "latitude": 3.72827,
    "longitude": 45.53963,
    "name": "Camping les Trois Chenes sous le Montel",
    "city": "Ambert",
    "description": ""
  },
  {
    "latitude": -4.28985,
    "longitude": 48.16923,
    "name": "Camping L Iroise ****",
    "city": "Plomodiern",
    "description": ""
  },
  {
    "latitude": 3.1387,
    "longitude": 43.13242,
    "name": "Camping Les Ayguades ***",
    "city": "Gruissan",
    "description": "+33 468498159"
  },
  {
    "latitude": 1.545,
    "longitude": 44.16417,
    "name": "Camping Municipal La Piboulette **",
    "city": "Caussade",
    "description": ""
  },
  {
    "latitude": 4.33187,
    "longitude": 44.42457,
    "name": "Camping La Grand Terre ***",
    "city": "Ruoms",
    "description": "+33 475396494"
  },
  {
    "latitude": -4.605,
    "longitude": 48.27731,
    "name": "Camping Municipal du Lannic **",
    "city": "Camaret",
    "description": "+33 298279131"
  },
  {
    "latitude": 3.03451,
    "longitude": 42.56371,
    "name": "Camping Les Marsouins ***",
    "city": "Argeles sur Mer",
    "description": "+33 468811481"
  },
  {
    "latitude": -2.1651,
    "longitude": 47.1551,
    "name": "Camping Le Ranch ***",
    "city": "La Plaine sur Mer",
    "description": ""
  },
  {
    "latitude": -1.97194,
    "longitude": 46.71639,
    "name": "Camping Municipal de Sion ***",
    "city": "Saint Hilaire de Riez",
    "description": ""
  },
  {
    "latitude": 3.81555,
    "longitude": 47.05844,
    "name": "Camping Le Manoir de Bezolle ****",
    "city": "Saint Pereuse",
    "description": "+33 386844255"
  },
  {
    "latitude": 9.35562,
    "longitude": 41.68636,
    "name": "Camping Santa Lucia",
    "city": "Poggioli",
    "description": ""
  },
  {
    "latitude": -1.16054,
    "longitude": 44.42723,
    "name": "Camping camp Bimbo ****",
    "city": "Biscarosse",
    "description": "+33 558098233"
  },
  {
    "latitude": 7.11667,
    "longitude": 43.61083,
    "name": "Camping Antipolis ****",
    "city": "Antibes",
    "description": "+33 493339399"
  },
  {
    "latitude": 9.17928,
    "longitude": 41.41875,
    "name": "Camping Pertamina",
    "city": "Bonifacio",
    "description": ""
  },
  {
    "latitude": 2.05944,
    "longitude": 44.17833,
    "name": "Camping La Prade ***",
    "city": "Montirat",
    "description": ""
  },
  {
    "latitude": 9.34284,
    "longitude": 42.72922,
    "name": "Camping A Stella",
    "city": "Braccolaccia",
    "description": ""
  },
  {
    "latitude": -4.07871,
    "longitude": 48.39938,
    "name": "Camping Municipal **",
    "city": "Sizun",
    "description": ""
  },
  {
    "latitude": -2.12372,
    "longitude": 46.85303,
    "name": "Camping Le Lagon Bleu ****",
    "city": "Notre Dame de Monts",
    "description": ""
  },
  {
    "latitude": -4.18497,
    "longitude": 48.29532,
    "name": "Camping Municipal",
    "city": "Le Faou",
    "description": ""
  },
  {
    "latitude": 3.03748,
    "longitude": 42.59945,
    "name": "Camping Cala-Gogo ****",
    "city": "Saint Cyprien",
    "description": "+33 468210712"
  },
  {
    "latitude": 9.32236,
    "longitude": 41.83478,
    "name": "Camping La Bonne Frite",
    "city": "Rocchio Pinzuto",
    "description": ""
  },
  {
    "latitude": 3.41639,
    "longitude": 43.29167,
    "name": "Camping Le Napoleon ****",
    "city": "Vias",
    "description": "+33 467010780"
  },
  {
    "latitude": 4.95528,
    "longitude": 49.42612,
    "name": "Camping La Samaritaine ***",
    "city": "Buzancy",
    "description": ""
  },
  {
    "latitude": 4.71511,
    "longitude": 47.52195,
    "name": "Camping Municipal *",
    "city": "Chanceaux",
    "description": "D 971"
  },
  {
    "latitude": 7.38543,
    "longitude": 48.23958,
    "name": "Camping AN Mme Waliszek Cecile",
    "city": "Orschwiller",
    "description": ""
  },
  {
    "latitude": 5.395,
    "longitude": 44.481,
    "name": "Camping ANLa Ferme de Clareau",
    "city": "La Motte Chalencon",
    "description": ""
  },
  {
    "latitude": -1.3925,
    "longitude": 46.015,
    "name": "Camping Les Huttes **",
    "city": "Saint Denis d Oleron",
    "description": "+33 546752169"
  },
  {
    "latitude": 8.76785,
    "longitude": 42.55491,
    "name": "Camping La Pinede",
    "city": "Calvi",
    "description": ""
  },
  {
    "latitude": 1.41615,
    "longitude": 43.65606,
    "name": "Camping Le Rupe **",
    "city": "Toulouse",
    "description": "+33 561700735"
  },
  {
    "latitude": 3.09434,
    "longitude": 46.14728,
    "name": "Camping Chateau de la Mothe",
    "city": "Vicq",
    "description": ""
  },
  {
    "latitude": 1.53222,
    "longitude": 43.48667,
    "name": "Camping Les Violettes **",
    "city": "Deyme",
    "description": "+33 561817207"
  },
  {
    "latitude": 4.08999,
    "longitude": 48.19007,
    "name": "Camping Municipal Rodaven **",
    "city": "Chateaulin",
    "description": "+33 298863293"
  },
  {
    "latitude": -1.61373,
    "longitude": 43.35953,
    "name": "Camping La Nivelle **",
    "city": "Saint Pee sur Nivelle",
    "description": ""
  },
  {
    "latitude": 2.048,
    "longitude": 50.987,
    "name": "Camping Bouscarel **",
    "city": "Oye plage",
    "description": ""
  },
  {
    "latitude": 6.12556,
    "longitude": 43.04,
    "name": "Camping Le Clair de Lune ***",
    "city": "Giens",
    "description": "+33 494582019"
  },
  {
    "latitude": 5.217,
    "longitude": 44.426,
    "name": "Camping Le Trente Pas ***",
    "city": "Saint Ferreol Trente Pas",
    "description": ""
  },
  {
    "latitude": -3.89998,
    "longitude": 47.85626,
    "name": "Camping plage **",
    "city": "Concarneau",
    "description": ""
  },
  {
    "latitude": 1.63555,
    "longitude": 50.81793,
    "name": "Camping Le Beaucamp ***",
    "city": "Ambleteuse",
    "description": "+33 321326210"
  },
  {
    "latitude": 4.21773,
    "longitude": 44.40193,
    "name": "Camping Les Tournaires ***",
    "city": "Berrias et Casteljau",
    "description": "+33 475393639"
  },
  {
    "latitude": 7.1714,
    "longitude": 47.803,
    "name": "Camping Municipal ***",
    "city": "Cernay",
    "description": ""
  },
  {
    "latitude": 3.03123,
    "longitude": 42.71466,
    "name": "Camping Le Sainte Marie ***",
    "city": "Sainte Marie la Mer",
    "description": "+33 468804810"
  },
  {
    "latitude": 6.65782,
    "longitude": 43.97162,
    "name": "Camping La Ribiere **",
    "city": "Annot",
    "description": "+33 492832144"
  },
  {
    "latitude": -2.46733,
    "longitude": 47.47161,
    "name": "Camping Domaine d Inly ****",
    "city": "Penestin",
    "description": "+33 299903509"
  },
  {
    "latitude": -1.09587,
    "longitude": 45.94821,
    "name": "Camping Municipal La Garenne ***",
    "city": "Port des Barques",
    "description": ""
  },
  {
    "latitude": 3.36409,
    "longitude": 43.28014,
    "name": "Camping Mediterranee ***",
    "city": "Vias",
    "description": "+33 467909907"
  },
  {
    "latitude": 1.6181,
    "longitude": 50.4725,
    "name": "Camping Les Ormes **",
    "city": "Merlimont",
    "description": ""
  },
  {
    "latitude": 7.69831,
    "longitude": 48.3219,
    "name": "Camping Tuilerie",
    "city": "Rhinau",
    "description": "rue des Tuileries"
  },
  {
    "latitude": -3.07022,
    "longitude": 47.60229,
    "name": "Camping Le Rosnual ****",
    "city": "Carnac",
    "description": "+33 297521457"
  },
  {
    "latitude": 4.01889,
    "longitude": 46.25751,
    "name": "Camping ANLe Bassin",
    "city": "Artaix",
    "description": ""
  },
  {
    "latitude": 3.00139,
    "longitude": 44.895,
    "name": "Camping Belvedere du Mont de Lanau ****",
    "city": "Neuveglise Lanau",
    "description": "+33 471235050"
  },
  {
    "latitude": -0.68461,
    "longitude": 47.37192,
    "name": "Camping Municipal du Port **",
    "city": "La Possonniere",
    "description": "+33 241722208"
  },
  {
    "latitude": 9.50515,
    "longitude": 42.58764,
    "name": "Camping Saint Damianu",
    "city": "Pineto",
    "description": ""
  },
  {
    "latitude": 4.29389,
    "longitude": 46.96472,
    "name": "Camping Municipal de la Porte d Arroux ***",
    "city": "Autun",
    "description": ""
  },
  {
    "latitude": 6.24321,
    "longitude": 43.79671,
    "name": "Camping Municipal le Galetas **",
    "city": "Aiguines",
    "description": ""
  },
  {
    "latitude": 0.63412,
    "longitude": 49.82547,
    "name": "Camping Municipal Les Grands Pres ***",
    "city": "Vitteleur",
    "description": "+33 235975382"
  },
  {
    "latitude": -3.79808,
    "longitude": 47.79654,
    "name": "Camping Le Vieux Verger - Ty Noul **",
    "city": "Nevez",
    "description": "+33 298068608"
  },
  {
    "latitude": 0.63385,
    "longitude": 47.35531,
    "name": "Camping La Mignardiere ****",
    "city": "Ballan Mire",
    "description": ""
  },
  {
    "latitude": 2.81889,
    "longitude": 44.51361,
    "name": "Camping Belle Rive **",
    "city": "Saint Come d Olt",
    "description": ""
  },
  {
    "latitude": 2.3653,
    "longitude": 42.25956,
    "name": "Camping Das Pinhiers ***",
    "city": "Villemoustaussou",
    "description": "+33 468478190"
  },
  {
    "latitude": -3.96131,
    "longitude": 47.89919,
    "name": "Camping Les Saules ***",
    "city": "La Foret Fouesnant",
    "description": ""
  },
  {
    "latitude": -2.57328,
    "longitude": 47.9523,
    "name": "Camping Le Bas de la Lande ***",
    "city": "Guegon",
    "description": "+33 297222220"
  },
  {
    "latitude": -2.15332,
    "longitude": 47.17624,
    "name": "Camping Le Bel Essor **",
    "city": "Saint Michel Chef Chef",
    "description": ""
  },
  {
    "latitude": 6.86861,
    "longitude": 48.0475,
    "name": "Camping Les Myrtilles *",
    "city": "Gerardmer",
    "description": "+33 329630533"
  },
  {
    "latitude": 8.70532,
    "longitude": 42.12961,
    "name": "Camping Sagone",
    "city": "Sagone",
    "description": ""
  },
  {
    "latitude": 7.3356,
    "longitude": 48.1957,
    "name": "Camping Municipal ****",
    "city": "Ribeauville",
    "description": ""
  },
  {
    "latitude": 4.88324,
    "longitude": 47.02706,
    "name": "Camping Les Bouleaux ***",
    "city": "Vignoles",
    "description": "9-11 rue Jaune"
  },
  {
    "latitude": 4.32028,
    "longitude": 46.29139,
    "name": "Camping Les Bruyeres ***",
    "city": "La Clayette",
    "description": ""
  },
  {
    "latitude": 3.12174,
    "longitude": 45.2673,
    "name": "Camping Municipal *",
    "city": "Auriac l Eglise",
    "description": "+33 471739128"
  },
  {
    "latitude": 1.4993,
    "longitude": 48.4342,
    "name": "Camping",
    "city": "Chartres",
    "description": "rue de Launay"
  },
  {
    "latitude": -2.22273,
    "longitude": 47.00704,
    "name": "Camping La Vendette **",
    "city": "Noirmoutier en l Ile",
    "description": "+33 251390624"
  },
  {
    "latitude": -3.13503,
    "longitude": 47.53996,
    "name": "Camping Municipal de Kerhostin **",
    "city": "Saint Pierre de Quiberon",
    "description": "+33 297309525"
  },
  {
    "latitude": 4.36365,
    "longitude": 44.66877,
    "name": "Camping Municipal Au Fil de la Volane **",
    "city": "Vals les Bains",
    "description": "+33 475374685"
  },
  {
    "latitude": 5.71194,
    "longitude": 43.68666,
    "name": "Camping La Vallee de l Oise",
    "city": "Saint Paul",
    "description": "38 rue du Camping"
  },
  {
    "latitude": 2.75316,
    "longitude": 45.91346,
    "name": "Camping Plage de Confolant ***",
    "city": "Miremont",
    "description": "+33 473799806"
  },
  {
    "latitude": -0.71165,
    "longitude": 47.63068,
    "name": "Camping Municipal Les Frenes **",
    "city": "Le Lion d Angers",
    "description": "+33 241953156"
  },
  {
    "latitude": -1.07305,
    "longitude": 44.75757,
    "name": "Camping Pleine Foret ***",
    "city": "Andernos",
    "description": ""
  },
  {
    "latitude": 2.55139,
    "longitude": 47.37056,
    "name": "Camping Le Veridet **",
    "city": "Piriac sur Mer",
    "description": "+33 240235850"
  },
  {
    "latitude": 9.35095,
    "longitude": 42.95534,
    "name": "Camping Mute",
    "city": "Centuri",
    "description": ""
  },
  {
    "latitude": 0.17727,
    "longitude": 44.67796,
    "name": "Camping Municipal a Cote du Chateau",
    "city": "Duras",
    "description": ""
  },
  {
    "latitude": 4.76096,
    "longitude": 46.43809,
    "name": "Camping d Aze ***",
    "city": "Aze",
    "description": ""
  },
  {
    "latitude": 2.1376,
    "longitude": 48.543,
    "name": "Camping Le Parc des Roches ***",
    "city": "Saint Cheron",
    "description": ""
  },
  {
    "latitude": 2.30962,
    "longitude": 44.85415,
    "name": "Camping Municipal ***",
    "city": "Saint Mamet La Salvetat",
    "description": "+33 471647521"
  },
  {
    "latitude": -3.90417,
    "longitude": 47.8675,
    "name": "Camping Le Moulin d Aurore **",
    "city": "Concarneau",
    "description": ""
  },
  {
    "latitude": 9.37555,
    "longitude": 41.68256,
    "name": "Camping California",
    "city": "Pinarellu",
    "description": ""
  },
  {
    "latitude": 8.68546,
    "longitude": 41.90962,
    "name": "Camping Chateau de Barbicaggia **",
    "city": "Ajaccio",
    "description": "+33 495520117"
  },
  {
    "latitude": 0.79514,
    "longitude": 45.55216,
    "name": "Camping Chateau Le Verdoyer ****",
    "city": "Champs Romain",
    "description": "+33 553569464"
  },
  {
    "latitude": 6.74139,
    "longitude": 45.22834,
    "name": "Camping Municipal La Buidonniere ***",
    "city": "Aussois",
    "description": ""
  },
  {
    "latitude": 4.368,
    "longitude": 44.94252,
    "name": "Camping Municipal **",
    "city": "Saint Martin de Valamas",
    "description": "+33 475304716"
  },
  {
    "latitude": 3.7414,
    "longitude": 48.21584,
    "name": "Camping Municipal de la Mosle **",
    "city": "Aix en Othe",
    "description": ""
  },
  {
    "latitude": -3.9641,
    "longitude": 47.8987,
    "name": "Camping Kersioual **",
    "city": "La Foret Fouesnant",
    "description": ""
  },
  {
    "latitude": -1.70192,
    "longitude": 43.3424,
    "name": "Camping Aire-Ona **",
    "city": "Urrugne",
    "description": ""
  },
  {
    "latitude": -4.16198,
    "longitude": 47.85317,
    "name": "Camping Le Bois d Amour **",
    "city": "Ile Tudy",
    "description": "+33 298564354"
  },
  {
    "latitude": -0.25472,
    "longitude": 49.26889,
    "name": "Camping Municipal Les Pommiers ***",
    "city": "Ouistreham",
    "description": ""
  },
  {
    "latitude": 5.53849,
    "longitude": 45.17038,
    "name": "Camping Le Vercors ***",
    "city": "Autrans",
    "description": "+33 476953188"
  },
  {
    "latitude": 2.41044,
    "longitude": 48.30133,
    "name": "Camping Municipal La Vallee Doudemont ***",
    "city": "Malesherbes",
    "description": "+33 238348563"
  },
  {
    "latitude": 6.77472,
    "longitude": 45.61167,
    "name": "Camping Le Versoyen ***",
    "city": "Bourg Saint Maurice",
    "description": ""
  },
  {
    "latitude": 2.66917,
    "longitude": 48.5255,
    "name": "Camping La Belle Etoile ***",
    "city": "Melun - La Rochette",
    "description": "+33 164394812"
  },
  {
    "latitude": 3.43862,
    "longitude": 48.41445,
    "name": "Camping Municipal Saint Barthelemy **",
    "city": "Trainel",
    "description": ""
  },
  {
    "latitude": 7.50185,
    "longitude": 48.55007,
    "name": "Camping Municipal **",
    "city": "Molsheim",
    "description": "+33 388498245"
  },
  {
    "latitude": 3.7318,
    "longitude": 47.6596,
    "name": "Camping Les Coullemieres ***",
    "city": "Vermenton",
    "description": ""
  },
  {
    "latitude": 3.62619,
    "longitude": 45.09352,
    "name": "Camping Municipal **",
    "city": "Siaugues Sainte Marie",
    "description": "+33 471742368"
  },
  {
    "latitude": -4.15608,
    "longitude": 47.86901,
    "name": "Camping Menez Lanveur **",
    "city": "Combrit",
    "description": ""
  },
  {
    "latitude": -3.01316,
    "longitude": 48.19862,
    "name": "Camping Municipal **",
    "city": "Mur de Bretagne",
    "description": "+33 296260190"
  },
  {
    "latitude": 1.05306,
    "longitude": 44.48889,
    "name": "Camping Le Clos Bouyssac **",
    "city": "Touzac",
    "description": ""
  },
  {
    "latitude": 1.88221,
    "longitude": 42.47032,
    "name": "Camping L Oratoire **",
    "city": "La Tour de Carol",
    "description": ""
  },
  {
    "latitude": -1.45976,
    "longitude": 43.59563,
    "name": "Camping Les Pins Bleus **",
    "city": "Labenne",
    "description": ""
  },
  {
    "latitude": 9.29861,
    "longitude": 41.62047,
    "name": "Camping Les Ilots",
    "city": "La Trinite",
    "description": ""
  },
  {
    "latitude": 3.04584,
    "longitude": 43.01497,
    "name": "Camping Municipal du Golf **",
    "city": "Port la Nouvelle",
    "description": "+33 468480842"
  },
  {
    "latitude": 3.48253,
    "longitude": 43.32685,
    "name": "Camping Sud Loisirs ***",
    "city": "Agde",
    "description": "+33 467210910"
  },
  {
    "latitude": -1.55703,
    "longitude": 48.74971,
    "name": "Place de la Mairie",
    "city": "Carolles",
    "description": ""
  },
  {
    "latitude": -4.34534,
    "longitude": 48.67537,
    "name": "Camping du Phare **",
    "city": "Brignogan",
    "description": ""
  },
  {
    "latitude": 3.5175,
    "longitude": 49.20833,
    "name": "Camping Municipal des Bruyeres",
    "city": "Fere en Tardenois",
    "description": ""
  },
  {
    "latitude": 4.44897,
    "longitude": 47.54304,
    "name": "Camping Municipal Alesia *",
    "city": "Venarey les Laumes",
    "description": "16-18 avenue Jean Jaures"
  },
  {
    "latitude": 5.36581,
    "longitude": 49.1538,
    "name": "Camping Les Breuils ***",
    "city": "Verdun",
    "description": "+33 329861531"
  },
  {
    "latitude": 2.76194,
    "longitude": 44.52167,
    "name": "Camping Municipal Le Roc de l Arche **",
    "city": "Espalion",
    "description": ""
  },
  {
    "latitude": 4.68503,
    "longitude": 46.90718,
    "name": "Camping Les Sources ****",
    "city": "Santenay",
    "description": "avenue des Sources"
  },
  {
    "latitude": 5.111,
    "longitude": 44.593,
    "name": "Camping Le Couspeau ***",
    "city": "Poet Celard",
    "description": ""
  },
  {
    "latitude": -3.051,
    "longitude": 48.2088,
    "name": "Camping Nautic International ****",
    "city": "Caurel",
    "description": ""
  },
  {
    "latitude": -0.00805,
    "longitude": 42.87752,
    "name": "Camping La Grande Bigourdane **",
    "city": "Esquiere Sere",
    "description": ""
  },
  {
    "latitude": 5.78695,
    "longitude": 43.96223,
    "name": "Camping Indigo Forcalquier ***",
    "city": "Forcalquier",
    "description": ""
  },
  {
    "latitude": 3.0333,
    "longitude": 42.73972,
    "name": "Camping Le Palais de la Mer ****",
    "city": "Sainte Marie la Mer",
    "description": "+33 468730794"
  },
  {
    "latitude": -2.21607,
    "longitude": 46.96633,
    "name": "Camping Le Caravan Ile ***",
    "city": "La Gueriniere",
    "description": "+33 251395029"
  },
  {
    "latitude": 4.39861,
    "longitude": 44.39816,
    "name": "Camping Le Provencal ****",
    "city": "Vallon Pont d Arc",
    "description": "+33 475880048"
  },
  {
    "latitude": 7.43204,
    "longitude": 48.63797,
    "name": "Camping Municipal **",
    "city": "Wasselonne",
    "description": ""
  },
  {
    "latitude": 1.22421,
    "longitude": 49.22513,
    "name": "Camping Le Saint Pierre ***",
    "city": "Saint Pierre du Vauvray",
    "description": "rue du Chateau"
  },
  {
    "latitude": 3.50322,
    "longitude": 45.10437,
    "name": "Camping Gorges de l Allier ***",
    "city": "Langeac",
    "description": "+33 471770501"
  },
  {
    "latitude": 8.87369,
    "longitude": 42.60856,
    "name": "Camping La Plage",
    "city": "Algajola",
    "description": ""
  },
  {
    "latitude": -1.34154,
    "longitude": 45.92307,
    "name": "Camping Les Pins **",
    "city": "Saint Pierre d Oleron",
    "description": ""
  },
  {
    "latitude": -1.73326,
    "longitude": 43.37617,
    "name": "Camping La Corniche ***",
    "city": "Urrugne",
    "description": ""
  },
  {
    "latitude": 5.53222,
    "longitude": 45.12954,
    "name": "Camping Les Buissonnets ***",
    "city": "Meaudre",
    "description": "+33 476952104"
  },
  {
    "latitude": 0.4567,
    "longitude": 47.5267,
    "name": "Camping L Arada Parc ****",
    "city": "Sonzay",
    "description": ""
  },
  {
    "latitude": -4.52336,
    "longitude": 48.63038,
    "name": "Camping La Greve Blanche **",
    "city": "Plouguerneau",
    "description": ""
  },
  {
    "latitude": 6.72058,
    "longitude": 43.48399,
    "name": "Camping La Pierre Verte ****",
    "city": "Frejus",
    "description": "+33 494408830"
  },
  {
    "latitude": 3.03082,
    "longitude": 42.76576,
    "name": "Camping Les Dunes ***",
    "city": "Torreilles Plage",
    "description": ""
  },
  {
    "latitude": 0.87194,
    "longitude": 44.81083,
    "name": "Camping Les Jardins de l Abbaye *",
    "city": "Cadouin",
    "description": "+33 553618930"
  },
  {
    "latitude": 0.88815,
    "longitude": 44.2722,
    "name": "Camping Les 2 lacs **",
    "city": "Beauville",
    "description": "+33 553675809"
  },
  {
    "latitude": 4.28194,
    "longitude": 46.43944,
    "name": "Camping Municipal ***",
    "city": "Charolles",
    "description": ""
  },
  {
    "latitude": 1.034,
    "longitude": 45.61486,
    "name": "Camping Les Ribieres **",
    "city": "Bussiere Galant",
    "description": ""
  },
  {
    "latitude": -3.95353,
    "longitude": 47.8969,
    "name": "Camping Village Club Saint Laurent ****",
    "city": "La Foret Fouesnant",
    "description": ""
  },
  {
    "latitude": 4.40211,
    "longitude": 44.3993,
    "name": "Camping Le Vieux Vallon *",
    "city": "Vallon Pont d Arc",
    "description": "+33 475880147"
  },
  {
    "latitude": 6.19384,
    "longitude": 43.71265,
    "name": "Camping Le Clos de Barbey **",
    "city": "Bauduen",
    "description": ""
  },
  {
    "latitude": 1.45941,
    "longitude": 47.59086,
    "name": "Camping Val de Flux",
    "city": "Huisseau sur Cosson",
    "description": "6 rue de Chatillon"
  },
  {
    "latitude": 3.79834,
    "longitude": 43.4456,
    "name": "Camping Club du Soleil ***",
    "city": "Frontignan",
    "description": ""
  },
  {
    "latitude": 4.78485,
    "longitude": 45.42471,
    "name": "Camping Le Daxia ***",
    "city": "Saint Clair du Rhone",
    "description": "+33 474564557"
  },
  {
    "latitude": -2.785,
    "longitude": 48.57861,
    "name": "Camping Roc de l Hervieu ***",
    "city": "Pordic",
    "description": ""
  },
  {
    "latitude": 3.02614,
    "longitude": 42.5723,
    "name": "Camping Les Galets ****",
    "city": "Argeles sur Mer",
    "description": "+33 468810812"
  },
  {
    "latitude": -3.91862,
    "longitude": 47.90424,
    "name": "Camping Lochrist ***",
    "city": "Concarneau",
    "description": ""
  },
  {
    "latitude": 0.00222,
    "longitude": 42.76012,
    "name": "Camping Le Pain de Sucre **",
    "city": "Gavarnie",
    "description": ""
  },
  {
    "latitude": 3.53148,
    "longitude": 44.3716,
    "name": "Camping Les Cerisiers **",
    "city": "Ispagnac",
    "description": "+33 466442124"
  },
  {
    "latitude": 4.87104,
    "longitude": 47.7742,
    "name": "Camping Municipal *",
    "city": "Recey sur Ource",
    "description": "route de Menesble"
  },
  {
    "latitude": 3.0777,
    "longitude": 45.9147,
    "name": "Camping La Balanede **",
    "city": "Chatelguyon",
    "description": ""
  },
  {
    "latitude": 1.2342,
    "longitude": 48.0022,
    "name": "Camping Parc de Loisirs ****",
    "city": "Cloyes sur le Loir",
    "description": ""
  },
  {
    "latitude": 5.86347,
    "longitude": 45.65321,
    "name": "Camping International de l Ile aux Cygnes ***",
    "city": "Le Bourget du Lac",
    "description": "+33 479250176"
  },
  {
    "latitude": 1.52614,
    "longitude": 50.20306,
    "name": "Camping Les Galets de Molliere ***",
    "city": "Cayeux sur mer",
    "description": ""
  },
  {
    "latitude": -2.99748,
    "longitude": 47.59572,
    "name": "Camping Chat Noir ***",
    "city": "Saint Philibert",
    "description": ""
  },
  {
    "latitude": -1.37257,
    "longitude": 45.94802,
    "name": "Camping Le Surot ***",
    "city": "Saint Georges d Oleron",
    "description": ""
  },
  {
    "latitude": 5.75584,
    "longitude": 45.43362,
    "name": "Camping L Arc en ciel ***",
    "city": "Entre Deux Guiers",
    "description": ""
  },
  {
    "latitude": -3.98594,
    "longitude": 47.85917,
    "name": "Camping Kerroland **",
    "city": "Fouesnant",
    "description": "+33 298949100"
  },
  {
    "latitude": -4.10325,
    "longitude": 47.88199,
    "name": "Camping du Port de Plaisance ****",
    "city": "Clohars Fouesnant",
    "description": ""
  },
  {
    "latitude": -2.69334,
    "longitude": 47.64151,
    "name": "Camping Rhuys ***",
    "city": "Theix",
    "description": ""
  },
  {
    "latitude": 2.23501,
    "longitude": 48.86834,
    "name": "Camping Bois de Boulogne ****",
    "city": "Paris",
    "description": "+33 145243000"
  },
  {
    "latitude": 3.19433,
    "longitude": 46.08518,
    "name": "Camping Le Mont Libre ***",
    "city": "Gannat",
    "description": ""
  },
  {
    "latitude": 4.23033,
    "longitude": 44.38968,
    "name": "Camping Le Pont de Maisonneuve **",
    "city": "Beaulieu",
    "description": "+33 475393044"
  },
  {
    "latitude": -2.30308,
    "longitude": 47.02418,
    "name": "Camping Pointe de l Herbaudiere **",
    "city": "L Herbaudiere",
    "description": "+33 240215205"
  },
  {
    "latitude": -1.10405,
    "longitude": 45.68097,
    "name": "Camping Les Cotes de Saintonge ***",
    "city": "Saint Augustin",
    "description": "+33 546232348"
  },
  {
    "latitude": 8.97433,
    "longitude": 41.64064,
    "name": "Camping Olva",
    "city": "Sartene",
    "description": ""
  },
  {
    "latitude": -3.47537,
    "longitude": 48.82839,
    "name": "Camping Le Ranolien ****",
    "city": "Ploumanach",
    "description": ""
  },
  {
    "latitude": -0.74219,
    "longitude": 45.18511,
    "name": "Camping Les Gabarreys ****",
    "city": "Pauillac",
    "description": ""
  },
  {
    "latitude": 4.06562,
    "longitude": 45.91168,
    "name": "Camping Arpheuilles ***",
    "city": "Saint Paul de Vezelin",
    "description": "+33 477634343"
  },
  {
    "latitude": 2.99,
    "longitude": 45.66861,
    "name": "Camping Le Chadelas **",
    "city": "Aydat",
    "description": "+33 473793809"
  },
  {
    "latitude": 9.29401,
    "longitude": 42.67383,
    "name": "Camping U Pezzo",
    "city": "Saint Florent",
    "description": ""
  },
  {
    "latitude": 5.95811,
    "longitude": 45.70943,
    "name": "Camping camp Marlice **",
    "city": "Trevignin",
    "description": "+33 479614474"
  },
  {
    "latitude": 2.78167,
    "longitude": 43.64806,
    "name": "Camping Indigo ****",
    "city": "Nages",
    "description": ""
  },
  {
    "latitude": -3.80156,
    "longitude": 47.82796,
    "name": "Camping Le Fleuri **",
    "city": "Tregunc",
    "description": "+33 298067476"
  },
  {
    "latitude": 6.78333,
    "longitude": 46.05,
    "name": "Camping Municipal le Pelly **",
    "city": "Sixt Fer  Cheval",
    "description": ""
  },
  {
    "latitude": 4.21611,
    "longitude": 44.40385,
    "name": "Camping Le Vieux Moulin **",
    "city": "Berrias et Casteljau",
    "description": "+33 475392570"
  },
  {
    "latitude": -1.06057,
    "longitude": 45.6494,
    "name": "Camping Ferme de Chauchamps **",
    "city": "Vaux sur Mer",
    "description": "+33 546380464"
  },
  {
    "latitude": -3.02277,
    "longitude": 47.57386,
    "name": "Camping La Baie ****",
    "city": "La Trinite sur Mer",
    "description": "+33 297557342"
  },
  {
    "latitude": -1.39921,
    "longitude": 43.79735,
    "name": "Camping Le Vieux Port ****",
    "city": "Messanges",
    "description": ""
  },
  {
    "latitude": -3.99278,
    "longitude": 47.88028,
    "name": "Camping Kerscolper **",
    "city": "Fouesnant 0298560948",
    "description": ""
  },
  {
    "latitude": 2.95643,
    "longitude": 46.03279,
    "name": "Camping camp Elan **",
    "city": "Blot l Eglise",
    "description": "+33 473974494"
  },
  {
    "latitude": 0.13965,
    "longitude": 43.08033,
    "name": "Camping Le Bigourdan ***",
    "city": "Pouzac",
    "description": ""
  },
  {
    "latitude": -4.3713,
    "longitude": 48.2252,
    "name": "Camping Armorique ***",
    "city": "Telgruc sur Mer",
    "description": ""
  },
  {
    "latitude": 6.8874,
    "longitude": 48.169,
    "name": "Camping Le Clos de la Chaume **",
    "city": "Corcieux",
    "description": ""
  },
  {
    "latitude": 4.73473,
    "longitude": 48.37667,
    "name": "Camping La Croix Badeau **",
    "city": "Soulaines Dhuys",
    "description": ""
  },
  {
    "latitude": 4.89898,
    "longitude": 46.44708,
    "name": "Camping Aux Rives du Soleil ***",
    "city": "Pont de Vaux",
    "description": "+33 385303365"
  },
  {
    "latitude": 2.15972,
    "longitude": 48.79416,
    "name": "Camping International",
    "city": "Versailles",
    "description": "31 rue Berthelot"
  },
  {
    "latitude": 2.4716,
    "longitude": 43.6084,
    "name": "Camping Le Plo **",
    "city": "Le Bez",
    "description": ""
  },
  {
    "latitude": 2.72661,
    "longitude": 48.26665,
    "name": "Camping La Baraude **",
    "city": "Darvault",
    "description": ""
  },
  {
    "latitude": 4.13945,
    "longitude": 46.69362,
    "name": "Camping Le Val d Arroux **",
    "city": "Toulon sur Arroux",
    "description": ""
  },
  {
    "latitude": -2.16918,
    "longitude": 46.92938,
    "name": "Camping Les Oncheres ***",
    "city": "Barbatre",
    "description": ""
  },
  {
    "latitude": 4.83834,
    "longitude": 46.32278,
    "name": "Camping Municipal ***",
    "city": "Macon",
    "description": ""
  },
  {
    "latitude": -0.65591,
    "longitude": 47.36024,
    "name": "Camping Le Saint Offange ***",
    "city": "Rochefort sur Loire",
    "description": "+33 241788211"
  },
  {
    "latitude": -0.67088,
    "longitude": 47.32838,
    "name": "Camping Municipal du Layon **",
    "city": "Saint Aubin de Luigne",
    "description": "+33 241783328"
  },
  {
    "latitude": -3.5618,
    "longitude": 48.7651,
    "name": "Camping Armor Loisirs ***",
    "city": "Trebeurden",
    "description": ""
  },
  {
    "latitude": -1.11556,
    "longitude": 45.68674,
    "name": "Camping L Ecureuil ***",
    "city": "Saint Augustin",
    "description": "+33 546391339"
  },
  {
    "latitude": 2.37056,
    "longitude": 50.72778,
    "name": "Camping Le Bloemstraete ***",
    "city": "Renescure",
    "description": ""
  },
  {
    "latitude": -3.0623,
    "longitude": 47.5981,
    "name": "Camping La Grande Metairie ****",
    "city": "Carnac",
    "description": ""
  },
  {
    "latitude": 8.86342,
    "longitude": 42.53444,
    "name": "Camping Avena",
    "city": "Montemaggiore",
    "description": ""
  },
  {
    "latitude": 7.00722,
    "longitude": 43.69806,
    "name": "Camping Les Rives du Loup ***",
    "city": "Tourrettes sur Loup",
    "description": "+33 493241565"
  },
  {
    "latitude": -3.46538,
    "longitude": 48.80598,
    "name": "Camping Claire Fontaine ***",
    "city": "Perros Guirec",
    "description": ""
  },
  {
    "latitude": 8.87873,
    "longitude": 41.69852,
    "name": "Camping Libecciu",
    "city": "Cappiciolo",
    "description": ""
  },
  {
    "latitude": -1.09145,
    "longitude": 43.71966,
    "name": "Camping Les Pins du Soleil ***",
    "city": "Saint Paul les Dax",
    "description": ""
  },
  {
    "latitude": -0.82242,
    "longitude": 45.14852,
    "name": "Camping Le Paradis **",
    "city": "Saint Laurent Medoc",
    "description": "+33 556594215"
  },
  {
    "latitude": 6.89363,
    "longitude": 49.04404,
    "name": "Camping Municipal *",
    "city": "Puttelange aux Lacs",
    "description": "Etang de Diefenbach"
  },
  {
    "latitude": 3.27216,
    "longitude": 44.81381,
    "name": "Camping Municipal La Croix des Anglais **",
    "city": "Saint Chely d Apcher",
    "description": ""
  },
  {
    "latitude": 8.88437,
    "longitude": 41.69412,
    "name": "Camping chez Antoine *",
    "city": "Olmeto",
    "description": "+33 495760699"
  },
  {
    "latitude": 6.43139,
    "longitude": 43.8225,
    "name": "Camping camp des Gorges du Verdon ***",
    "city": "Castellane",
    "description": "+33 492836364"
  },
  {
    "latitude": 6.7309,
    "longitude": 48.0878,
    "name": "Camping Le Noir Rupt ****",
    "city": "Le Tholy",
    "description": ""
  },
  {
    "latitude": 6.83714,
    "longitude": 48.06986,
    "name": "Camping Le Pre Vert **",
    "city": "Gerardmer",
    "description": "+33 329632047"
  },
  {
    "latitude": -2.93757,
    "longitude": 47.55942,
    "name": "Camping Kerpenhir **",
    "city": "Locqmariaquer",
    "description": ""
  },
  {
    "latitude": 3.14293,
    "longitude": 43.3182,
    "name": "Camping Les Peupliers **",
    "city": "Colombiers",
    "description": ""
  },
  {
    "latitude": 3.97655,
    "longitude": 50.29687,
    "name": "Camping Le Clair de Lune ***",
    "city": "Maubeuge",
    "description": ""
  },
  {
    "latitude": 1.15945,
    "longitude": 46.55112,
    "name": "Camping Municipal La Quintaine **",
    "city": "Belabre",
    "description": ""
  },
  {
    "latitude": 6.14722,
    "longitude": 43.03972,
    "name": "Camping L Ile d Or **",
    "city": "Giens",
    "description": "+33 494582055"
  },
  {
    "latitude": 4.72953,
    "longitude": 44.24317,
    "name": "Camping La Pinede **",
    "city": "Mondragon",
    "description": "+33 490408298"
  },
  {
    "latitude": 6.78462,
    "longitude": 45.62224,
    "name": "Caravaneige Le Versoyen",
    "city": "Bourg Saint Maurice",
    "description": ""
  },
  {
    "latitude": 9.13417,
    "longitude": 42.29667,
    "name": "Camping Ulivu **",
    "city": "Corte",
    "description": ""
  },
  {
    "latitude": 4.0227,
    "longitude": 44.03596,
    "name": "Camping Domaine de Gaujac ***",
    "city": "Anduze",
    "description": ""
  },
  {
    "latitude": -4.55691,
    "longitude": 48.02844,
    "name": "Camping Kerivoas **",
    "city": "Audierne",
    "description": "+33 298702686"
  },
  {
    "latitude": 1.14829,
    "longitude": 44.83812,
    "name": "Camping Le Capeyrou ***",
    "city": "Beynac",
    "description": "+33 553295495"
  },
  {
    "latitude": 3.97276,
    "longitude": 44.0688,
    "name": "Camping L Arche ***",
    "city": "Anduze",
    "description": ""
  },
  {
    "latitude": 1.18778,
    "longitude": 47.48889,
    "name": "Camping Municipal **",
    "city": "Onzain",
    "description": ""
  },
  {
    "latitude": 8.86857,
    "longitude": 41.64326,
    "name": "Camping Lecci e Murta",
    "city": "Portigliolo",
    "description": ""
  },
  {
    "latitude": 5.4329,
    "longitude": 45.8135,
    "name": "Camping Le Point Vert ****",
    "city": "Serrieres de Briord",
    "description": ""
  },
  {
    "latitude": -4.45949,
    "longitude": 48.29224,
    "name": "Camping La Cale **",
    "city": "Lanveoc",
    "description": "+33 298275891"
  },
  {
    "latitude": 5.7751,
    "longitude": 46.6516,
    "name": "Camping Les Merilles **",
    "city": "Doucier",
    "description": ""
  },
  {
    "latitude": 6.651,
    "longitude": 43.23385,
    "name": "Camping La Toison d Or ***",
    "city": "Ramatuelle",
    "description": ""
  },
  {
    "latitude": 2.58477,
    "longitude": 44.35394,
    "name": "Camping Municipal de Layoule ****",
    "city": "Rodez",
    "description": ""
  },
  {
    "latitude": -1.6964,
    "longitude": 43.38275,
    "name": "Camping Untxin Socoa **",
    "city": "Urrugne",
    "description": ""
  },
  {
    "latitude": 2.0683,
    "longitude": 43.4555,
    "name": "Camping Saint Martin ***",
    "city": "Soreze",
    "description": ""
  },
  {
    "latitude": -4.56525,
    "longitude": 48.28078,
    "name": "Camping Le Grand Large ****",
    "city": "Camaret",
    "description": ""
  },
  {
    "latitude": -1.55667,
    "longitude": 47.2425,
    "name": "Camping Municipal du Petit Port ****",
    "city": "Nantes",
    "description": ""
  },
  {
    "latitude": 4.32226,
    "longitude": 44.42263,
    "name": "Camping La Bastide en Ardeche ****",
    "city": "Sampzon",
    "description": "+33 475396472"
  },
  {
    "latitude": 9.16581,
    "longitude": 41.39272,
    "name": "Camping Araguina",
    "city": "Bonifacio",
    "description": ""
  },
  {
    "latitude": -2.9554,
    "longitude": 47.6141,
    "name": "Camping Mane Guernehue ****",
    "city": "Baden",
    "description": ""
  },
  {
    "latitude": 9.37113,
    "longitude": 41.68453,
    "name": "Camping Pinarellu **",
    "city": "Sainte Lucie de Porto Vecchio",
    "description": "+33 495714398"
  },
  {
    "latitude": -2.4793,
    "longitude": 48.594,
    "name": "Camping Bellevue ***",
    "city": "Erquy",
    "description": ""
  },
  {
    "latitude": 3.90528,
    "longitude": 47.03583,
    "name": "Camping L Etang de la Fougeraie **",
    "city": "Saint Leger de Fougeret",
    "description": ""
  },
  {
    "latitude": 6.50715,
    "longitude": 43.84608,
    "name": "Camping Les Lavandes **",
    "city": "Castellane",
    "description": "+33 492783351"
  },
  {
    "latitude": 3.05526,
    "longitude": 45.75874,
    "name": "Camping Indigo L Ocledes ****",
    "city": "Royat",
    "description": ""
  },
  {
    "latitude": 5.88593,
    "longitude": 45.70109,
    "name": "Camping International du Sierroz ***",
    "city": "Aix les Bains",
    "description": "+33 479612143"
  },
  {
    "latitude": -3.0916,
    "longitude": 47.4761,
    "name": "Camping Le Conguel ****",
    "city": "Quiberon",
    "description": ""
  },
  {
    "latitude": 4.40486,
    "longitude": 44.39039,
    "name": "Camping les Tunnel",
    "city": "Vallon Pont d Arc",
    "description": "Route des Gorges"
  },
  {
    "latitude": -2.1528,
    "longitude": 47.1409,
    "name": "Camping La Tabardiere ***",
    "city": "La Plaine sur Mer",
    "description": ""
  },
  {
    "latitude": -0.69028,
    "longitude": 46.56618,
    "name": "Camping camp du Bois du Roc *",
    "city": "Puy de Serre",
    "description": ""
  },
  {
    "latitude": -1.22917,
    "longitude": 45.69694,
    "name": "Camping Parc de la Cote Sauvage ****",
    "city": "La Palmyre",
    "description": "+33 546224018"
  },
  {
    "latitude": -1.19624,
    "longitude": 44.7343,
    "name": "Camping Les Viviers ****",
    "city": "Lege Cap Ferret",
    "description": "+33 556607004"
  },
  {
    "latitude": -3.1631,
    "longitude": 47.62118,
    "name": "Camping L Ideal ***",
    "city": "Erdeven",
    "description": "+33 297556766"
  },
  {
    "latitude": 4.57437,
    "longitude": 44.50044,
    "name": "Camping Municipal **",
    "city": "Valvignieres",
    "description": ""
  },
  {
    "latitude": 1.0856,
    "longitude": 47.3268,
    "name": "Camping Le Moulin Fort ***",
    "city": "Francueil Chenonceaux",
    "description": ""
  },
  {
    "latitude": 5.162,
    "longitude": 44.373,
    "name": "Camping L Or Vert **",
    "city": "Aubres",
    "description": ""
  },
  {
    "latitude": 6.948,
    "longitude": 48.4553,
    "name": "Camping Les Lacs ***",
    "city": "Celles sur Plaine",
    "description": ""
  },
  {
    "latitude": 6.94259,
    "longitude": 48.07816,
    "name": "Camping Municipal du Domaine de Longemer **",
    "city": "Xonrupt Longemer",
    "description": "+33 329630730"
  },
  {
    "latitude": -1.88926,
    "longitude": 48.68698,
    "name": "Camping Tannee **",
    "city": "Saint Coulomb",
    "description": ""
  },
  {
    "latitude": -1.15642,
    "longitude": 44.07209,
    "name": "Camping Sen-Yan ****",
    "city": "Mezos",
    "description": ""
  },
  {
    "latitude": -1.31038,
    "longitude": 49.41008,
    "name": "Camping",
    "city": "Sainte Mere Eglise",
    "description": ""
  },
  {
    "latitude": -3.12046,
    "longitude": 47.49959,
    "name": "Camping Do Mi Si La Mi ***",
    "city": "Quiberon",
    "description": "+33 297502252"
  },
  {
    "latitude": 3.28298,
    "longitude": 44.70578,
    "name": "Camping Municipal **",
    "city": "Aumont Aubrac",
    "description": ""
  },
  {
    "latitude": 5.55835,
    "longitude": 45.46796,
    "name": "International Campsite of Montferrat",
    "city": "Montferrat",
    "description": "1578 Route des Chevalliers de l'An Mil"
  },
  {
    "latitude": 9.02,
    "longitude": 42.637,
    "name": "Camping Campeoles",
    "city": "Lozari",
    "description": ""
  },
  {
    "latitude": 1.19444,
    "longitude": 47.48444,
    "name": "Camping Municipal **",
    "city": "Chaumont sur Loire",
    "description": ""
  },
  {
    "latitude": -2.12958,
    "longitude": 46.84781,
    "name": "Camping La Daviere ****",
    "city": "Notre Dame de Monts",
    "description": ""
  },
  {
    "latitude": 1.37661,
    "longitude": 43.60585,
    "name": "Camping La Bouriette **",
    "city": "Toulouse",
    "description": "+33 561496446"
  },
  {
    "latitude": 3.42228,
    "longitude": 43.29833,
    "name": "Camping La Carabasse ****",
    "city": "Vias",
    "description": "+33 467215990"
  },
  {
    "latitude": 5.706,
    "longitude": 44.666,
    "name": "Camping Champ la Chevre **",
    "city": "Luz la Croix Haute",
    "description": ""
  },
  {
    "latitude": 0.56387,
    "longitude": 43.03187,
    "name": "Camping Es Pibous ***",
    "city": "Saint Bertrand de Comminges",
    "description": "+33 561883142"
  },
  {
    "latitude": -3.70917,
    "longitude": 47.81711,
    "name": "Camping Chateau du Belon **",
    "city": "Riec sur Belon",
    "description": ""
  },
  {
    "latitude": 1.06861,
    "longitude": 47.33028,
    "name": "Camping Municipal *",
    "city": "Chenonceaux",
    "description": ""
  },
  {
    "latitude": -1.13417,
    "longitude": 45.81861,
    "name": "Camping Au Bon Air **",
    "city": "Marennes",
    "description": "+33 546850240"
  },
  {
    "latitude": -2.59667,
    "longitude": 47.52,
    "name": "Camping L Ile **",
    "city": "Damgan",
    "description": ""
  },
  {
    "latitude": 4.38306,
    "longitude": 44.39722,
    "name": "Camping Municipal Zamenhof **",
    "city": "Vallon Pont d Arc",
    "description": "+33 475880473"
  },
  {
    "latitude": 4.25727,
    "longitude": 44.20943,
    "name": "Camping Chateau de Boisson ****",
    "city": "Allegre les Fumades",
    "description": "+33 466248561"
  },
  {
    "latitude": 8.89021,
    "longitude": 41.69209,
    "name": "Camping Esplanade",
    "city": "Vetricella",
    "description": ""
  },
  {
    "latitude": 5.74583,
    "longitude": 43.15306,
    "name": "Camping Vallongue **",
    "city": "Bandol",
    "description": ""
  },
  {
    "latitude": -3.99944,
    "longitude": 47.885,
    "name": "Camping Kersantic - Cap Coz **",
    "city": "Fouesnant",
    "description": "+33 298560866"
  },
  {
    "latitude": 0.71591,
    "longitude": 47.2904,
    "name": "Camping La Grange Rouge ***",
    "city": "Montbazon",
    "description": ""
  },
  {
    "latitude": 9.20162,
    "longitude": 42.72152,
    "name": "Camping U Paradisu",
    "city": "Casta",
    "description": ""
  },
  {
    "latitude": 0.5117,
    "longitude": 47.1081,
    "name": "Camping Chateau de la Rolandiere ***",
    "city": "Trogues",
    "description": ""
  },
  {
    "latitude": 1.14641,
    "longitude": 49.32237,
    "name": "Camping Les Terrasses **",
    "city": "Igoville",
    "description": "rue de Rouen"
  },
  {
    "latitude": 5.71736,
    "longitude": 48.94111,
    "name": "Camping Les Chenes Clairs Madine 2 ***",
    "city": "Heudicourt sous les Cotes",
    "description": "+33 329893608"
  },
  {
    "latitude": 5.71736,
    "longitude": 48.94111,
    "name": "Camping Les Passons Madine 2 **",
    "city": "Heudicourt sous les Cotes",
    "description": "+33 329893608"
  },
  {
    "latitude": -1.49273,
    "longitude": 46.24846,
    "name": "Camping Municipal",
    "city": "Les Portes en Re",
    "description": ""
  },
  {
    "latitude": 3.08706,
    "longitude": 44.11031,
    "name": "Camping Larribal **",
    "city": "Millau",
    "description": ""
  },
  {
    "latitude": 2.90556,
    "longitude": 47.59389,
    "name": "Camping Le Diben **",
    "city": "Larmor Baden",
    "description": "+33 297570536"
  },
  {
    "latitude": 0.01585,
    "longitude": 48.2835,
    "name": "Camping Le Sans Soucis ***",
    "city": "Fresnay sur Sarthe",
    "description": "+33 243973287"
  },
  {
    "latitude": -1.50429,
    "longitude": 49.42275,
    "name": "Camping Municipal du Hable **",
    "city": "Omonville la Rogue",
    "description": ""
  },
  {
    "latitude": 5.282,
    "longitude": 44.823,
    "name": "Camping ANLe Moulin de Rivet",
    "city": "Saint Julien en Quint",
    "description": ""
  },
  {
    "latitude": 1.89784,
    "longitude": 44.8578,
    "name": "Camping Le Soulhol ***",
    "city": "Saint Cere",
    "description": ""
  },
  {
    "latitude": 1.53481,
    "longitude": 44.69233,
    "name": "Camping La Faurie ***",
    "city": "Seniergues",
    "description": ""
  },
  {
    "latitude": 3.04766,
    "longitude": 44.07381,
    "name": "Camping Saint Martin **",
    "city": "Creissels",
    "description": ""
  },
  {
    "latitude": 4.88222,
    "longitude": 44.39706,
    "name": "Camping Domaine de la Charmarade **",
    "city": "Chamaret",
    "description": ""
  },
  {
    "latitude": 3.04936,
    "longitude": 42.99804,
    "name": "Camping Cote Vermeille **",
    "city": "Port la Nouvelle",
    "description": "+33 468480580"
  },
  {
    "latitude": 3.51661,
    "longitude": 45.20974,
    "name": "Camping Municipal La Fridiere **",
    "city": "Paulhaguet",
    "description": ""
  },
  {
    "latitude": 2.6826,
    "longitude": 47.49667,
    "name": "Camping La Gree Penvins **",
    "city": "Sarzeau",
    "description": "+33 297673396"
  },
  {
    "latitude": -4.03692,
    "longitude": 47.84885,
    "name": "Camping Village le Grand Large ****",
    "city": "Fouesnant",
    "description": "+33 298560406"
  },
  {
    "latitude": -4.61834,
    "longitude": 48.02538,
    "name": "Camping Municipal Kermalero **",
    "city": "Primelin",
    "description": "+33 298748475"
  },
  {
    "latitude": 4.10728,
    "longitude": 43.55367,
    "name": "Camping Le Boucanet ****",
    "city": "Le Grau du Roi",
    "description": ""
  },
  {
    "latitude": 0.00519,
    "longitude": 42.83013,
    "name": "Camping Saint Bazerque **",
    "city": "Luz Saint Sauveur",
    "description": ""
  },
  {
    "latitude": 8.68225,
    "longitude": 42.4654,
    "name": "Camping Morsetta",
    "city": "Argentella",
    "description": ""
  },
  {
    "latitude": 8.73132,
    "longitude": 42.07089,
    "name": "Camping Sommalu",
    "city": "Tiuccia",
    "description": ""
  },
  {
    "latitude": -1.57613,
    "longitude": 43.45468,
    "name": "Camping Pavillon Royal ****",
    "city": "Bidart",
    "description": ""
  },
  {
    "latitude": -2.4612,
    "longitude": 47.4092,
    "name": "Camping Le Beaupre **",
    "city": "Kercabellec",
    "description": ""
  },
  {
    "latitude": 3.14228,
    "longitude": 43.14499,
    "name": "Camping Le Soleil d Oc ***",
    "city": "Narbonne plage",
    "description": "+33 468498621"
  },
  {
    "latitude": -1.74402,
    "longitude": 47.13484,
    "name": "Camping Municipal La Moriniere *",
    "city": "Port Saint Pere",
    "description": "+33 240315013"
  },
  {
    "latitude": -1.15778,
    "longitude": 44.3125,
    "name": "Camping La Reserve ****",
    "city": "Gastes",
    "description": ""
  },
  {
    "latitude": 6.27306,
    "longitude": 49.29861,
    "name": "Camping Centre de loisirs **",
    "city": "Volstroff",
    "description": ""
  },
  {
    "latitude": 8.81688,
    "longitude": 42.25055,
    "name": "Camping Luacciola",
    "city": "Evisa",
    "description": ""
  },
  {
    "latitude": 0.54225,
    "longitude": 44.24416,
    "name": "Camping Moulin de Mellet ***",
    "city": "Saint Hilaire de Lusignan",
    "description": "+33 553683311"
  },
  {
    "latitude": 1.20257,
    "longitude": 47.88677,
    "name": "Camping Municipal **",
    "city": "Freteval",
    "description": "+33 254826352"
  },
  {
    "latitude": 3.96484,
    "longitude": 44.07763,
    "name": "Camping Cevennes-Provence ***",
    "city": "Anduze",
    "description": ""
  },
  {
    "latitude": 3.66517,
    "longitude": 43.45061,
    "name": "Camping Lou Labech ***",
    "city": "Bouzigues",
    "description": ""
  },
  {
    "latitude": 4.52449,
    "longitude": 44.18865,
    "name": "Camping Les Cascades ***",
    "city": "La Roque sur Ceze",
    "description": "+33 486827297"
  },
  {
    "latitude": -2.16192,
    "longitude": 47.17234,
    "name": "Camping La Popliniere **",
    "city": "Saint Michel Chef Chef",
    "description": ""
  },
  {
    "latitude": 1.5476,
    "longitude": 48.6089,
    "name": "Camping Les Ilots de Saint Val ***",
    "city": "Villiers le Morhier",
    "description": ""
  },
  {
    "latitude": 4.80338,
    "longitude": 47.06835,
    "name": "Camping Municipal Les Premiers Pres **",
    "city": "Savigny les Beaune",
    "description": "5 rue des Chanterives"
  },
  {
    "latitude": 2.5104,
    "longitude": 48.393,
    "name": "Camping La Musardiere ***",
    "city": "Milly la Foret",
    "description": ""
  },
  {
    "latitude": 0.0725,
    "longitude": 48.42556,
    "name": "Camping Guerame **",
    "city": "Alencon",
    "description": ""
  },
  {
    "latitude": -3.16563,
    "longitude": 47.61839,
    "name": "Camping Les Ormeaux **",
    "city": "Erdeven",
    "description": "+33 297556757"
  },
  {
    "latitude": 8.60211,
    "longitude": 42.16499,
    "name": "Camping Torraccia",
    "city": "Lozzi",
    "description": ""
  },
  {
    "latitude": 4.57972,
    "longitude": 47.85944,
    "name": "Camping Louis Rigoly **",
    "city": "Chatillon sur Seine",
    "description": ""
  },
  {
    "latitude": 4.56439,
    "longitude": 43.92649,
    "name": "Camping La Soubeyrane ****",
    "city": "Remoulins",
    "description": "+33 466370321"
  },
  {
    "latitude": -2.88306,
    "longitude": 47.55306,
    "name": "Camping Municipal Le Tindio ***",
    "city": "Arzon",
    "description": ""
  },
  {
    "latitude": 2.16643,
    "longitude": 43.93334,
    "name": "Camping Caussel **",
    "city": "Albi",
    "description": ""
  },
  {
    "latitude": -2.0396,
    "longitude": 47.0851,
    "name": "Camping Les Ecureuils ***",
    "city": "La Bernerie en Retz",
    "description": ""
  },
  {
    "latitude": 1.61719,
    "longitude": 44.07862,
    "name": "Camping Le Clos Lalande ***",
    "city": "Montricoux",
    "description": ""
  },
  {
    "latitude": 4.41473,
    "longitude": 48.42639,
    "name": "Camping ANLes Gravieres",
    "city": "Lesmont",
    "description": ""
  },
  {
    "latitude": -4.703,
    "longitude": 48.33995,
    "name": "Camping Les Terrasses de Bertheaume ***",
    "city": "Plougonvelin",
    "description": ""
  },
  {
    "latitude": 2.23086,
    "longitude": 44.9349,
    "name": "Camping La Presqu ile d Espinet ***",
    "city": "Saint Gerons",
    "description": "+33 471622890"
  },
  {
    "latitude": 2.43522,
    "longitude": 47.38494,
    "name": "Camping Le Martinet **",
    "city": "Briare",
    "description": ""
  },
  {
    "latitude": 1.54437,
    "longitude": 49.99414,
    "name": "Camping Municipal Les Marguerites **",
    "city": "Gamaches",
    "description": "+33 322308951"
  },
  {
    "latitude": 5.37139,
    "longitude": 43.76806,
    "name": "Camping Les Hautes Prairies ***",
    "city": "Lourmarin",
    "description": "+33 490680289"
  },
  {
    "latitude": -1.21583,
    "longitude": 45.82917,
    "name": "Camping La Combinette **",
    "city": "Saint Trojan les Bains",
    "description": "+33 546760047"
  },
  {
    "latitude": 6.43695,
    "longitude": 43.7956,
    "name": "Camping Municipal Carajuan",
    "city": "Rougon",
    "description": "route Departementale"
  },
  {
    "latitude": -4.03583,
    "longitude": 47.85083,
    "name": "Camping Penhoat ***",
    "city": "Fouesnant",
    "description": "+33 298560898"
  },
  {
    "latitude": -3.16345,
    "longitude": 48.69492,
    "name": "Camping Traou-Meledem",
    "city": "Pontrieux",
    "description": ""
  },
  {
    "latitude": 6.60844,
    "longitude": 44.67702,
    "name": "Camping Municipal Les Iscles ***",
    "city": "Eygliers",
    "description": ""
  },
  {
    "latitude": -3.96748,
    "longitude": 47.95038,
    "name": "Camping Municipal Bois de Pleuven ****",
    "city": "Saint Yvi",
    "description": "+33 298947047"
  },
  {
    "latitude": 3.14458,
    "longitude": 43.14356,
    "name": "Camping La Cote des Roses **",
    "city": "Narbonne plage",
    "description": "+33 468498365"
  },
  {
    "latitude": -1.14,
    "longitude": 45.06,
    "name": "Camping Le Maubuisson **",
    "city": "Carcans",
    "description": "+33 556033012"
  },
  {
    "latitude": -0.7493,
    "longitude": 47.3502,
    "name": "Camping Le Candais ***",
    "city": "Chalonnes sur Loire",
    "description": "+33 546551001"
  },
  {
    "latitude": 1.08278,
    "longitude": 46.21028,
    "name": "Camping Municipal de la Planche des Dames *",
    "city": "Le Dorat",
    "description": ""
  },
  {
    "latitude": 6.98121,
    "longitude": 48.0687,
    "name": "Camping L Eau Vive **",
    "city": "Xonrupt",
    "description": ""
  },
  {
    "latitude": -2.24649,
    "longitude": 47.01486,
    "name": "Camping Les Roussieres ***",
    "city": "Noirmoutier en l Ile",
    "description": "+33 251391301"
  },
  {
    "latitude": -1.1366,
    "longitude": 44.76312,
    "name": "Camping Pasteur Vacances ***",
    "city": "Ares",
    "description": ""
  },
  {
    "latitude": 5.07566,
    "longitude": 43.33027,
    "name": "Camping Les Mouettes **",
    "city": "Martigues",
    "description": "+33 442807001"
  },
  {
    "latitude": 1.32611,
    "longitude": 43.89722,
    "name": "Camping La Tisarne *",
    "city": "Campsas",
    "description": ""
  },
  {
    "latitude": 0.36083,
    "longitude": 49.75639,
    "name": "Camping Reneville **",
    "city": "Fecamp",
    "description": ""
  },
  {
    "latitude": 1.55841,
    "longitude": 47.68636,
    "name": "Camping L Amitie **",
    "city": "Saint Laurent Nouan",
    "description": "+33 254870152"
  },
  {
    "latitude": -1.64594,
    "longitude": 48.13524,
    "name": "Camping Les Gayeulles ***",
    "city": "Rennes",
    "description": ""
  },
  {
    "latitude": -1.86709,
    "longitude": 47.10489,
    "name": "Camping Municipal *",
    "city": "Saint Hilaire de Chaleon",
    "description": ""
  },
  {
    "latitude": 4.14952,
    "longitude": 43.52264,
    "name": "Camping L Abri de Camargue ****",
    "city": "Le Grau du Roi",
    "description": ""
  },
  {
    "latitude": -1.00504,
    "longitude": 44.68389,
    "name": "Camping Le Braou ***",
    "city": "Audenge",
    "description": ""
  },
  {
    "latitude": 9.29602,
    "longitude": 42.67344,
    "name": "Camping Kalliste",
    "city": "Saint Florent",
    "description": ""
  },
  {
    "latitude": -1.31525,
    "longitude": 43.90568,
    "name": "Camping Lou Puntaou *****",
    "city": "Leon",
    "description": ""
  },
  {
    "latitude": 6.6334,
    "longitude": 48.9563,
    "name": "Camping La Mutche ***",
    "city": "Morhange",
    "description": ""
  },
  {
    "latitude": 6.29778,
    "longitude": 43.55333,
    "name": "Camping Le Ruou ***",
    "city": "Villecroze",
    "description": ""
  },
  {
    "latitude": 3.21894,
    "longitude": 44.99905,
    "name": "Camping Le Petit Bois ***",
    "city": "Ruynes en Margeride",
    "description": "+33 471234226"
  },
  {
    "latitude": 5.86861,
    "longitude": 48.29333,
    "name": "Camping L Arc en Ciel **",
    "city": "La Neuville sous Chatenois",
    "description": ""
  },
  {
    "latitude": 6.33106,
    "longitude": 43.12364,
    "name": "Camping La Griotte **",
    "city": "Bormes les Mimosas",
    "description": ""
  },
  {
    "latitude": -4.01861,
    "longitude": 47.88194,
    "name": "Camping Les Hortensias **",
    "city": "Fouesnant",
    "description": "+33 298565295"
  },
  {
    "latitude": -1.1558,
    "longitude": 44.43569,
    "name": "Camping Mayotte Vacances ****",
    "city": "Biscarrosse",
    "description": "+33 558780000"
  },
  {
    "latitude": 3.49861,
    "longitude": 43.31111,
    "name": "Camping Les Sept Fonts **",
    "city": "Agde",
    "description": ""
  },
  {
    "latitude": 0.3604,
    "longitude": 42.86382,
    "name": "Camping Le Ruisseau **",
    "city": "Gouaux",
    "description": "+33 562399549"
  },
  {
    "latitude": 3.96096,
    "longitude": 46.70788,
    "name": "Camping L Etang Neuf ****",
    "city": "Issy l Eveque",
    "description": ""
  },
  {
    "latitude": 7.0723,
    "longitude": 48.61319,
    "name": "Camping Municipal **",
    "city": "Saint Quirin",
    "description": "+33 387086034"
  },
  {
    "latitude": -1.25395,
    "longitude": 43.19078,
    "name": "Camping La Truite **",
    "city": "Ascarat",
    "description": ""
  },
  {
    "latitude": -1.31744,
    "longitude": 46.33227,
    "name": "Camping La Cote de Lumiere **",
    "city": "La Faute sur Mer",
    "description": ""
  },
  {
    "latitude": 4.79708,
    "longitude": 43.95327,
    "name": "Camping Bagatelle ***",
    "city": "Avignon",
    "description": ""
  },
  {
    "latitude": -3.96899,
    "longitude": 48.69341,
    "name": "Camping Ar Kleguer ***",
    "city": "Saint Pol de Leon",
    "description": ""
  },
  {
    "latitude": 2.56584,
    "longitude": 44.64389,
    "name": "Camping Val de Saures **",
    "city": "Entraygues sur Truyere",
    "description": ""
  },
  {
    "latitude": 2.71343,
    "longitude": 45.05182,
    "name": "Camping Municipal Les Blats ***",
    "city": "Saint Jacques des Blats",
    "description": "+33 471470600"
  },
  {
    "latitude": -3.3879,
    "longitude": 48.8156,
    "name": "Camping Port l Epine ***",
    "city": "Trelevern",
    "description": ""
  },
  {
    "latitude": 2.63341,
    "longitude": 44.97165,
    "name": "Camping La Pommeraie ****",
    "city": "Vic sur Cere",
    "description": "+33 471475418"
  },
  {
    "latitude": 2.72446,
    "longitude": 43.15087,
    "name": "Camping AU0camping",
    "city": "Ferrals les Corbieres",
    "description": ""
  },
  {
    "latitude": -3.54499,
    "longitude": 47.76854,
    "name": "Camping Les Embruns **",
    "city": "Clohars Carnoet",
    "description": "rue du Philosophe Alain"
  },
  {
    "latitude": -2.3988,
    "longitude": 47.298,
    "name": "Camping Tremondec ***",
    "city": "Guerande",
    "description": ""
  },
  {
    "latitude": -1.43483,
    "longitude": 46.19335,
    "name": "Camping Municipal ***",
    "city": "La Couarde sur Mer",
    "description": ""
  },
  {
    "latitude": -1.1647,
    "longitude": 45.22285,
    "name": "Camping Cote d Argent ****",
    "city": "Hourtin Plage",
    "description": "+33 556091025"
  },
  {
    "latitude": 1.0277,
    "longitude": 44.08508,
    "name": "Camping Le Plan d Eau **",
    "city": "Saint Nicolas de la Grave",
    "description": "+33 563955002"
  },
  {
    "latitude": -1.19333,
    "longitude": 45.01185,
    "name": "Camping Les Grands Pins ****",
    "city": "Lacanau",
    "description": "+33 556032077"
  },
  {
    "latitude": -1.75039,
    "longitude": 49.3643,
    "name": "Camping Les Vikings ***",
    "city": "Saint Jean de la Riviere",
    "description": ""
  },
  {
    "latitude": 6.16726,
    "longitude": 49.12211,
    "name": "Camping Municipal Metz Plage ****",
    "city": "Metz",
    "description": ""
  },
  {
    "latitude": 8.79122,
    "longitude": 42.50384,
    "name": "Camping Paradella",
    "city": "Square",
    "description": ""
  },
  {
    "latitude": 2.76674,
    "longitude": 44.21468,
    "name": "Camping Le Caussanel ***",
    "city": "Canet de Salars",
    "description": "+33 565468519"
  },
  {
    "latitude": -1.20028,
    "longitude": 45.69833,
    "name": "Camping Bonne Anse plage ****",
    "city": "La Palmyre",
    "description": "+33 546224090"
  },
  {
    "latitude": 3.36224,
    "longitude": 43.28754,
    "name": "Camping L Emeraude ***",
    "city": "Portiragnes Plage",
    "description": "+33 467909376"
  },
  {
    "latitude": 8.95849,
    "longitude": 42.63318,
    "name": "Camping Le Bodri",
    "city": "Guardiola",
    "description": ""
  },
  {
    "latitude": 5.26802,
    "longitude": 44.3699,
    "name": "Camping ANUbertrop",
    "city": "Arpavon",
    "description": ""
  },
  {
    "latitude": 9.20102,
    "longitude": 41.39908,
    "name": "Camping Pian del Fosse",
    "city": "Saint Julien",
    "description": ""
  },
  {
    "latitude": 5.95535,
    "longitude": 48.20778,
    "name": "Camping Municipal **",
    "city": "Vittel",
    "description": "+33 329080271"
  },
  {
    "latitude": 0.64868,
    "longitude": 44.06596,
    "name": "Camping Municipal *",
    "city": "Astaffort",
    "description": "+33 553671006"
  },
  {
    "latitude": -2.28352,
    "longitude": 46.98523,
    "name": "Camping Municipal La Bosse **",
    "city": "L Epine",
    "description": "+33 251390107"
  },
  {
    "latitude": -1.19799,
    "longitude": 48.10927,
    "name": "Camping Municipal Saint Etienne **",
    "city": "Vitre",
    "description": ""
  },
  {
    "latitude": 1.04533,
    "longitude": 44.74165,
    "name": "Camping Les Hauts de Ratebout ****",
    "city": "Sainte Foy de Belves",
    "description": "+33 553290210"
  },
  {
    "latitude": -1.15011,
    "longitude": 44.78894,
    "name": "Camping La Canadienne ****",
    "city": "Ares",
    "description": "+33 556602491"
  },
  {
    "latitude": 5.78655,
    "longitude": 45.56906,
    "name": "Camping Les Chavannes ***",
    "city": "Novalaise",
    "description": ""
  },
  {
    "latitude": -3.55763,
    "longitude": 48.69305,
    "name": "Camping Les Capucines ****",
    "city": "Tredez",
    "description": ""
  },
  {
    "latitude": 2.5601,
    "longitude": 43.5624,
    "name": "Camping Le Manoir de Boutaric ****",
    "city": "Angles",
    "description": ""
  },
  {
    "latitude": 3.50875,
    "longitude": 48.50359,
    "name": "Camping Municipal **",
    "city": "Nogent sur Seine",
    "description": ""
  },
  {
    "latitude": 6.34883,
    "longitude": 43.78034,
    "name": "Camping Municipal le Grand Canyon",
    "city": "La Palud sur Verdon",
    "description": "route de Castellane"
  },
  {
    "latitude": -1.69217,
    "longitude": 43.33602,
    "name": "Camping Mendi-azpian **",
    "city": "Urrugne",
    "description": ""
  },
  {
    "latitude": 2.26065,
    "longitude": 44.68174,
    "name": "Camping Le Moulin de Chaules ***",
    "city": "Saint Constant",
    "description": "+33 471491102"
  },
  {
    "latitude": 2.25926,
    "longitude": 49.9208,
    "name": "Camping Parc des Cygnes ****",
    "city": "Amiens",
    "description": ""
  },
  {
    "latitude": -3.8013,
    "longitude": 47.79334,
    "name": "Camping Raguenez Plage ****",
    "city": "Nevez",
    "description": "+33 298068069"
  },
  {
    "latitude": 1.11154,
    "longitude": 44.89297,
    "name": "Camping Les Charmes ***",
    "city": "Saint Andre d Allas",
    "description": "+33 553310289"
  },
  {
    "latitude": 2.96406,
    "longitude": 48.37753,
    "name": "Camping Le Marcassin",
    "city": "Montereau Fault Yonne",
    "description": "chemin des Processions"
  },
  {
    "latitude": 1.572,
    "longitude": 50.673,
    "name": "Camping La Falaise ***",
    "city": "Equihen plage",
    "description": ""
  },
  {
    "latitude": 4.33254,
    "longitude": 47.63218,
    "name": "Camping Municipal ****",
    "city": "Montbard",
    "description": "rue M.Servet"
  },
  {
    "latitude": 3.16237,
    "longitude": 43.15986,
    "name": "Camping La Falaise ***",
    "city": "Narbonne plage",
    "description": "+33 468498077"
  },
  {
    "latitude": 9.55537,
    "longitude": 42.19944,
    "name": "Camping Bravone",
    "city": "Bravonne",
    "description": ""
  },
  {
    "latitude": -1.68366,
    "longitude": 48.54939,
    "name": "Camping Le Vieux Chene ****",
    "city": "Baguer-Pican",
    "description": ""
  },
  {
    "latitude": 6.35064,
    "longitude": 43.11798,
    "name": "Camping Camp du Domaine ****",
    "city": "Bormes les Mimosas",
    "description": "+33 494710312"
  },
  {
    "latitude": 9.28333,
    "longitude": 42.67306,
    "name": "Camping Acqua Dolce **",
    "city": "Saint Florent",
    "description": "+33 495370863"
  },
  {
    "latitude": 0.6549,
    "longitude": 47.1486,
    "name": "Camping Parc de Fierbois ****",
    "city": "Sainte Catherine de Fierbois",
    "description": ""
  },
  {
    "latitude": -2.59763,
    "longitude": 47.52172,
    "name": "Camping Closnenn ***",
    "city": "Damgan",
    "description": ""
  },
  {
    "latitude": 1.15589,
    "longitude": 49.30596,
    "name": "Camping Eure et Seine **",
    "city": "Pont de l Arche",
    "description": "quai Marechal Foch"
  },
  {
    "latitude": 2.26556,
    "longitude": 44.92334,
    "name": "Camping Municipal *",
    "city": "Lacapelle Viescamp",
    "description": ""
  },
  {
    "latitude": 4.63595,
    "longitude": 44.8097,
    "name": "Camping Domaine des Plantas ****",
    "city": "Les Ollieres / Eyrieux",
    "description": "+33 475662153"
  },
  {
    "latitude": 9.01199,
    "longitude": 42.44308,
    "name": "Camping Monte Cinto",
    "city": "Asco",
    "description": ""
  },
  {
    "latitude": -0.59923,
    "longitude": 44.87604,
    "name": "Camping Les Lierres **",
    "city": "Bruges",
    "description": "+33 556172261"
  },
  {
    "latitude": -0.18806,
    "longitude": 45.2179,
    "name": "Camping La Motte",
    "city": "Le Fouilloux",
    "description": ""
  },
  {
    "latitude": 6.2098,
    "longitude": 44.6245,
    "name": "Camping Les Auches ***",
    "city": "Ancelle",
    "description": ""
  },
  {
    "latitude": 2.25556,
    "longitude": 42.99472,
    "name": "Camping Le Val d Aleth **",
    "city": "Alet les Bains",
    "description": "+33 468699040"
  },
  {
    "latitude": -0.09351,
    "longitude": 42.99684,
    "name": "Camping La Prairie **",
    "city": "Lau Balagnas",
    "description": "+33 562971187"
  },
  {
    "latitude": 1.9676,
    "longitude": 43.7583,
    "name": "Camping Le Lac de Nabeillou **",
    "city": "Graulhet",
    "description": ""
  },
  {
    "latitude": -4.3533,
    "longitude": 48.40123,
    "name": "Camping Saint Jean ***",
    "city": "Plougastel Daoulas",
    "description": ""
  },
  {
    "latitude": -3.10569,
    "longitude": 47.47416,
    "name": "Camping Le Goviro **",
    "city": "Quiberon",
    "description": "+33 297501354"
  },
  {
    "latitude": -3.0619,
    "longitude": 47.5966,
    "name": "Camping Moulin de Kermaux ***",
    "city": "Carnac",
    "description": ""
  },
  {
    "latitude": 4.02732,
    "longitude": 44.03558,
    "name": "Camping Domaine",
    "city": "Gaujac",
    "description": ""
  },
  {
    "latitude": 3.93028,
    "longitude": 45.04265,
    "name": "Camping Municipal d Audinet",
    "city": "Brives Charensac",
    "description": ""
  },
  {
    "latitude": 6.34917,
    "longitude": 49.445,
    "name": "Camping Municipal",
    "city": "Sierck les Bains",
    "description": ""
  },
  {
    "latitude": 2.67154,
    "longitude": 45.01421,
    "name": "Camping Municipal ***",
    "city": "Thiezac",
    "description": "+33 471470041"
  },
  {
    "latitude": -2.14725,
    "longitude": 46.88558,
    "name": "Camping La Grand Cote ***",
    "city": "La Barre de Monts",
    "description": ""
  },
  {
    "latitude": -3.7997,
    "longitude": 47.81783,
    "name": "Camping Les Genets **",
    "city": "Nevez",
    "description": "+33 298068613"
  },