[
  {
    "latitude": 0.71776,
    "longitude": 45.18865,
    "name": "E.Leclerc",
    "city": "Perigueux",
    "description": ""
  },
  {
    "latitude": 4.60038,
    "longitude": 48.72986,
    "name": "E.Leclerc",
    "city": "Vitry-le-Fran�ois",
    "description": ""
  },
  {
    "latitude": 8.7372,
    "longitude": 41.93764,
    "name": "E.Leclerc",
    "city": "Rocade",
    "description": ""
  },
  {
    "latitude": 2.83909,
    "longitude": 42.53146,
    "name": "E.Leclerc",
    "city": "Le Boulou",
    "description": ""
  },
  {
    "latitude": 1.84272,
    "longitude": 44.92461,
    "name": "E.Leclerc",
    "city": "Biars",
    "description": ""
  },
  {
    "latitude": -3.1509,
    "longitude": 48.55519,
    "name": "E.Leclerc",
    "city": "Guingamp",
    "description": ""
  },
  {
    "latitude": 0.59323,
    "longitude": 43.66504,
    "name": "E.Leclerc",
    "city": "Auch (Rue Paul Val�ry)",
    "description": ""
  },
  {
    "latitude": 4.39319,
    "longitude": 43.83732,
    "name": "E.Leclerc",
    "city": "Nimes",
    "description": ""
  },
  {
    "latitude": 6.86194,
    "longitude": 47.62774,
    "name": "E.Leclerc",
    "city": "Belfort",
    "description": ""
  },
  {
    "latitude": 0.31775,
    "longitude": 44.38504,
    "name": "E.Leclerc",
    "city": "Tonneins",
    "description": ""
  },
  {
    "latitude": 4.92709,
    "longitude": 45.64993,
    "name": "E.Leclerc",
    "city": "Chaponnay",
    "description": ""
  },
  {
    "latitude": 4.0138,
    "longitude": 49.20311,
    "name": "E.Leclerc",
    "city": "Champfleury",
    "description": ""
  },
  {
    "latitude": 1.43367,
    "longitude": 49.73413,
    "name": "E.Leclerc",
    "city": "Neufch�tel",
    "description": ""
  },
  {
    "latitude": 2.75507,
    "longitude": 49.09959,
    "name": "E.Leclerc",
    "city": "Le Plessis-Belleville",
    "description": ""
  },
  {
    "latitude": 6.42158,
    "longitude": 48.19168,
    "name": "E.Leclerc",
    "city": "Golbey",
    "description": ""
  },
  {
    "latitude": -0.67597,
    "longitude": 45.74682,
    "name": "E.Leclerc",
    "city": "Saintes (cc Atlantique)",
    "description": ""
  },
  {
    "latitude": 5.3826,
    "longitude": 49.16706,
    "name": "E.Leclerc",
    "city": "Verdun",
    "description": ""
  },
  {
    "latitude": -0.69335,
    "longitude": 44.88458,
    "name": "E.Leclerc",
    "city": "Saint-M�dard-en-Jalle",
    "description": ""
  },
  {
    "latitude": -3.81446,
    "longitude": 48.58797,
    "name": "E.Leclerc",
    "city": "Morlaix",
    "description": ""
  },
  {
    "latitude": 6.8,
    "longitude": 43.43139,
    "name": "E.Leclerc",
    "city": "Saint-Rapha�l",
    "description": ""
  },
  {
    "latitude": 0.49789,
    "longitude": 44.86266,
    "name": "E.Leclerc",
    "city": "Bergerac (Route de P�rigueux)",
    "description": ""
  },
  {
    "latitude": 7.50717,
    "longitude": 47.60892,
    "name": "E.Leclerc",
    "city": "Blotzheim",
    "description": ""
  },
  {
    "latitude": 2.53193,
    "longitude": 48.81916,
    "name": "E.Leclerc",
    "city": "Champigny-sur-Marne (156 rue A. Fourny)",
    "description": ""
  },
  {
    "latitude": 5.36682,
    "longitude": 43.42023,
    "name": "E.Leclerc",
    "city": "Cabries",
    "description": "Quartier Plan de Campagne (Mo-Do 9.00-19.30. Fr - 20.00. Sa - 19.30)"
  },
  {
    "latitude": 7.3287,
    "longitude": 47.74292,
    "name": "E.Leclerc",
    "city": "Mulhouse",
    "description": ""
  },
  {
    "latitude": 3.21055,
    "longitude": 50.69766,
    "name": "E.Leclerc",
    "city": "Wattrelos (rue de Stalingrad)",
    "description": ""
  },
  {
    "latitude": 3.97882,
    "longitude": 43.6509,
    "name": "E.Leclerc",
    "city": "Saint-Aun�s",
    "description": ""
  },
  {
    "latitude": -3.44854,
    "longitude": 48.72582,
    "name": "E.Leclerc",
    "city": "Lannion (Bas)",
    "description": ""
  },
  {
    "latitude": -4.2622,
    "longitude": 48.46498,
    "name": "E.Leclerc",
    "city": "Landerneau",
    "description": ""
  },
  {
    "latitude": -1.68989,
    "longitude": 49.6616,
    "name": "E.Leclerc",
    "city": "Querqueville",
    "description": ""
  },
  {
    "latitude": 2.26146,
    "longitude": 49.87076,
    "name": "E.Leclerc",
    "city": "Salouel",
    "description": ""
  },
  {
    "latitude": 2.97976,
    "longitude": 43.18483,
    "name": "E.Leclerc",
    "city": "Narbonne",
    "description": "Voie Des Elysiques (Mo-Do 9.00-19.30. Fr - 20.00. Sa - 19.30)"
  },
  {
    "latitude": 4.70557,
    "longitude": 45.85689,
    "name": "E.Leclerc",
    "city": "Civrieux-d'Azergues",
    "description": ""
  },
  {
    "latitude": 2.48887,
    "longitude": 48.76457,
    "name": "E.Leclerc",
    "city": "Bonneuil-sur-Marne",
    "description": ""
  },
  {
    "latitude": 6.80917,
    "longitude": 43.43384,
    "name": "E.Leclerc",
    "city": "St Raphael",
    "description": "Boulevard de L'Aspe (Mo-Do 9.00-19.30. Fr - 20.00. Sa - 19.30)"
  },
  {
    "latitude": 0.13136,
    "longitude": 49.49161,
    "name": "E.Leclerc",
    "city": "Docksvauban",
    "description": ""
  },
  {
    "latitude": 2.22196,
    "longitude": 43.07353,
    "name": "E.Leclerc",
    "city": "Limoux",
    "description": ""
  },
  {
    "latitude": 4.38375,
    "longitude": 44.59867,
    "name": "E.Leclerc",
    "city": "Saint-Etienne-de-Fontbellon",
    "description": ""
  },
  {
    "latitude": -0.71893,
    "longitude": 49.27824,
    "name": "E.Leclerc",
    "city": "Bayeux",
    "description": ""
  },
  {
    "latitude": 2.37776,
    "longitude": 48.97786,
    "name": "E.Leclerc",
    "city": "Sarcelles",
    "description": ""
  },
  {
    "latitude": 0.71327,
    "longitude": 49.86905,
    "name": "E.Leclerc",
    "city": "Saint Valery",
    "description": ""
  },
  {
    "latitude": 4.63863,
    "longitude": 43.69785,
    "name": "E.Leclerc",
    "city": "Arles (ZI Nord)",
    "description": ""
  },
  {
    "latitude": 5.19339,
    "longitude": 48.75624,
    "name": "E.Leclerc",
    "city": "Bar-le-Duc (ZAC de la Grande Terre)",
    "description": ""
  },
  {
    "latitude": 2.00238,
    "longitude": 46.95848,
    "name": "E.Leclerc",
    "city": "Issoudun",
    "description": ""
  },
  {
    "latitude": -0.16113,
    "longitude": 45.47044,
    "name": "E.Leclerc",
    "city": "Barbezieux",
    "description": ""
  },
  {
    "latitude": 0.22456,
    "longitude": 49.50757,
    "name": "E.Leclerc",
    "city": "Gonfreville-l'Orcher",
    "description": ""
  },
  {
    "latitude": 1.51572,
    "longitude": 43.66853,
    "name": "E.Leclerc",
    "city": "Rouffiac",
    "description": ""
  },
  {
    "latitude": -4.47103,
    "longitude": 48.43026,
    "name": "E.Leclerc",
    "city": "Brest (Kergaradec)",
    "description": ""
  },
  {
    "latitude": 2.24725,
    "longitude": 48.1879,
    "name": "E.Leclerc",
    "city": "Pithiviers",
    "description": ""
  },
  {
    "latitude": 4.6876,
    "longitude": 49.3919,
    "name": "E.Leclerc",
    "city": "Vouziers",
    "description": ""
  },
  {
    "latitude": 2.44815,
    "longitude": 49.32281,
    "name": "E.Leclerc",
    "city": "Cauffry",
    "description": ""
  },
  {
    "latitude": 2.60385,
    "longitude": 48.95021,
    "name": "E.Leclerc",
    "city": "Villeparisis",
    "description": ""
  },
  {
    "latitude": 6.11836,
    "longitude": 49.30695,
    "name": "E.Leclerc",
    "city": "Fameck",
    "description": ""
  },
  {
    "latitude": -0.87059,
    "longitude": 48.83833,
    "name": "E.Leclerc",
    "city": "Vire (hypermarch�)",
    "description": ""
  },
  {
    "latitude": 2.32838,
    "longitude": 43.22528,
    "name": "E.Leclerc",
    "city": "Carcassonne",
    "description": ""
  },
  {
    "latitude": 2.41623,
    "longitude": 51.04628,
    "name": "E.Leclerc",
    "city": "Rosendael",
    "description": ""
  },
  {
    "latitude": -0.96021,
    "longitude": 45.92372,
    "name": "E.Leclerc",
    "city": "Rochefort (avenue Jacques Demy)",
    "description": ""
  },
  {
    "latitude": 2.33453,
    "longitude": 48.95458,
    "name": "E.Leclerc",
    "city": "Epinay-sur-Seine (Route de Saint-Leu)",
    "description": ""
  },
  {
    "latitude": 5.83788,
    "longitude": 49.16468,
    "name": "E.Leclerc",
    "city": "Conflans-en-Jarnisy",
    "description": ""
  },
  {
    "latitude": 0.67312,
    "longitude": 47.42441,
    "name": "E.Leclerc",
    "city": "Saint-Cyr-sur-Loire (1 Route de Rouziers)",
    "description": ""
  },
  {
    "latitude": -2.76042,
    "longitude": 48.53521,
    "name": "E.Leclerc",
    "city": "Pl�rin",
    "description": ""
  },
  {
    "latitude": 2.88365,
    "longitude": 42.68704,
    "name": "E.Leclerc",
    "city": "Perpignan",
    "description": ""
  },
  {
    "latitude": 1.32749,
    "longitude": 47.60688,
    "name": "E.Leclerc",
    "city": "Blois",
    "description": ""
  },
  {
    "latitude": -1.35065,
    "longitude": 46.19542,
    "name": "E.Leclerc",
    "city": "Saint-Martin-De-R�",
    "description": ""
  },
  {
    "latitude": 4.28413,
    "longitude": 45.53611,
    "name": "E.Leclerc",
    "city": "Andr�zieux",
    "description": ""
  },
  {
    "latitude": 7.33846,
    "longitude": 48.19033,
    "name": "E.Leclerc",
    "city": "Ribeauvill�",
    "description": ""
  },
  {
    "latitude": -0.55999,
    "longitude": 45.57357,
    "name": "E.Leclerc",
    "city": "Pons",
    "description": ""
  },
  {
    "latitude": 6.81087,
    "longitude": 47.50024,
    "name": "E.Leclerc",
    "city": "Montb�liard",
    "description": ""
  },
  {
    "latitude": -4.33985,
    "longitude": 48.56314,
    "name": "E.Leclerc",
    "city": "Le Folgo�t",
    "description": ""
  },
  {
    "latitude": -0.63043,
    "longitude": 48.29786,
    "name": "E.Leclerc",
    "city": "Mayenne",
    "description": ""
  },
  {
    "latitude": 1.45987,
    "longitude": 48.86391,
    "name": "E.Leclerc",
    "city": "Anetdis",
    "description": ""
  },
  {
    "latitude": 9.49355,
    "longitude": 42.59969,
    "name": "E.Leclerc",
    "city": "Borgo",
    "description": ""
  },
  {
    "latitude": -1.34252,
    "longitude": 48.67838,
    "name": "E.Leclerc",
    "city": "Avranches",
    "description": ""
  },
  {
    "latitude": 0.10721,
    "longitude": 43.86459,
    "name": "E.Leclerc",
    "city": "Eauze",
    "description": ""
  },
  {
    "latitude": 0.60784,
    "longitude": 49.10303,
    "name": "E.Leclerc",
    "city": "Menneval",
    "description": ""
  },
  {
    "latitude": 1.4802,
    "longitude": 46.23814,
    "name": "E.Leclerc",
    "city": "La Souterraine",
    "description": ""
  },
  {
    "latitude": -2.25623,
    "longitude": 47.28755,
    "name": "E.Leclerc",
    "city": "Saint-Nazaire (l'Immacul�e)",
    "description": ""
  },
  {
    "latitude": 7.46155,
    "longitude": 48.2819,
    "name": "E.Leclerc",
    "city": "S�lestat",
    "description": ""
  },
  {
    "latitude": -1.01533,
    "longitude": 46.85777,
    "name": "E.Leclerc",
    "city": "Les Herbiers",
    "description": ""
  },
  {
    "latitude": -1.43621,
    "longitude": 46.64741,
    "name": "E.Leclerc",
    "city": "La Roche-sur-Yon (SUD)",
    "description": ""
  },
  {
    "latitude": 4.92645,
    "longitude": 49.69829,
    "name": "E.Leclerc",
    "city": "Sedan",
    "description": ""
  },
  {
    "latitude": 2.94521,
    "longitude": 50.4989,
    "name": "E.Leclerc",
    "city": "Carvin",
    "description": ""
  },
  {
    "latitude": -1.0445,
    "longitude": 43.73271,
    "name": "E.Leclerc",
    "city": "Saint Paul",
    "description": ""
  },
  {
    "latitude": -0.24131,
    "longitude": 44.93005,
    "name": "E.Leclerc",
    "city": "Libourne",
    "description": ""
  },
  {
    "latitude": 2.25669,
    "longitude": 49.15555,
    "name": "E.Leclerc",
    "city": "Chambly",
    "description": ""
  },
  {
    "latitude": -0.41091,
    "longitude": 46.33772,
    "name": "E.Leclerc",
    "city": "Niort (580 avenue de Paris)",
    "description": ""
  },
  {
    "latitude": 2.03721,
    "longitude": 48.79896,
    "name": "E.Leclerc",
    "city": "Bois-d'Arcy",
    "description": ""
  },
  {
    "latitude": -0.8499,
    "longitude": 47.05183,
    "name": "E.Leclerc",
    "city": "Cholet",
    "description": ""
  },
  {
    "latitude": 9.443,
    "longitude": 42.70626,
    "name": "E.Leclerc",
    "city": "Bastia",
    "description": ""
  },
  {
    "latitude": 2.59105,
    "longitude": 48.77585,
    "name": "E.Leclerc",
    "city": "Pontault Combault",
    "description": ""
  },
  {
    "latitude": 2.7887,
    "longitude": 50.30388,
    "name": "E.Leclerc",
    "city": "Saint Nicolas",
    "description": ""
  },
  {
    "latitude": 4.70303,
    "longitude": 48.23825,
    "name": "E.Leclerc",
    "city": "Bar-sur-Aube",
    "description": ""
  },
  {
    "latitude": 2.27805,
    "longitude": 49.14443,
    "name": "E.Leclerc",
    "city": "Persan",
    "description": ""
  },
  {
    "latitude": 7.18703,
    "longitude": 43.71483,
    "name": "E.Leclerc",
    "city": "Nice Saint-Isidore",
    "description": "N202 (Mo-Do 9.00-19.30. Fr - 20.00. Sa - 19.30)"
  },
  {
    "latitude": 0.25228,
    "longitude": 47.17335,
    "name": "E.Leclerc",
    "city": "Chinon",
    "description": ""
  },
  {
    "latitude": 2.53221,
    "longitude": 48.90618,
    "name": "E.Leclerc",
    "city": "Clichy-sous-Bois",
    "description": ""
  },
  {
    "latitude": 2.11084,
    "longitude": 43.9178,
    "name": "E.Leclerc",
    "city": "Albi (Le Sequestre)",
    "description": ""
  },
  {
    "latitude": -0.20929,
    "longitude": 46.99783,
    "name": "E.Leclerc",
    "city": "Thouars",
    "description": ""
  },
  {
    "latitude": -3.05605,
    "longitude": 48.77909,
    "name": "E.Leclerc",
    "city": "Paimpol",
    "description": ""
  },
  {
    "latitude": 1.03813,
    "longitude": 49.5129,
    "name": "E.Leclerc",
    "city": "Le Houlme",
    "description": ""
  },
  {
    "latitude": 3.9622,
    "longitude": 49.06481,
    "name": "E.Leclerc",
    "city": "Dizy",
    "description": ""
  },
  {
    "latitude": 0.65219,
    "longitude": 48.18316,
    "name": "E.Leclerc",
    "city": "La Fert�-Bernard",
    "description": ""
  },
  {
    "latitude": 4.07555,
    "longitude": 49.91407,
    "name": "E.Leclerc",
    "city": "Hirson",
    "description": ""
  },
  {
    "latitude": -2.15831,
    "longitude": 47.24397,
    "name": "E.Leclerc",
    "city": "Saint-Br�vin-les-Pins",
    "description": ""
  },
  {
    "latitude": -1.31807,
    "longitude": 45.94561,
    "name": "E.Leclerc",
    "city": "Saint-Pierre-Ol�ron",
    "description": ""
  },
  {
    "latitude": 7.49599,
    "longitude": 48.467,
    "name": "E.Leclerc",
    "city": "Obernai",
    "description": ""
  },
  {
    "latitude": -0.7405,
    "longitude": 46.11027,
    "name": "E.Leclerc",
    "city": "Surgeres",
    "description": ""
  },
  {
    "latitude": -3.00611,
    "longitude": 47.66139,
    "name": "E.Leclerc",
    "city": "Auray (Impasse du Jacques Cartier)",
    "description": ""
  },
  {
    "latitude": 6.94293,
    "longitude": 43.65368,
    "name": "E.Leclerc",
    "city": "Grasse",
    "description": "Chemin de L'Orme (Mo-Do 9.00-19.30. Fr - 20.00. Sa - 19.30)"
  },
  {
    "latitude": 0.35828,
    "longitude": 46.56565,
    "name": "E.Leclerc",
    "city": "Poitiers (93 route de Gen�ay)",
    "description": ""
  },
  {
    "latitude": -1.19588,
    "longitude": 47.37349,
    "name": "E.Leclerc",
    "city": "Saint-G�r�on",
    "description": ""
  },
  {
    "latitude": 5.87972,
    "longitude": 43.10001,
    "name": "E.Leclerc",
    "city": "La-Seyne-sur-Mer - La Seyne",
    "description": "Quartier Lery (Mo-Do 9.00-19.30. Fr - 20.00. Sa - 19.30)"
  },
  {
    "latitude": 2.15409,
    "longitude": 43.95502,
    "name": "E.Leclerc",
    "city": "Albi (Lescure)",
    "description": ""
  },
  {
    "latitude": -0.58355,
    "longitude": 44.80006,
    "name": "E.Leclerc",
    "city": "Talence",
    "description": ""
  },
  {
    "latitude": -1.20653,
    "longitude": 48.11485,
    "name": "E.Leclerc",
    "city": "Vitr� (Rue M�e)",
    "description": ""
  },
  {
    "latitude": 3.43083,
    "longitude": 50.43527,
    "name": "E.Leclerc",
    "city": "Saint-Amand-les-Eaux",
    "description": ""
  },
  {
    "latitude": 2.0288,
    "longitude": 48.94184,
    "name": "E.Leclerc",
    "city": "Carri�res-sous-Poissy",
    "description": ""
  },
  {
    "latitude": 3.992,
    "longitude": 46.48704,
    "name": "E.Leclerc",
    "city": "Digoin",
    "description": ""
  },
  {
    "latitude": 7.68973,
    "longitude": 48.52523,
    "name": "E.Leclerc",
    "city": "Geispolsheim",
    "description": ""
  },
  {
    "latitude": 5.26842,
    "longitude": 45.5952,
    "name": "E.Leclerc",
    "city": "Bourgoin-Jallieu (Espace Barbusse)",
    "description": ""
  },
  {
    "latitude": 2.73493,
    "longitude": 50.72504,
    "name": "E.Leclerc",
    "city": "Bailleul",
    "description": ""
  },
  {
    "latitude": 2.5875,
    "longitude": 46.35317,
    "name": "E.Leclerc",
    "city": "Montlu�on (avenue Pierre Villon)",
    "description": ""
  },
  {
    "latitude": 3.40349,
    "longitude": 50.12457,
    "name": "E.Leclerc",
    "city": "Caudry (rue de Cambrai)",
    "description": ""
  },
  {
    "latitude": 2.44511,
    "longitude": 48.71562,
    "name": "E.Leclerc",
    "city": "Montgeron",
    "description": ""
  },
  {
    "latitude": 4.85145,
    "longitude": 45.54214,
    "name": "E.Leclerc",
    "city": "Vienne",
    "description": ""
  },
  {
    "latitude": -2.89902,
    "longitude": 48.39999,
    "name": "E.Leclerc",
    "city": "Saint-Brandan",
    "description": ""
  },
  {
    "latitude": 7.17055,
    "longitude": 47.79389,
    "name": "E.Leclerc",
    "city": "Cernay",
    "description": ""
  },
  {
    "latitude": 2.2045,
    "longitude": 48.88295,
    "name": "E.Leclerc",
    "city": "Nanterre",
    "description": ""
  },
  {
    "latitude": -3.34938,
    "longitude": 47.76502,
    "name": "E.Leclerc",
    "city": "Lanester",
    "description": ""
  },
  {
    "latitude": -0.46915,
    "longitude": 46.32984,
    "name": "E.Leclerc",
    "city": "Niort (68 route de Fontenay)",
    "description": ""
  },
  {
    "latitude": -0.03852,
    "longitude": 43.11019,
    "name": "E.Leclerc",
    "city": "Lourdes",
    "description": ""
  },
  {
    "latitude": -1.89604,
    "longitude": 46.85383,
    "name": "E.Leclerc",
    "city": "Challans",
    "description": ""
  },
  {
    "latitude": 2.2065,
    "longitude": 48.9904,
    "name": "E.Leclerc",
    "city": "Franconville",
    "description": ""
  },
  {
    "latitude": 4.69984,
    "longitude": 45.98326,
    "name": "E.Leclerc",
    "city": "Gleiz�",
    "description": ""
  },
  {
    "latitude": 7.34124,
    "longitude": 47.7907,
    "name": "E.Leclerc",
    "city": "Kingersheim",
    "description": ""
  },
  {
    "latitude": 4.74064,
    "longitude": 45.42845,
    "name": "E.Leclerc",
    "city": "Chavanay",
    "description": ""
  },
  {
    "latitude": 6.61417,
    "longitude": 48.01722,
    "name": "E.Leclerc",
    "city": "Saint-Etienne-l�s-Remiremont (Z.A. La Chaume)",
    "description": ""
  },
  {
    "latitude": 0.69722,
    "longitude": 47.35648,
    "name": "E.Leclerc",
    "city": "Jou�-l�s-Tours (6",
    "description": "Rue Bondonni�re)"
  },
  {
    "latitude": 5.33578,
    "longitude": 47.8327,
    "name": "E.Leclerc",
    "city": "Saint-Geosmes",
    "description": ""
  },
  {
    "latitude": -0.25315,
    "longitude": 44.54296,
    "name": "E.Leclerc",
    "city": "Langon",
    "description": ""
  },
  {
    "latitude": 3.97587,
    "longitude": 47.86655,
    "name": "E.Leclerc",
    "city": "Tonnerre",
    "description": ""
  },
  {
    "latitude": 4.31721,
    "longitude": 48.95923,
    "name": "E.Leclerc",
    "city": "Fagni�res",
    "description": ""
  },
  {
    "latitude": 2.12279,
    "longitude": 49.05627,
    "name": "E.Leclerc",
    "city": "Saint-Ouen-l'Aum�ne",
    "description": ""
  },
  {
    "latitude": 1.17909,
    "longitude": 49.23722,
    "name": "E.Leclerc",
    "city": "Louviers",
    "description": ""
  },
  {
    "latitude": 1.9159,
    "longitude": 47.84289,
    "name": "E.Leclerc",
    "city": "Olivet",
    "description": ""
  },
  {
    "latitude": 2.40034,
    "longitude": 43.49761,
    "name": "E.Leclerc",
    "city": "Bout-du-Pont-de-Larn",
    "description": ""
  },
  {
    "latitude": -1.68393,
    "longitude": 48.13901,
    "name": "E.Leclerc",
    "city": "Saint-Gr�goire (Rue de l'Etang au Diable)",
    "description": ""
  },
  {
    "latitude": 6.69531,
    "longitude": 49.18868,
    "name": "E.Leclerc",
    "city": "Creutzwald",
    "description": ""
  },
  {
    "latitude": 5.86735,
    "longitude": 43.06664,
    "name": "E.Leclerc",
    "city": "La-Seyne-sur-Mer - Tamaridis",
    "description": "Corniche de Tamaris (Mo-Do 9.00-19.30. Fr - 20.00. Sa - 19.30)"
  },
  {
    "latitude": 0.01587,
    "longitude": 43.23938,
    "name": "E.Leclerc",
    "city": "Tarbes / Ibos",
    "description": ""
  },
  {
    "latitude": 6.51733,
    "longitude": 47.68387,
    "name": "E.Leclerc",
    "city": "Lure",
    "description": ""
  },
  {
    "latitude": -1.58796,
    "longitude": 47.26173,
    "name": "E.Leclerc",
    "city": "Orvault (Centre Commercial Grand Val)",
    "description": ""
  },
  {
    "latitude": 3.58051,
    "longitude": 47.79695,
    "name": "E.Leclerc",
    "city": "Auxerre",
    "description": ""
  },
  {
    "latitude": 0.8324,
    "longitude": 48.32991,
    "name": "E.Leclerc",
    "city": "Nogent-le-Rotrou (Margon)",
    "description": ""
  },
  {
    "latitude": -1.77889,
    "longitude": 46.51471,
    "name": "E.Leclerc",
    "city": "Olonne-sur-Mer",
    "description": ""
  },
  {
    "latitude": 3.32339,
    "longitude": 49.84111,
    "name": "E.Leclerc",
    "city": "Harly",
    "description": ""
  },
  {
    "latitude": 7.01067,
    "longitude": 43.56915,
    "name": "E.Leclerc",
    "city": "Le Cannet",
    "description": "4-8 Boulevard Paul Doumer (Mo-Do 9.00-19.30. Fr - 20.00. Sa - 19.30)"
  },
  {
    "latitude": 1.91957,
    "longitude": 47.94438,
    "name": "E.Leclerc",
    "city": "Fleury-les-Aubrais",
    "description": ""
  },
  {
    "latitude": 6.17193,
    "longitude": 49.21443,
    "name": "E.Leclerc",
    "city": "Hauconcourt",
    "description": ""
  },
  {
    "latitude": -1.14345,
    "longitude": 46.45909,
    "name": "E.Leclerc",
    "city": "Lu�on",
    "description": ""
  },
  {
    "latitude": -1.11464,
    "longitude": 44.77104,
    "name": "E.Leclerc",
    "city": "Ar�s",
    "description": ""
  },
  {
    "latitude": -0.49941,
    "longitude": 46.84907,
    "name": "E.Leclerc",
    "city": "Bressuire",
    "description": ""
  },
  {
    "latitude": 6.09279,
    "longitude": 44.563,
    "name": "E.Leclerc",
    "city": "Gap",
    "description": ""
  },
  {
    "latitude": 2.08339,
    "longitude": 49.0085,
    "name": "E.Leclerc",
    "city": "Conflans-Sainte-Honorine (rue des Cayennes)",
    "description": ""
  },
  {
    "latitude": 1.51666,
    "longitude": 43.56528,
    "name": "E.Leclerc",
    "city": "Saint-Orens-de-Gameville",
    "description": ""
  },
  {
    "latitude": 0.34616,
    "longitude": 45.25372,
    "name": "E.Leclerc",
    "city": "Riberac",
    "description": ""
  },
  {
    "latitude": -1.40511,
    "longitude": 46.67331,
    "name": "E.Leclerc",
    "city": "La-Roche-sur-Yon",
    "description": ""
  },
  {
    "latitude": 5.15052,
    "longitude": 48.12418,
    "name": "E.Leclerc",
    "city": "Chaumont",
    "description": ""
  },
  {
    "latitude": 0.26493,
    "longitude": 49.14364,
    "name": "E.Leclerc",
    "city": "Lisieux",
    "description": ""
  },
  {
    "latitude": 3.23752,
    "longitude": 43.33821,
    "name": "E.Leclerc",
    "city": "Beziers",
    "description": "Avenue Du Pech de Valras (Mo-Do 9.00-19.30. Fr - 20.00. Sa - 19.30)"
  },
  {
    "latitude": 2.36249,
    "longitude": 48.80888,
    "name": "E.Leclerc",
    "city": "Kremlin Bic�tre (avenue de Fontainebleau)",
    "description": ""
  },
  {
    "latitude": 1.26981,
    "longitude": 45.8694,
    "name": "E.Leclerc",
    "city": "Limoges",
    "description": ""
  },
  {
    "latitude": 7.75526,
    "longitude": 48.57399,
    "name": "E.Leclerc",
    "city": "Strasbourg",
    "description": ""
  },
  {
    "latitude": -0.80935,
    "longitude": 48.06447,
    "name": "E.Leclerc",
    "city": "Saint Berthevin",
    "description": ""
  },
  {
    "latitude": 5.02011,
    "longitude": 47.27951,
    "name": "E.Leclerc",
    "city": "Marsannay-la-C�te",
    "description": ""
  },
  {
    "latitude": -1.16677,
    "longitude": 44.66257,
    "name": "E.Leclerc",
    "city": "Arcachon",
    "description": ""
  },
  {
    "latitude": -1.55053,
    "longitude": 48.83896,
    "name": "E.Leclerc",
    "city": "Granville",
    "description": ""
  },
  {
    "latitude": -0.87878,
    "longitude": 47.67967,
    "name": "E.Leclerc",
    "city": "Segre",
    "description": ""
  },
  {
    "latitude": 4.82141,
    "longitude": 45.89172,
    "name": "E.Leclerc",
    "city": "Genay",
    "description": ""
  },
  {
    "latitude": -0.73495,
    "longitude": 48.05471,
    "name": "E.Leclerc",
    "city": "Laval",
    "description": ""
  },
  {
    "latitude": 4.29785,
    "longitude": 45.38891,
    "name": "E.Leclerc",
    "city": "Firminy",
    "description": ""
  },
  {
    "latitude": -0.56179,
    "longitude": 48.74122,
    "name": "E.Leclerc",
    "city": "Flers",
    "description": ""
  },
  {
    "latitude": -1.57134,
    "longitude": 47.19341,
    "name": "E.Leclerc",
    "city": "Rez� (Leclerc Atout Sud)",
    "description": ""
  },
  {
    "latitude": 1.54553,
    "longitude": 45.16669,
    "name": "E.Leclerc",
    "city": "Brive-la-Gaillarde",
    "description": ""
  },
  {
    "latitude": 3.17361,
    "longitude": 50.52277,
    "name": "E.Leclerc",
    "city": "Templeuve",
    "description": ""
  },
  {
    "latitude": 4.47377,
    "longitude": 46.80437,
    "name": "E.Leclerc",
    "city": "Le Breuil",
    "description": ""
  },
  {
    "latitude": 3.09016,
    "longitude": 48.80369,
    "name": "E.Leclerc",
    "city": "Coulommiers (Boulevard de la Marne)",
    "description": ""
  },
  {
    "latitude": 0.92025,
    "longitude": 49.1472,
    "name": "E.Leclerc",
    "city": "Le Neubourg",
    "description": ""
  },
  {
    "latitude": 6.80873,
    "longitude": 49.13727,
    "name": "E.Leclerc",
    "city": "Betting-l�s-Saint-Avold",
    "description": ""
  },
  {
    "latitude": 1.00598,
    "longitude": 47.11012,
    "name": "E.Leclerc",
    "city": "Loches",
    "description": ""
  },
  {
    "latitude": 3.51128,
    "longitude": 47.97315,
    "name": "E.Leclerc",
    "city": "Migennes",
    "description": ""
  },
  {
    "latitude": 3.29154,
    "longitude": 48.54728,
    "name": "E.Leclerc",
    "city": "Provins",
    "description": ""
  },
  {
    "latitude": 2.8535,
    "longitude": 49.59015,
    "name": "E.Leclerc",
    "city": "Lassigny",
    "description": ""
  },
  {
    "latitude": 6.06165,
    "longitude": 43.40778,
    "name": "E.Leclerc",
    "city": "Brignoles",
    "description": "N7 Quartier Saint Jean (Mo-Do 9.00-19.30. Fr - 20.00. Sa - 19.30)"
  },
  {
    "latitude": 4.3039,
    "longitude": 46.95712,
    "name": "E.Leclerc",
    "city": "Autun",
    "description": ""
  },
  {
    "latitude": -1.51361,
    "longitude": 47.24893,
    "name": "E.Leclerc",
    "city": "Nantes (Centre Commercial Paridis)",
    "description": ""
  },
  {
    "latitude": 2.05916,
    "longitude": 48.96117,
    "name": "E.Leclerc",
    "city": "Ach�res",
    "description": ""
  },
  {
    "latitude": 2.39385,
    "longitude": 48.65241,
    "name": "E.Leclerc",
    "city": "Grigny",
    "description": ""
  },
  {
    "latitude": 2.13681,
    "longitude": 48.44175,
    "name": "E.Leclerc",
    "city": "Etampes",
    "description": ""
  },
  {
    "latitude": -3.71984,
    "longitude": 48.01964,
    "name": "E.Leclerc",
    "city": "Sca�r",
    "description": ""
  },
  {
    "latitude": -1.23062,
    "longitude": 49.3015,
    "name": "E.Leclerc",
    "city": "Carentan",
    "description": ""
  },
  {
    "latitude": 2.11064,
    "longitude": 50.71297,
    "name": "E.Leclerc",
    "city": "Lumbres",
    "description": ""
  },
  {
    "latitude": 1.76169,
    "longitude": 45.25264,
    "name": "E.Leclerc",
    "city": "Tulle (Place du Forail)",
    "description": ""
  },
  {
    "latitude": 3.02497,
    "longitude": 50.41673,
    "name": "E.Leclerc",
    "city": "Courcelles",
    "description": ""
  },
  {
    "latitude": 1.71312,
    "longitude": 49.4826,
    "name": "E.Leclerc",
    "city": "Gournay",
    "description": ""
  },
  {
    "latitude": 1.46394,
    "longitude": 49.09544,
    "name": "E.Leclerc",
    "city": "Vernon",
    "description": ""
  },
  {
    "latitude": 6.09552,
    "longitude": 46.24406,
    "name": "E.Leclerc",
    "city": "Ferney-Voltaire",
    "description": ""
  },
  {
    "latitude": -3.61926,
    "longitude": 48.14263,
    "name": "E.Leclerc",
    "city": "Gourin",
    "description": ""
  },
  {
    "latitude": 2.57848,
    "longitude": 46.31787,
    "name": "E.Leclerc",
    "city": "Montlu�on (route de Vaux)",
    "description": ""
  },
  {
    "latitude": 4.11318,
    "longitude": 46.46762,
    "name": "E.Leclerc",
    "city": "Paray-Le-Monial",
    "description": ""
  },
  {
    "latitude": 4.74941,
    "longitude": 43.96033,
    "name": "E.Leclerc",
    "city": "Les Angles",
    "description": ""
  },
  {
    "latitude": -1.71535,
    "longitude": 48.1041,
    "name": "E.Leclerc",
    "city": "Rennes (Cleunay)",
    "description": ""
  },
  {
    "latitude": 4.49319,
    "longitude": 45.46102,
    "name": "E.Leclerc",
    "city": "Saint-Chamond",
    "description": ""
  },
  {
    "latitude": 6.85894,
    "longitude": 48.40762,
    "name": "E.Leclerc",
    "city": "Raon L'etape",
    "description": ""
  },
  {
    "latitude": 7.95432,
    "longitude": 48.80104,
    "name": "E.Leclerc",
    "city": "Soufflenheim",
    "description": ""
  },
  {
    "latitude": 6.11437,
    "longitude": 43.11149,
    "name": "E.Leclerc",
    "city": "Hy�res",
    "description": ""
  },
  {
    "latitude": -2.41154,
    "longitude": 47.32868,
    "name": "E.Leclerc",
    "city": "Gu�rande",
    "description": ""
  },
  {
    "latitude": 5.40305,
    "longitude": 43.25131,
    "name": "E.Leclerc",
    "city": "Marseille-Sormiou",
    "description": "Z.A.C. Baou de Sormiou (Mo-Do 9.00-19.30. Fr - 20.00. Sa - 19.30)"
  },
  {
    "latitude": -0.62512,
    "longitude": 45.74283,
    "name": "E.Leclerc",
    "city": "Saintes (rue Gautier)",
    "description": ""
  },
  {
    "latitude": 2.9426,
    "longitude": 48.37409,
    "name": "E.Leclerc",
    "city": "Varennes",
    "description": ""
  },
  {
    "latitude": -1.2256,
    "longitude": 48.3517,
    "name": "E.Leclerc",
    "city": "Fougeres",
    "description": ""
  },
  {
    "latitude": -4.34666,
    "longitude": 48.38371,
    "name": "E.Leclerc",
    "city": "Plougastel-Daoulas",
    "description": ""
  },
  {
    "latitude": -0.68629,
    "longitude": 47.83181,
    "name": "E.Leclerc",
    "city": "Chateau Gontier",
    "description": ""
  },
  {
    "latitude": 2.04222,
    "longitude": 48.9564,
    "name": "E.Leclerc",
    "city": "Carri�res-Sous-Poissy",
    "description": ""
  },
  {
    "latitude": -0.56716,
    "longitude": 44.86234,
    "name": "E.Leclerc",
    "city": "Bordeaux Saint Louis",
    "description": ""
  },
  {
    "latitude": 5.92723,
    "longitude": 48.67456,
    "name": "E.Leclerc",
    "city": "Dommartin-l�s-Toul",
    "description": ""
  },
  {
    "latitude": 0.07979,
    "longitude": 43.22091,
    "name": "E.Leclerc",
    "city": "Tarbes",
    "description": ""
  },
  {
    "latitude": 0.91616,
    "longitude": 45.89599,
    "name": "E.Leclerc",
    "city": "Saint Junien",
    "description": ""
  },
  {
    "latitude": 3.94356,
    "longitude": 49.02403,
    "name": "E.Leclerc",
    "city": "Pierry (Rue Jules Lobet)",
    "description": ""
  },
  {
    "latitude": 2.29786,
    "longitude": 45.54242,
    "name": "E.Leclerc",
    "city": "Ussel (Route de Ponty)",
    "description": ""
  },
  {
    "latitude": -0.94919,
    "longitude": 45.67741,
    "name": "E.Leclerc",
    "city": "Saujon (route de l'Eguille)",
    "description": ""
  },
  {
    "latitude": 1.62498,
    "longitude": 43.09578,
    "name": "E.Leclerc",
    "city": "Ariedis",
    "description": ""
  },
  {
    "latitude": 0.22702,
    "longitude": 48.02267,
    "name": "E.Leclerc",
    "city": "Le Mans",
    "description": ""
  },
  {
    "latitude": -3.91645,
    "longitude": 47.88846,
    "name": "E.Leclerc",
    "city": "Concarneau",
    "description": ""
  },
  {
    "latitude": 7.7342,
    "longitude": 48.61001,
    "name": "E.Leclerc",
    "city": "Marmoutier",
    "description": ""
  },
  {
    "latitude": 0.64153,
    "longitude": 48.7607,
    "name": "E.Leclerc",
    "city": "L'Aigle-St Sulpice",
    "description": ""
  },
  {
    "latitude": -2.53513,
    "longitude": 48.58183,
    "name": "E.Leclerc",
    "city": "Pleneuf",
    "description": ""
  },
  {
    "latitude": 2.59735,
    "longitude": 44.39168,
    "name": "E.Leclerc",
    "city": "S�bazac-Concour�s",
    "description": ""
  },
  {
    "latitude": 4.82127,
    "longitude": 45.2773,
    "name": "E.Leclerc",
    "city": "Saint Rambert D'albon",
    "description": ""
  },
  {
    "latitude": -0.6233,
    "longitude": 43.37361,
    "name": "E.Leclerc",
    "city": "Mourenx",
    "description": ""
  },
  {
    "latitude": 3.41571,
    "longitude": 46.11317,
    "name": "E.Leclerc",
    "city": "Bellerive-sur-Allier",
    "description": ""
  },
  {
    "latitude": 0.24314,
    "longitude": 44.84156,
    "name": "E.Leclerc",
    "city": "Pineuilh",
    "description": ""
  },
  {
    "latitude": -1.58401,
    "longitude": 49.63703,
    "name": "E.Leclerc",
    "city": "Tourlaville (Rue des M�tiers)",
    "description": ""
  },
  {
    "latitude": -0.3394,
    "longitude": 45.68704,
    "name": "E.Leclerc",
    "city": "Cognac (105 Rue basse Saint Martin)",
    "description": ""
  },
  {
    "latitude": 4.38358,
    "longitude": 45.47567,
    "name": "E.Leclerc",
    "city": "Saint-Priest-en-Jarez",
    "description": ""
  },
  {
    "latitude": 2.22987,
    "longitude": 48.91427,
    "name": "E.Leclerc",
    "city": "Colombes (Covadis)",
    "description": ""
  },
  {
    "latitude": 7.25871,
    "longitude": 47.58583,
    "name": "E.Leclerc",
    "city": "Hirsingue",
    "description": ""
  },
  {
    "latitude": 2.52918,
    "longitude": 49.1002,
    "name": "E.Leclerc",
    "city": "La Chapelle-en-Serval",
    "description": ""
  },
  {
    "latitude": -0.6288,
    "longitude": 44.95555,
    "name": "E.Leclerc",
    "city": "Le Pian",
    "description": ""
  },
  {
    "latitude": 2.78089,
    "longitude": 50.28111,
    "name": "E.Leclerc",
    "city": "Arras",
    "description": ""
  },
  {
    "latitude": 0.09835,
    "longitude": 49.34513,
    "name": "E.Leclerc",
    "city": "Touques",
    "description": ""
  },
  {
    "latitude": -1.56934,
    "longitude": 43.46825,
    "name": "E.Leclerc",
    "city": "Bayonne",
    "description": "Avenue de la Milady"
  },
  {
    "latitude": 5.69306,
    "longitude": 45.14944,
    "name": "E.Leclerc",
    "city": "Echirolles (Zone Industrielle de Comboire)",
    "description": ""
  },
  {
    "latitude": 2.33711,
    "longitude": 49.91314,
    "name": "E.Leclerc",
    "city": "Amiens",
    "description": ""
  },
  {
    "latitude": 2.08927,
    "longitude": 49.06613,
    "name": "E.Leclerc",
    "city": "Osny",
    "description": ""
  },
  {
    "latitude": -0.9929,
    "longitude": 45.63069,
    "name": "E.Leclerc",
    "city": "Royan",
    "description": ""
  },
  {
    "latitude": 1.09725,
    "longitude": 44.06378,
    "name": "E.Leclerc",
    "city": "Castelsarrasin (Artel est - N113)",
    "description": ""
  },
  {
    "latitude": 6.37375,
    "longitude": 46.33074,
    "name": "E.Leclerc",
    "city": "Sciez",
    "description": ""
  },
  {
    "latitude": -0.92306,
    "longitude": 45.28917,
    "name": "E.Leclerc",
    "city": "Lesparre-M�doc",
    "description": ""
  },
  {
    "latitude": -0.36105,
    "longitude": 43.28036,
    "name": "E.Leclerc",
    "city": "Maz�res-Lezons",
    "description": ""
  },
  {
    "latitude": 5.00678,
    "longitude": 44.38629,
    "name": "E.Leclerc",
    "city": "Valr�as",
    "description": ""
  },
  {
    "latitude": 3.39036,
    "longitude": 49.03686,
    "name": "E.Leclerc",
    "city": "Ch�teau-Thierry",
    "description": ""
  },
  {
    "latitude": 5.80407,
    "longitude": 43.83728,
    "name": "E.Leclerc",
    "city": "Manosque",
    "description": ""
  },
  {
    "latitude": 5.91245,
    "longitude": 45.65641,
    "name": "E.Leclerc",
    "city": "Drumettaz",
    "description": ""
  },
  {
    "latitude": 1.72037,
    "longitude": 44.78504,
    "name": "E.Leclerc",
    "city": "Gramat",
    "description": ""
  },
  {
    "latitude": 4.85423,
    "longitude": 46.811,
    "name": "E.Leclerc",
    "city": "Chalon-sur-Sa�ne",
    "description": ""
  },
  {
    "latitude": 6.30143,
    "longitude": 48.3628,
    "name": "E.Leclerc",
    "city": "Charmes",
    "description": ""
  },
  {
    "latitude": 3.7638,
    "longitude": 48.50481,
    "name": "E.Leclerc",
    "city": "Romilly-sur-Seine",
    "description": ""
  },
  {
    "latitude": -0.33865,
    "longitude": 49.14172,
    "name": "E.Leclerc",
    "city": "Ifs (Porte d'Espagne)",
    "description": ""
  },
  {
    "latitude": 2.30492,
    "longitude": 48.93275,
    "name": "E.Leclerc",
    "city": "Gennevilliers",
    "description": ""
  },
  {
    "latitude": -1.16899,
    "longitude": 44.4104,
    "name": "E.Leclerc",
    "city": "Biscarosse",
    "description": ""
  },
  {
    "latitude": 5.24449,
    "longitude": 46.22055,
    "name": "E.Leclerc",
    "city": "Bressedis",
    "description": ""
  },
  {
    "latitude": 4.47069,
    "longitude": 45.88262,
    "name": "E.Leclerc",
    "city": "Saint-Loup",
    "description": ""
  },
  {
    "latitude": 2.403,
    "longitude": 48.89106,
    "name": "E.Leclerc",
    "city": "Pantin",
    "description": ""
  },
  {
    "latitude": 5.7532,
    "longitude": 45.16984,
    "name": "E.Leclerc",
    "city": "Saint Martin D'heres",
    "description": ""
  },
  {
    "latitude": 3.1775,
    "longitude": 47.01056,
    "name": "E.Leclerc",
    "city": "Coulanges-l�s-Nevers (13 rue Claude Monnet)",
    "description": ""
  },
  {
    "latitude": 4.79776,
    "longitude": 43.94011,
    "name": "E.Leclerc",
    "city": "Avignon",
    "description": ""
  },
  {
    "latitude": 2.22798,
    "longitude": 49.11505,
    "name": "E.Leclerc",
    "city": "L'Isle-Adam",
    "description": ""
  },
  {
    "latitude": 0.67079,
    "longitude": 44.18063,
    "name": "E.Leclerc",
    "city": "Castelculier",
    "description": ""
  },
  {
    "latitude": -1.97095,
    "longitude": 48.65886,
    "name": "E.Leclerc",
    "city": "Saint-Malo",
    "description": ""
  },
  {
    "latitude": 3.09816,
    "longitude": 50.63431,
    "name": "E.Leclerc",
    "city": "Lille (Rue de Lannoy)",
    "description": ""
  },
  {
    "latitude": 2.60774,
    "longitude": 48.50743,
    "name": "E.Leclerc",
    "city": "Dammarie-les-Lys",
    "description": ""
  },
  {
    "latitude": 0.85213,
    "longitude": 46.41753,
    "name": "E.Leclerc",
    "city": "Montmorillon",
    "description": ""
  },
  {
    "latitude": 0.78708,
    "longitude": 47.39603,
    "name": "E.Leclerc",
    "city": "La Ville-aux-Dames",
    "description": ""
  },
  {
    "latitude": -1.5184,
    "longitude": 43.49339,
    "name": "E.Leclerc",
    "city": "Anglet",
    "description": ""
  },
  {
    "latitude": 4.98845,
    "longitude": 45.76808,
    "name": "E.Leclerc",
    "city": "Meyzieu (Claude Monet)",
    "description": ""
  },
  {
    "latitude": 1.10559,
    "longitude": 49.9087,
    "name": "E.Leclerc",
    "city": "Rouxmesnil-Bouteilles",
    "description": ""
  },
  {
    "latitude": 3.06779,
    "longitude": 49.73233,
    "name": "E.Leclerc",
    "city": "Muille Villette",
    "description": ""
  },
  {
    "latitude": 9.27948,
    "longitude": 41.59099,
    "name": "E.Leclerc",
    "city": "Porto Vecchio",
    "description": ""
  },
  {
    "latitude": 2.6034,
    "longitude": 49.31366,
    "name": "E.Leclerc",
    "city": "Pont-Sainte-Maxence",
    "description": ""
  },
  {
    "latitude": 4.05492,
    "longitude": 46.04566,
    "name": "E.Leclerc",
    "city": "Riorges",
    "description": ""
  },
  {
    "latitude": -0.06472,
    "longitude": 44.85417,
    "name": "E.Leclerc",
    "city": "Saint-Magne-de-Castillon",
    "description": ""
  },
  {
    "latitude": -1.12623,
    "longitude": 46.16962,
    "name": "E.Leclerc",
    "city": "La Rochelle (124 Boulevard Andr� Sautel)",
    "description": ""
  },
  {
    "latitude": -1.53875,
    "longitude": 43.4631,
    "name": "E.Leclerc",
    "city": "Biarritz",
    "description": ""
  },
  {
    "latitude": 3.43364,
    "longitude": 50.365,
    "name": "E.Leclerc",
    "city": "Bellaing",
    "description": ""
  },
  {
    "latitude": 2.44586,
    "longitude": 48.94049,
    "name": "E.Leclerc",
    "city": "Blanc Mesnil",
    "description": ""
  },
  {
    "latitude": 1.37983,
    "longitude": 44.03861,
    "name": "E.Leclerc",
    "city": "Montauban Aussonne",
    "description": ""
  },
  {
    "latitude": -0.57462,
    "longitude": 47.48225,
    "name": "E.Leclerc",
    "city": "Angers",
    "description": ""
  },
  {
    "latitude": 4.97056,
    "longitude": 48.62806,
    "name": "E.Leclerc",
    "city": "Saint-Dizier",
    "description": ""
  },
  {
    "latitude": 3.06864,
    "longitude": 45.88851,
    "name": "E.Leclerc",
    "city": "Enval (Route de Volvic)",
    "description": ""
  },
  {
    "latitude": 4.13086,
    "longitude": 48.29764,
    "name": "E.Leclerc",
    "city": "Saint-Parres-aux-Tertres",
    "description": ""
  },
  {
    "latitude": 5.11524,
    "longitude": 43.62956,
    "name": "E.Leclerc",
    "city": "Salon",
    "description": ""
  },
  {
    "latitude": 0.60629,
    "longitude": 47.40294,
    "name": "E.Leclerc",
    "city": "Fondettes",
    "description": ""
  },
  {
    "latitude": -1.38801,
    "longitude": 47.70622,
    "name": "E.Leclerc",
    "city": "Ch�teaubriant",
    "description": ""
  },
  {
    "latitude": 1.46243,
    "longitude": 44.89875,
    "name": "E.Leclerc",
    "city": "Souillac",
    "description": ""
  },
  {
    "latitude": 1.34805,
    "longitude": 48.73724,
    "name": "E.Leclerc",
    "city": "Dreux",
    "description": ""
  },
  {
    "latitude": -2.51355,
    "longitude": 48.46141,
    "name": "E.Leclerc",
    "city": "Lamballe",
    "description": ""
  },
  {
    "latitude": -0.55655,
    "longitude": 44.80566,
    "name": "E.Leclerc",
    "city": "Begles",
    "description": ""
  },
  {
    "latitude": -1.42534,
    "longitude": 43.64554,
    "name": "E.Leclerc",
    "city": "Capbreton",
    "description": ""
  },
  {
    "latitude": -1.30498,
    "longitude": 46.9775,
    "name": "E.Leclerc",
    "city": "Montaigu",
    "description": ""
  },
  {
    "latitude": 2.19426,
    "longitude": 48.86231,
    "name": "E.Leclerc",
    "city": "Rueil-Malmaison",
    "description": ""
  },
  {
    "latitude": -3.32297,
    "longitude": 47.7263,
    "name": "E.Leclerc",
    "city": "Riantec",
    "description": ""
  },
  {
    "latitude": -1.48833,
    "longitude": 47.9576,
    "name": "E.Leclerc",
    "city": "Janz�",
    "description": ""
  },
  {
    "latitude": -0.05358,
    "longitude": 47.7029,
    "name": "E.Leclerc",
    "city": "La Fl�che",
    "description": ""
  },
  {
    "latitude": 2.41522,
    "longitude": 48.79538,
    "name": "E.Leclerc",
    "city": "Vitry-sur-Seine",
    "description": ""
  },
  {
    "latitude": -0.48918,
    "longitude": 44.90642,
    "name": "E.Leclerc",
    "city": "Sainte Eulalie",
    "description": ""
  },
  {
    "latitude": 1.0443,
    "longitude": 49.45759,
    "name": "E.Leclerc",
    "city": "Bapeaume",
    "description": ""
  },
  {
    "latitude": -0.4397,
    "longitude": 45.45261,
    "name": "E.Leclerc",
    "city": "Jonzac",
    "description": ""
  },
  {
    "latitude": -1.63011,
    "longitude": 47.22544,
    "name": "E.Leclerc",
    "city": "Saint-Herblain (Leclerc Atlantis)",
    "description": ""
  },
  {
    "latitude": 2.43256,
    "longitude": 49.51133,
    "name": "E.Leclerc",
    "city": "Saint-Just-en-Chauss�e (ZI Nord)",
    "description": ""
  },
  {
    "latitude": 1.46176,
    "longitude": 48.42785,
    "name": "E.Leclerc",
    "city": "Luisant",
    "description": ""
  },
  {
    "latitude": -4.08012,
    "longitude": 48.01492,
    "name": "E.Leclerc",
    "city": "Quimper",
    "description": ""
  },
  {
    "latitude": 4.88236,
    "longitude": 44.95906,
    "name": "E.Leclerc",
    "city": "Bourg-l�s-Valence",
    "description": ""
  },
  {
    "latitude": 4.72122,
    "longitude": 46.05203,
    "name": "E.Leclerc",
    "city": "Saint Georges De Reneins",
    "description": ""
  },
  {
    "latitude": 2.3878,
    "longitude": 47.08252,
    "name": "E.Leclerc",
    "city": "Bourges",
    "description": ""
  },
  {
    "latitude": 2.40722,
    "longitude": 48.74348,
    "name": "E.Leclerc",
    "city": "Orly",
    "description": ""
  },
  {
    "latitude": 0.77453,
    "longitude": 49.61215,
    "name": "E.Leclerc",
    "city": "Yvetot",
    "description": ""
  },
  {
    "latitude": -0.61806,
    "longitude": 43.1975,
    "name": "E.Leclerc",
    "city": "Oloron-Sainte-Marie",
    "description": ""
  },
  {
    "latitude": 4.76837,
    "longitude": 45.44369,
    "name": "E.Leclerc",
    "city": "Saint-Clair-du-Rh�ne",
    "description": ""
  },
  {
    "latitude": 1.0738,
    "longitude": 49.38695,
    "name": "E.Leclerc",
    "city": "Saint-Etienne-du-Rouvray",
    "description": ""
  },
  {
    "latitude": 6.4051,
    "longitude": 46.33907,
    "name": "E.Leclerc",
    "city": "Sciez",
    "description": ""
  },
  {
    "latitude": -1.05169,
    "longitude": 46.7002,
    "name": "E.Leclerc",
    "city": "Chantonnay",
    "description": ""
  },
  {
    "latitude": 6.99944,
    "longitude": 43.57381,
    "name": "E.Leclerc",
    "city": "Le Cannet - Rocheville",
    "description": "46 Avenue Franklin Roosevelt (Mo-Do 9.00-19.30. Fr - 20.00. Sa - 19.30)"
  },
  {
    "latitude": -0.6708,
    "longitude": 47.46529,
    "name": "E.Leclerc",
    "city": "Saint-Jean-De-Linieres",
    "description": ""
  },
  {
    "latitude": 4.37353,
    "longitude": 46.68297,
    "name": "E.Leclerc",
    "city": "Montceau Les Mines",
    "description": ""
  },
  {
    "latitude": 2.32029,
    "longitude": 48.904,
    "name": "E.Leclerc",
    "city": "Clichy",
    "description": ""
  },
  {
    "latitude": 1.96482,
    "longitude": 43.75956,
    "name": "E.Leclerc",
    "city": "Graulhet",
    "description": ""
  },
  {
    "latitude": 4.14743,
    "longitude": 43.68054,
    "name": "E.Leclerc",
    "city": "Lunel",
    "description": ""
  },
  {
    "latitude": 6.95755,
    "longitude": 43.55054,
    "name": "E.Leclerc",
    "city": "Cannes",
    "description": ""
  },
  {
    "latitude": 3.0843,
    "longitude": 50.38094,
    "name": "E.Leclerc",
    "city": "Douai",
    "description": ""
  },
  {
    "latitude": 5.30538,
    "longitude": 45.14423,
    "name": "E.Leclerc",
    "city": "Chatte",
    "description": ""
  },
  {
    "latitude": 2.08826,
    "longitude": 47.23037,
    "name": "E.Leclerc",
    "city": "Vierzon",
    "description": ""
  },
  {
    "latitude": 2.86584,
    "longitude": 50.44677,
    "name": "E.Leclerc",
    "city": "Loison-sous-Lens",
    "description": ""
  },
  {
    "latitude": 2.29747,
    "longitude": 48.89288,
    "name": "E.Leclerc",
    "city": "Levallois-Perret (Eiffel)",
    "description": ""
  },
  {
    "latitude": -1.33115,
    "longitude": 43.74566,
    "name": "E.Leclerc",
    "city": "Soustons",
    "description": ""
  },
  {
    "latitude": 1.22956,
    "longitude": 44.87435,
    "name": "E.Leclerc",
    "city": "Sarlat",
    "description": ""
  },
  {
    "latitude": 7.04444,
    "longitude": 48.73222,
    "name": "E.Leclerc",
    "city": "Sarrebourg",
    "description": ""
  },
  {
    "latitude": 0.08,
    "longitude": 44.31457,
    "name": "E.Leclerc",
    "city": "Casteljaloux",
    "description": ""
  },
  {
    "latitude": 0.25878,
    "longitude": 49.41528,
    "name": "E.Leclerc",
    "city": "Honfleur",
    "description": ""
  },
  {
    "latitude": 0.18181,
    "longitude": 44.84515,
    "name": "E.Leclerc",
    "city": "Port-Sainte-Foy",
    "description": ""
  },
  {
    "latitude": -0.79801,
    "longitude": 43.49,
    "name": "E.Leclerc",
    "city": "Orthez",
    "description": ""
  },
  {
    "latitude": -0.0915,
    "longitude": 47.26239,
    "name": "E.Leclerc",
    "city": "Saumur",
    "description": ""
  },
  {
    "latitude": 6.09145,
    "longitude": 45.89308,
    "name": "E.Leclerc",
    "city": "Annecy Cran-Chevrier",
    "description": ""
  },
  {
    "latitude": -4.2361,
    "longitude": 47.86471,
    "name": "E.Leclerc",
    "city": "Pont-l'Abb�",
    "description": ""
  },
  {
    "latitude": 1.06219,
    "longitude": 46.63973,
    "name": "E.Leclerc",
    "city": "Le Blanc",
    "description": ""
  },
  {
    "latitude": -1.10412,
    "longitude": 45.822,
    "name": "E.Leclerc",
    "city": "Marennes",
    "description": ""
  },
  {
    "latitude": -3.31985,
    "longitude": 48.23519,
    "name": "E.Leclerc",
    "city": "Rostrenen",
    "description": ""
  },
  {
    "latitude": 4.08127,
    "longitude": 49.92388,
    "name": "E.Leclerc",
    "city": "Hirson",
    "description": ""
  },
  {
    "latitude": -1.43261,
    "longitude": 49.06799,
    "name": "E.Leclerc",
    "city": "Coutances",
    "description": ""
  },
  {
    "latitude": 8.92326,
    "longitude": 42.62761,
    "name": "E.Leclerc",
    "city": "Ille Rousse",
    "description": ""
  },
  {
    "latitude": 2.58825,
    "longitude": 44.36252,
    "name": "E.Leclerc",
    "city": "Rodez (petit Lecherc)",
    "description": ""
  },
  {
    "latitude": 7.37916,
    "longitude": 48.08028,
    "name": "E.Leclerc",
    "city": "Colmar",
    "description": ""
  },
  {
    "latitude": 2.95694,
    "longitude": 48.36224,
    "name": "E.Leclerc",
    "city": "Breau",
    "description": ""
  },
  {
    "latitude": 4.91903,
    "longitude": 45.69917,
    "name": "E.Leclerc",
    "city": "Saint Priest",
    "description": ""
  },
  {
    "latitude": 1.66906,
    "longitude": 46.82073,
    "name": "E.Leclerc",
    "city": "Ch�teauroux",
    "description": ""
  },
  {
    "latitude": 3.53636,
    "longitude": 45.84831,
    "name": "E.Leclerc",
    "city": "Thiers",
    "description": ""
  },
  {
    "latitude": 5.09463,
    "longitude": 43.64191,
    "name": "E.Leclerc",
    "city": "Salon-de-Provence",
    "description": "Route de Pelissanne (Mo-Do 9.00-19.30. Fr - 20.00. Sa - 19.30)"
  },
  {
    "latitude": 3.5191,
    "longitude": 47.47098,
    "name": "E.Leclerc",
    "city": "Clamecy",
    "description": ""
  },
  {
    "latitude": 6.14891,
    "longitude": 48.7434,
    "name": "E.Leclerc",
    "city": "Frouard",
    "description": ""
  },
  {
    "latitude": -3.56115,
    "longitude": 48.28337,
    "name": "E.Leclerc",
    "city": "Carhaix",
    "description": ""
  },
  {
    "latitude": -2.40573,
    "longitude": 47.93861,
    "name": "E.Leclerc",
    "city": "Plo�rmel",
    "description": ""
  },
  {
    "latitude": 0.56125,
    "longitude": 46.8235,
    "name": "E.Leclerc",
    "city": "Ch�tellerault",
    "description": ""
  },
  {
    "latitude": 2.74593,
    "longitude": 50.48727,
    "name": "E.Leclerc",
    "city": "Sa Desmont",
    "description": ""
  },
  {
    "latitude": -3.37427,
    "longitude": 48.77594,
    "name": "E.Leclerc",
    "city": "Lannion Perros",
    "description": ""
  },
  {
    "latitude": 6.17667,
    "longitude": 48.65389,
    "name": "E.Leclerc",
    "city": "Vandoeuvre-l�s-Nancy",
    "description": ""
  },
  {
    "latitude": 6.0485,
    "longitude": 43.4071,
    "name": "E.Leclerc",
    "city": "Brignoles",
    "description": ""
  },
  {
    "latitude": 7.09518,
    "longitude": 48.93082,
    "name": "E.Leclerc",
    "city": "Sarre-Union",
    "description": ""
  },
  {
    "latitude": 1.16632,
    "longitude": 49.05995,
    "name": "E.Leclerc",
    "city": "Normanville (Caer)",
    "description": ""
  },
  {
    "latitude": -3.45729,
    "longitude": 48.75252,
    "name": "E.Leclerc",
    "city": "Lannion (Haut)",
    "description": ""
  },
  {
    "latitude": 4.00096,
    "longitude": 49.28326,
    "name": "E.Leclerc",
    "city": "Saint-Brice-de-Courcelles",
    "description": ""
  },
  {
    "latitude": 9.40676,
    "longitude": 42.01823,
    "name": "E.Leclerc",
    "city": "Ghisonaccia",
    "description": ""
  },
  {
    "latitude": 2.24422,
    "longitude": 48.72922,
    "name": "E.Leclerc",
    "city": "Massy",
    "description": ""
  },
  {
    "latitude": 0.29715,
    "longitude": 44.40022,
    "name": "E.Leclerc",
    "city": "Tonneins",
    "description": ""
  },
  {
    "latitude": -4.4722,
    "longitude": 48.25147,
    "name": "E.Leclerc",
    "city": "Crozon",
    "description": ""
  },
  {
    "latitude": -1.53047,
    "longitude": 48.12146,
    "name": "E.Leclerc",
    "city": "Noyal-sur-Vilaine",
    "description": ""
  },
  {
    "latitude": 1.61157,
    "longitude": 47.76478,
    "name": "E.Leclerc",
    "city": "Tavers",
    "description": ""
  },
  {
    "latitude": 1.04122,
    "longitude": 49.29092,
    "name": "E.Leclerc",
    "city": "Saint-Pierrre-l�s-Elbeuf",
    "description": ""
  },
  {
    "latitude": 6.93236,
    "longitude": 48.29351,
    "name": "E.Leclerc",
    "city": "Saint-Di�",
    "description": ""
  },
  {
    "latitude": 9.54801,
    "longitude": 42.26254,
    "name": "E.Leclerc",
    "city": "Leclerc Alistro",
    "description": ""
  },
  {
    "latitude": -2.77733,
    "longitude": 48.50025,
    "name": "E.Leclerc",
    "city": "Ploufragan",
    "description": ""
  },
  {
    "latitude": 2.26791,
    "longitude": 48.9321,
    "name": "E.Leclerc",
    "city": "Colombes",
    "description": ""
  },
  {
    "latitude": -4.08646,
    "longitude": 48.20054,
    "name": "E.Leclerc",
    "city": "Ch�teaulin",
    "description": ""
  },
  {
    "latitude": 5.4002,
    "longitude": 43.233,
    "name": "E.Leclerc",
    "city": "Sormiou",
    "description": ""
  },
  {
    "latitude": 0.21944,
    "longitude": 44.82671,
    "name": "E.Leclerc",
    "city": "Grand Pineuilh",
    "description": ""
  },
  {
    "latitude": -0.60827,
    "longitude": 44.94085,
    "name": "E.Leclerc",
    "city": "Le Pian M�doc",
    "description": ""
  },
  {
    "latitude": -1.21946,
    "longitude": 44.2066,
    "name": "E.Leclerc",
    "city": "Mimizan",
    "description": ""
  },
  {
    "latitude": -4.48353,
    "longitude": 48.39172,
    "name": "E.Leclerc",
    "city": "Brest Jaur�s",
    "description": ""
  },
  {
    "latitude": -1.13538,
    "longitude": 49.10782,
    "name": "E.Leclerc",
    "city": "Agneaux (Hypermarch�)",
    "description": ""
  },
  {
    "latitude": -4.02816,
    "longitude": 47.90222,
    "name": "E.Leclerc",
    "city": "Fouesnant / Pleuven",
    "description": ""
  },
  {
    "latitude": -2.06968,
    "longitude": 48.4457,
    "name": "E.Leclerc",
    "city": "Qu�vert",
    "description": ""
  },
  {
    "latitude": 5.21116,
    "longitude": 43.41355,
    "name": "E.Leclerc",
    "city": "Marignane",
    "description": "Chemin Saint Pierre (Mo-Do 9.00-19.30. Fr - 20.00. Sa - 19.30)"
  },
  {
    "latitude": 7.65828,
    "longitude": 48.42905,
    "name": "E.Leclerc",
    "city": "Erstein (rue du Printemps)",
    "description": ""
  },
  {
    "latitude": 2.75667,
    "longitude": 50.40571,
    "name": "E.Leclerc",
    "city": "Angres",
    "description": ""
  },
  {
    "latitude": 0.10918,
    "longitude": 43.2675,
    "name": "E.Leclerc",
    "city": "Tarbes / Orleix",
    "description": ""
  },
  {
    "latitude": -2.94547,
    "longitude": 48.06807,
    "name": "E.Leclerc",
    "city": "Pontivy",
    "description": ""
  },
  {
    "latitude": 9.5128,
    "longitude": 42.11639,
    "name": "E.Leclerc",
    "city": "Aleria",
    "description": ""
  },
  {
    "latitude": 5.7054,
    "longitude": 48.36991,
    "name": "E.Leclerc",
    "city": "Neufch�teau",
    "description": ""
  },
  {
    "latitude": 6.76198,
    "longitude": 43.60625,
    "name": "E.Leclerc",
    "city": "Mautonroux",
    "description": ""
  },
  {
    "latitude": 0.08934,
    "longitude": 47.00813,
    "name": "E.Leclerc",
    "city": "Loudun",
    "description": ""
  },
  {
    "latitude": 1.8768,
    "longitude": 44.86841,
    "name": "E.Leclerc",
    "city": "Saint Laurent",
    "description": ""
  },
  {
    "latitude": 4.75823,
    "longitude": 44.56756,
    "name": "E.Leclerc",
    "city": "Mont�limar",
    "description": ""
  },
  {
    "latitude": -4.57118,
    "longitude": 48.42763,
    "name": "E.Leclerc",
    "city": "Guilers",
    "description": ""
  },
  {
    "latitude": 0.35123,
    "longitude": 46.59684,
    "name": "E.Leclerc",
    "city": "Buxerolles",
    "description": ""
  },
  {
    "latitude": 1.99936,
    "longitude": 48.31812,
    "name": "E.Leclerc",
    "city": "Angerville",
    "description": ""
  },
  {
    "latitude": -3.38351,
    "longitude": 47.72686,
    "name": "E.Leclerc",
    "city": "Larmor-Plage",
    "description": ""
  },
  {
    "latitude": 5.88246,
    "longitude": 48.18825,
    "name": "E.Leclerc",
    "city": "Contrex�ville",
    "description": ""
  },
  {
    "latitude": 2.73105,
    "longitude": 47.97703,
    "name": "E.Leclerc",
    "city": "Amilly",
    "description": ""
  },
  {
    "latitude": -0.30273,
    "longitude": 47.83676,
    "name": "E.Leclerc",
    "city": "Sabl�-sur-Sarthe",
    "description": ""
  },
  {
    "latitude": 1.35447,
    "longitude": 44.00421,
    "name": "E.Leclerc",
    "city": "Montauban Sapiac",
    "description": ""
  },
  {
    "latitude": 3.10069,
    "longitude": 49.23984,
    "name": "E.Leclerc",
    "city": "Villers-Cotter�ts",
    "description": ""
  },
  {
    "latitude": 6.49484,
    "longitude": 48.59892,
    "name": "E.Leclerc",
    "city": "Lun�ville",
    "description": ""
  },
  {
    "latitude": 5.38002,
    "longitude": 43.88167,
    "name": "E.Leclerc",
    "city": "Apt",
    "description": "Chemin Des Abattoirs (Mo-Do 9.00-19.30. Fr - 20.00. Sa - 19.30)"
  },
  {
    "latitude": 4.99918,
    "longitude": 45.82442,
    "name": "E.Leclerc",
    "city": "Beynost",
    "description": ""
  },
  {
    "latitude": -2.12427,
    "longitude": 47.12514,
    "name": "E.Leclerc",
    "city": "Pornic",
    "description": ""
  },
  {
    "latitude": 1.80735,
    "longitude": 49.28859,
    "name": "E.Leclerc",
    "city": "Trie-Ch�teau",
    "description": ""
  },
  {
    "latitude": -1.44525,
    "longitude": 43.50481,
    "name": "E.Leclerc",
    "city": "Bayonne",
    "description": ""
  },
  {
    "latitude": -3.42002,
    "longitude": 47.79023,
    "name": "E.Leclerc",
    "city": "Qu�ven",
    "description": ""
  },
  {
    "latitude": -0.38091,
    "longitude": 49.18591,
    "name": "E.Leclerc",
    "city": "Caen (rue lanfranc)",
    "description": ""
  },
  {
    "latitude": -1.28405,
    "longitude": 43.66827,
    "name": "E.Leclerc",
    "city": "Tyrosse",
    "description": ""
  },
  {
    "latitude": 4.84278,
    "longitude": 47.04211,
    "name": "E.Leclerc",
    "city": "Beaune (nord)",
    "description": ""
  },
  {
    "latitude": -0.46331,
    "longitude": 43.8765,
    "name": "E.Leclerc",
    "city": "Mont-de-Marsan",
    "description": ""
  },
  {
    "latitude": 2.26117,
    "longitude": 49.00291,
    "name": "E.Leclerc",
    "city": "Saint-Prix",
    "description": ""
  },
  {
    "latitude": 1.30392,
    "longitude": 48.06675,
    "name": "E.Leclerc",
    "city": "Saint-Denis-les-Ponts (Route de Varenne)",
    "description": ""
  },
  {
    "latitude": 6.14116,
    "longitude": 49.0698,
    "name": "E.Leclerc",
    "city": "Marly",
    "description": ""
  },
  {
    "latitude": 5.22736,
    "longitude": 46.621,
    "name": "E.Leclerc",
    "city": "Louhans",
    "description": ""
  },
  {
    "latitude": 2.5736,
    "longitude": 46.31437,
    "name": "E.Leclerc",
    "city": "Mondis",
    "description": ""
  },
  {
    "latitude": -4.55671,
    "longitude": 48.02915,
    "name": "E.Leclerc",
    "city": "Audierne",
    "description": ""
  },
  {
    "latitude": 0.18151,
    "longitude": 45.65693,
    "name": "E.Leclerc",
    "city": "Angoul�me (31 Rue de Lunesse)",
    "description": ""
  },
  {
    "latitude": 1.04234,
    "longitude": 47.80212,
    "name": "E.Leclerc",
    "city": "Vend�me",
    "description": ""
  },
  {
    "latitude": 1.65088,
    "longitude": 46.78292,
    "name": "E.Leclerc",
    "city": "Saint Maur - Cap Sud",
    "description": ""
  },
  {
    "latitude": 2.37627,
    "longitude": 48.66354,
    "name": "E.Leclerc",
    "city": "Viry-Ch�tillon",
    "description": ""
  },
  {
    "latitude": 1.42095,
    "longitude": 44.4632,
    "name": "E.Leclerc",
    "city": "Cahors",
    "description": ""
  },
  {
    "latitude": -1.04431,
    "longitude": 43.70882,
    "name": "E.Leclerc",
    "city": "Dax",
    "description": ""
  },
  {
    "latitude": -1.16826,
    "longitude": 46.17389,
    "name": "E.Leclerc",
    "city": "Lagord (avenue Fief Rose)",
    "description": ""
  },
  {
    "latitude": -4.07383,
    "longitude": 48.50423,
    "name": "E.Leclerc",
    "city": "Landivisiau",
    "description": ""
  },
  {
    "latitude": 7.09009,
    "longitude": 43.5728,
    "name": "E.Leclerc",
    "city": "Juan-les-Pins",
    "description": ""
  },
  {
    "latitude": 1.62717,
    "longitude": 42.94534,
    "name": "E.Leclerc",
    "city": "Foix",
    "description": ""
  },
  {
    "latitude": 2.12144,
    "longitude": 48.51425,
    "name": "E.Leclerc",
    "city": "Villeconin",
    "description": ""
  },
  {
    "latitude": 3.127,
    "longitude": 45.7623,
    "name": "E.Leclerc",
    "city": "Clermont-Ferrand (La Pardieu)",
    "description": ""
  },
  {
    "latitude": 6.77568,
    "longitude": 47.58379,
    "name": "E.Leclerc",
    "city": "H�ricourt (6 fbg Belfort ZAC Salamon)",
    "description": ""
  },
  {
    "latitude": -1.6774,
    "longitude": 43.37498,
    "name": "E.Leclerc",
    "city": "Urrugne",
    "description": ""
  },
  {
    "latitude": 6.13041,
    "longitude": 49.35779,
    "name": "E.Leclerc",
    "city": "Thionville (20 rte Arlon)",
    "description": ""
  },
  {
    "latitude": -0.50588,
    "longitude": 45.9452,
    "name": "E.Leclerc",
    "city": "Saint-Jean-d'Ang�ly",
    "description": ""
  },
  {
    "latitude": -1.91447,
    "longitude": 46.693,
    "name": "E.Leclerc",
    "city": "Saint-Gilles-Croix-de-Vie",
    "description": ""
  },
  {
    "latitude": -0.20914,
    "longitude": 48.90745,
    "name": "E.Leclerc",
    "city": "Falaise",
    "description": ""
  },
  {
    "latitude": 3.34577,
    "longitude": 49.65948,
    "name": "E.Leclerc",
    "city": "Beautor",
    "description": ""
  },
  {
    "latitude": 1.73625,
    "longitude": 47.3772,
    "name": "E.Leclerc",
    "city": "Romorantin",
    "description": ""
  },
  {
    "latitude": 1.88163,
    "longitude": 43.89217,
    "name": "E.Leclerc",
    "city": "Gaillac",
    "description": ""
  },
  {
    "latitude": 4.88264,
    "longitude": 44.9099,
    "name": "E.Leclerc",
    "city": "Valence sud",
    "description": ""
  },
  {
    "latitude": 4.8298,
    "longitude": 46.32887,
    "name": "E.Leclerc",
    "city": "Macon",
    "description": ""
  },
  {
    "latitude": 2.73782,
    "longitude": 50.28266,
    "name": "E.Leclerc",
    "city": "Dainville",
    "description": ""
  },
  {
    "latitude": 0.15654,
    "longitude": 47.97414,
    "name": "E.Leclerc",
    "city": "Allones",
    "description": ""
  },
  {
    "latitude": -1.28126,
    "longitude": 47.09713,
    "name": "E.Leclerc",
    "city": "Clisson (L'Olivraie route de Nantes)",
    "description": ""
  },
  {
    "latitude": 2.96784,
    "longitude": 50.61556,
    "name": "E.Leclerc",
    "city": "Hallennes-Lez-Haubourdin",
    "description": ""
  },
  {
    "latitude": -3.99785,
    "longitude": 48.67784,
    "name": "E.Leclerc",
    "city": "Saint-Pol-de-L�on",
    "description": ""
  },
  {
    "latitude": -3.25871,
    "longitude": 47.79802,
    "name": "E.Leclerc",
    "city": "Hennebont",
    "description": ""
  },
  {
    "latitude": 5.10004,
    "longitude": 45.0573,
    "name": "E.Leclerc",
    "city": "Saint-Paul-l�s-Romans",
    "description": ""
  },
  {
    "latitude": 2.03653,
    "longitude": 47.90589,
    "name": "E.Leclerc",
    "city": "Checy",
    "description": ""
  },
  {
    "latitude": 6.1424,
    "longitude": 47.6456,
    "name": "E.Leclerc",
    "city": "Pusey (centre cial Oasis)",
    "description": ""
  },
  {
    "latitude": 0.76332,
    "longitude": 45.19082,
    "name": "E.Leclerc",
    "city": "Tr�lissac",
    "description": ""
  },
  {
    "latitude": 2.54463,
    "longitude": 50.71665,
    "name": "E.Leclerc",
    "city": "Hazebrouck (rue de l'Epeule)",
    "description": ""
  },
  {
    "latitude": -0.37184,
    "longitude": 48.57531,
    "name": "E.Leclerc",
    "city": "La Ferte Mace",
    "description": ""
  },
  {
    "latitude": 8.74492,
    "longitude": 41.93433,
    "name": "E.Leclerc",
    "city": "Ajaccio Imp�rial",
    "description": ""
  },
  {
    "latitude": -1.08153,
    "longitude": 48.57441,
    "name": "E.Leclerc",
    "city": "Saint-Hilaire-du-Harcou�t [route de Paris]",
    "description": ""
  },
  {
    "latitude": 7.28878,
    "longitude": 43.72118,
    "name": "E.Leclerc",
    "city": "Nice Pont Michel",
    "description": "Centre Commercial Pont Michel (Mo-Do 9.00-19.30. Fr - 20.00. Sa - 19.30)"
  },
  {
    "latitude": -4.40607,
    "longitude": 48.39869,
    "name": "E.Leclerc",
    "city": "le Relecq-Kerhuon",
    "description": ""
  },
  {
    "latitude": 6.7275,
    "longitude": 48.19888,
    "name": "E.Leclerc",
    "city": "Bruy�res",
    "description": ""
  },
  {
    "latitude": 3.054,
    "longitude": 50.54872,
    "name": "E.Leclerc",
    "city": "Seclin",
    "description": ""
  },
  {
    "latitude": 2.44108,
    "longitude": 44.91422,
    "name": "E.Leclerc",
    "city": "Aurillac",
    "description": ""
  },
  {
    "latitude": 2.66139,
    "longitude": 50.47694,
    "name": "E.Leclerc",
    "city": "Noeux-les-Mines",
    "description": ""
  },
  {
    "latitude": 7.11824,
    "longitude": 43.71462,
    "name": "E.Leclerc",
    "city": "Vence",
    "description": "288 Avenue Emile Hugues (Mo-Do 9.00-19.30. Fr - 20.00. Sa - 19.30)"
  },
  {
    "latitude": -3.81906,
    "longitude": 48.19489,
    "name": "E.Leclerc",
    "city": "Ch�teauneuf-du-Faou",
    "description": ""
  },
  {
    "latitude": 1.0156,
    "longitude": 47.40446,
    "name": "E.Leclerc",
    "city": "Amboise",
    "description": ""
  },
  {
    "latitude": 7.5435,
    "longitude": 47.60519,
    "name": "E.Leclerc",
    "city": "Saint Louis",
    "description": ""
  },
  {
    "latitude": 1.39927,
    "longitude": 50.03245,
    "name": "E.Leclerc",
    "city": "Etalondes",
    "description": ""
  },
  {
    "latitude": 2.03338,
    "longitude": 44.61193,
    "name": "E.Leclerc",
    "city": "Figeac",
    "description": ""
  },
  {
    "latitude": 0.97806,
    "longitude": 44.48528,
    "name": "E.Leclerc",
    "city": "Montayral",
    "description": ""
  },
  {
    "latitude": 1.60759,
    "longitude": 50.70085,
    "name": "E.Leclerc",
    "city": "Outreau",
    "description": ""
  },
  {
    "latitude": 5.18569,
    "longitude": 45.74908,
    "name": "E.Leclerc",
    "city": "Tignieu-Jameyzieu",
    "description": ""
  },
  {
    "latitude": -0.22406,
    "longitude": 46.64868,
    "name": "E.Leclerc",
    "city": "Parthenay",
    "description": ""
  },
  {
    "latitude": -0.23163,
    "longitude": 43.70151,
    "name": "E.Leclerc",
    "city": "Barcelonne-du-Gers",
    "description": ""
  },
  {
    "latitude": 5.90967,
    "longitude": 45.58085,
    "name": "E.Leclerc",
    "city": "Chamb�ry",
    "description": ""
  },
  {
    "latitude": 6.53425,
    "longitude": 43.24866,
    "name": "E.Leclerc",
    "city": "Cogolin",
    "description": "Rue Sigismond Coulet (Mo-Do 9.00-19.30. Fr - 20.00. Sa - 19.30)"
  },
  {
    "latitude": -1.46957,
    "longitude": 47.18728,
    "name": "E.Leclerc",
    "city": "Basse-Goulaine (P�le Sud)",
    "description": ""
  },
  {
    "latitude": 3.27716,
    "longitude": 48.218,
    "name": "E.Leclerc",
    "city": "Saint-Denis-l�s-Sens",
    "description": ""
  },
  {
    "latitude": 4.97932,
    "longitude": 43.51718,
    "name": "E.Leclerc",
    "city": "Istres",
    "description": "Quartier Les Craux (Mo-Do 9.00-19.30. Fr - 20.00. Sa - 19.30)"
  },
  {
    "latitude": 4.46198,
    "longitude": 45.49305,
    "name": "E.Leclerc",
    "city": "Saint Chamond",
    "description": ""
  },
  {
    "latitude": 4.10709,
    "longitude": 44.11702,
    "name": "E.Leclerc",
    "city": "Ales",
    "description": ""
  },
  {
    "latitude": -0.64216,
    "longitude": 45.12834,
    "name": "E.Leclerc",
    "city": "Blaye",
    "description": ""
  },
  {
    "latitude": 2.53742,
    "longitude": 46.72239,
    "name": "E.Leclerc",
    "city": "Saint Amand-Montrond",
    "description": ""
  },
  {
    "latitude": 2.43013,
    "longitude": 48.99018,
    "name": "E.Leclerc",
    "city": "Gonesse",
    "description": ""
  },
  {
    "latitude": 3.1345,
    "longitude": 45.78,
    "name": "E.Leclerc",
    "city": "Clermont-Ferrand (Le Brezet)",
    "description": ""
  },
  {
    "latitude": 7.44118,
    "longitude": 48.26384,
    "name": "E.Leclerc",
    "city": "S�lestat Quartier Ouest",
    "description": ""
  },
  {
    "latitude": 3.73183,
    "longitude": 48.71207,
    "name": "E.Leclerc",
    "city": "S�zanne",
    "description": ""
  },
  {
    "latitude": 1.37,
    "longitude": 43.64611,
    "name": "E.Leclerc",
    "city": "Blagnac",
    "description": ""
  },
  {
    "latitude": 2.58076,
    "longitude": 49.64837,
    "name": "E.Leclerc",
    "city": "Montdidier",
    "description": ""
  },
  {
    "latitude": 3.314,
    "longitude": 46.5885,
    "name": "E.Leclerc",
    "city": "Moulins",
    "description": ""
  },
  {
    "latitude": -1.59198,
    "longitude": 49.6331,
    "name": "E.Leclerc",
    "city": "Tourlaville",
    "description": ""
  },
  {
    "latitude": 0.08694,
    "longitude": 48.40722,
    "name": "E.Leclerc",
    "city": "Ar�onnay (CC du Point d'Alen�on)",
    "description": ""
  },
  {
    "latitude": -0.82324,
    "longitude": 46.46477,
    "name": "E.Leclerc",
    "city": "Fontenay-le-Comte",
    "description": ""
  },
  {
    "latitude": -0.61848,
    "longitude": 44.87438,
    "name": "E.Leclerc",
    "city": "Bruges",
    "description": ""
  },
  {
    "latitude": -3.56629,
    "longitude": 47.87007,
    "name": "E.Leclerc",
    "city": "Quimperl�",
    "description": ""
  },
  {
    "latitude": 0.69278,
    "longitude": 49.85789,
    "name": "E.Leclerc",
    "city": "Saint-Val�ry-en-Caux",
    "description": ""
  },
  {
    "latitude": -0.12176,
    "longitude": 45.04619,
    "name": "E.Leclerc",
    "city": "Coutras",
    "description": ""
  },
  {
    "latitude": -0.72247,
    "longitude": 47.23774,
    "name": "E.Leclerc",
    "city": "Chemille",
    "description": ""
  },
  {
    "latitude": 1.50659,
    "longitude": 43.85773,
    "name": "E.Leclerc",
    "city": "Villemur",
    "description": ""
  },
  {
    "latitude": 6.31852,
    "longitude": 46.91399,
    "name": "E.Leclerc",
    "city": "Houtaud",
    "description": ""
  },
  {
    "latitude": 7.25951,
    "longitude": 47.62822,
    "name": "E.Leclerc",
    "city": "Altkirch",
    "description": ""
  },
  {
    "latitude": 5.27051,
    "longitude": 43.42439,
    "name": "E.Leclerc",
    "city": "Vitrolles",
    "description": "Z.A.C. de La Tuiliere Bp246 (Mo-Do 9.00-19.30. Fr - 20.00. Sa - 19.30)"
  },
  {
    "latitude": 2.42808,
    "longitude": 49.25508,
    "name": "E.Leclerc",
    "city": "Montataire",
    "description": ""
  },
  {
    "latitude": -2.07666,
    "longitude": 47.64583,
    "name": "E.Leclerc",
    "city": "Saint-Nicolas-de-Redon",
    "description": ""
  },
  {
    "latitude": 7.24036,
    "longitude": 47.90221,
    "name": "E.Leclerc",
    "city": "Issenheim",
    "description": ""
  },
  {
    "latitude": 0.13544,
    "longitude": 44.5124,
    "name": "E.Leclerc",
    "city": "Marmande",
    "description": ""
  },
  {
    "latitude": 7.31358,
    "longitude": 48.08546,
    "name": "E.Leclerc",
    "city": "Wintzenheim",
    "description": ""
  },
  {
    "latitude": -2.75609,
    "longitude": 48.19089,
    "name": "E.Leclerc",
    "city": "Loud�ac",
    "description": ""
  },
  {
    "latitude": 0.1923,
    "longitude": 46.02189,
    "name": "E.Leclerc",
    "city": "Ruffec (53 Route d'Aigre)",
    "description": ""
  },
  {
    "latitude": 2.80151,
    "longitude": 48.49691,
    "name": "E.Leclerc",
    "city": "Le Chatelet En Brie",
    "description": ""
  },
  {
    "latitude": 0.4315,
    "longitude": 47.687,
    "name": "E.Leclerc",
    "city": "Chateau",
    "description": ""
  },
  {
    "latitude": 2.06129,
    "longitude": 44.59535,
    "name": "E.Leclerc",
    "city": "Capdenac",
    "description": ""
  },
  {
    "latitude": 7.12103,
    "longitude": 43.67461,
    "name": "E.Leclerc",
    "city": "La Colle sur Loup",
    "description": "344 Chemin Des Moulieres (Mo-Do 9.00-19.30. Fr - 20.00. Sa - 19.30)"
  },
  {
    "latitude": 1.8774,
    "longitude": 46.1777,
    "name": "E.Leclerc",
    "city": "Gueret",
    "description": ""
  },
  {
    "latitude": -0.01262,
    "longitude": 48.75194,
    "name": "E.Leclerc",
    "city": "Argentan",
    "description": ""
  },
  {
    "latitude": 5.06797,
    "longitude": 47.34053,
    "name": "E.Leclerc",
    "city": "Dijon",
    "description": ""
  },
  {
    "latitude": 3.47392,
    "longitude": 46.83538,
    "name": "E.Leclerc",
    "city": "Decize",
    "description": ""
  },
  {
    "latitude": -1.75466,
    "longitude": 47.47467,
    "name": "E.Leclerc",
    "city": "Blain",
    "description": ""
  },
  {
    "latitude": 2.892,
    "longitude": 42.74096,
    "name": "E.Leclerc",
    "city": "Perpignan (Polygone nord)",
    "description": ""
  },
  {
    "latitude": -0.59,
    "longitude": 44.74683,
    "name": "E.Leclerc",
    "city": "Leognan",
    "description": ""
  },
  {
    "latitude": 2.33977,
    "longitude": 49.04242,
    "name": "E.Leclerc",
    "city": "Moisselles (N1)",
    "description": ""
  },
  {
    "latitude": 0.73586,
    "longitude": 44.41034,
    "name": "E.Leclerc",
    "city": "Villeneuve-sur-Lot",
    "description": ""
  },
  {
    "latitude": -1.54412,
    "longitude": 47.16025,
    "name": "E.Leclerc",
    "city": "Rez� (Leclerc Oc�ane)",
    "description": ""
  },
  {
    "latitude": 3.1293,
    "longitude": 48.93788,
    "name": "E.Leclerc",
    "city": "La Fert�-sous-Jouarre (Avenue de Rebais)",
    "description": ""
  },
  {
    "latitude": 6.23836,
    "longitude": 46.2046,
    "name": "E.Leclerc",
    "city": "Ville La Grand",
    "description": ""
  },
  {
    "latitude": 2.87751,
    "longitude": 48.93811,
    "name": "E.Leclerc",
    "city": "Mareuil",
    "description": ""
  },
  {
    "latitude": 2.21872,
    "longitude": 43.62311,
    "name": "E.Leclerc",
    "city": "Lecadis",
    "description": ""
  },
  {
    "latitude": 5.04136,
    "longitude": 44.05231,
    "name": "E.Leclerc",
    "city": "Carpentras",
    "description": "Boulevard Alfred Naquet (Mo-Do 9.00-19.30. Fr - 20.00. Sa - 19.30)"
  },
  {
    "latitude": -2.79393,
    "longitude": 47.66706,
    "name": "E.Leclerc",
    "city": "Vannes (Rue Aristide Boucicaut)",
    "description": ""
  },
  {
    "latitude": -0.22371,
    "longitude": 46.40858,
    "name": "E.Leclerc",
    "city": "Saint-Maixent-l'Ecole",
    "description": ""
  },
  {
    "latitude": -1.62408,
    "longitude": 48.06385,
    "name": "E.Leclerc",
    "city": "Vern",
    "description": ""
  },
  {
    "latitude": -0.61919,
    "longitude": 44.81117,
    "name": "E.Leclerc",
    "city": "Pessac",
    "description": ""
  },
  {
    "latitude": 0.38866,
    "longitude": 45.74998,
    "name": "E.Leclerc",
    "city": "La Rochefoucauld (29 Route de Limoges)",
    "description": ""
  },
  {
    "latitude": 1.08319,
    "longitude": 49.43109,
    "name": "E.Leclerc",
    "city": "Rouen",
    "description": ""
  },
  {
    "latitude": 1.37305,
    "longitude": 43.51472,
    "name": "E.Leclerc",
    "city": "Roques",
    "description": ""
  },
  {
    "latitude": 6.76341,
    "longitude": 43.61796,
    "name": "E.Leclerc",
    "city": "Montauroux-Fayence",
    "description": "Lieu Dit Vincent (Mo-Do 9.00-19.30. Fr - 20.00. Sa - 19.30)"
  },
  {
    "latitude": 1.75464,
    "longitude": 50.48263,
    "name": "E.Leclerc",
    "city": "Attin",
    "description": ""
  },
  {
    "latitude": -4.51236,
    "longitude": 48.56934,
    "name": "E.Leclerc",
    "city": "Lannilis",
    "description": ""
  },
  {
    "latitude": 5.89325,
    "longitude": 43.08198,
    "name": "E.Leclerc",
    "city": "Tamaridis",
    "description": ""
  },
  {
    "latitude": 6.12776,
    "longitude": 43.12031,
    "name": "E.Leclerc",
    "city": "Hyeres",
    "description": "D276 (Mo-Do 9.00-19.30. Fr - 20.00. Sa - 19.30)"
  },
  {
    "latitude": 0.52392,
    "longitude": 45.14508,
    "name": "E.Leclerc",
    "city": "Saint Astier",
    "description": ""
  },
  {
    "latitude": -0.43209,
    "longitude": 47.34174,
    "name": "E.Leclerc",
    "city": "Brissac",
    "description": ""
  },
  {
    "latitude": 3.64881,
    "longitude": 49.58862,
    "name": "E.Leclerc",
    "city": "Chambry",
    "description": ""
  },
  {
    "latitude": 0.44581,
    "longitude": 44.83637,
    "name": "E.Leclerc",
    "city": "Bergerac (Route de Bordeaux)",
    "description": ""
  },
  {
    "latitude": 6.31253,
    "longitude": 43.39521,
    "name": "E.Leclerc",
    "city": "Le Luc-en-Provence",
    "description": "Route de Toulon (Mo-Do 9.00-19.30. Fr - 20.00. Sa - 19.30)"
  },
  {
    "latitude": 2.36887,
    "longitude": 51.03284,
    "name": "E.Leclerc",
    "city": "Dunkerque",
    "description": ""
  },
  {
    "latitude": -0.35723,
    "longitude": 43.31644,
    "name": "E.Leclerc",
    "city": "Pau",
    "description": ""
  },
  {
    "latitude": 2.91754,
    "longitude": 48.95729,
    "name": "E.Leclerc",
    "city": "Meaux",
    "description": ""
  },
  {
    "latitude": 3.04262,
    "longitude": 44.08162,
    "name": "E.Leclerc",
    "city": "Millau",
    "description": ""
  },
  {
    "latitude": -4.66629,
    "longitude": 48.53933,
    "name": "E.Leclerc",
    "city": "Ploudalmezeau",
    "description": ""
  },
  {
    "latitude": 4.7435,
    "longitude": 44.32209,
    "name": "E.Leclerc",
    "city": "Boll�ne)",
    "description": ""
  },
  {
    "latitude": -4.34524,
    "longitude": 48.09147,
    "name": "E.Leclerc",
    "city": "Douarnenez",
    "description": ""
  },
  {
    "latitude": 0.366,
    "longitude": 49.725,
    "name": "E.Leclerc",
    "city": "Fecamp-St Leonard",
    "description": ""
  },
  {
    "latitude": -1.91956,
    "longitude": 48.17793,
    "name": "E.Leclerc",
    "city": "Pleumeleuc",
    "description": ""
  },
  {
    "latitude": 5.94467,
    "longitude": 43.12236,
    "name": "E.Leclerc",
    "city": "Toulon - St Jean du Var",
    "description": "Avenue Francios Cuzin (Mo-Do 9.00-19.30. Fr - 20.00. Sa - 19.30)"
  },
  {
    "latitude": 7.29275,
    "longitude": 47.73979,
    "name": "Cora",
    "city": "Mulhouse",
    "description": ""
  },
  {
    "latitude": 6.96852,
    "longitude": 48.27219,
    "name": "Cora",
    "city": "Sainte-Marguerite",
    "description": "Rue Ernest Charlier"
  },
  {
    "latitude": 2.46938,
    "longitude": 49.23603,
    "name": "Cora",
    "city": "Saint-Maximin",
    "description": ""
  },
  {
    "latitude": 5.99311,
    "longitude": 49.19726,
    "name": "Cora",
    "city": "Sainte-Marie-aux-Chenes",
    "description": ""
  },
  {
    "latitude": 2.94619,
    "longitude": 50.44508,
    "name": "Cora",
    "city": "Courrieres",
    "description": ""
  },
  {
    "latitude": 4.09746,
    "longitude": 44.11154,
    "name": "Cora",
    "city": "Ales",
    "description": "Quai du Mas d'Hours"
  },
  {
    "latitude": 6.52465,
    "longitude": 46.39142,
    "name": "Cora",
    "city": "Amphion-les-Bains",
    "description": "Publier"
  },
  {
    "latitude": 6.22822,
    "longitude": 49.10605,
    "name": "Cora",
    "city": "Metz Borny",
    "description": "Technopole Metz 2000"
  },
  {
    "latitude": 3.29138,
    "longitude": 49.865,
    "name": "Cora",
    "city": "Saint-Quentin",
    "description": ""
  },
  {
    "latitude": 6.6124,
    "longitude": 48.00373,
    "name": "Cora",
    "city": "Remiremont",
    "description": "26 route de Bussang"
  },
  {
    "latitude": 5.4539,
    "longitude": 47.06499,
    "name": "Cora",
    "city": "Dole",
    "description": "Choisey"
  },
  {
    "latitude": 3.05195,
    "longitude": 50.59213,
    "name": "Cora",
    "city": "Wattignies",
    "description": "Rue Clemenceau"
  },
  {
    "latitude": 7.36856,
    "longitude": 48.12755,
    "name": "Cora",
    "city": "Colmar",
    "description": "Houssen"
  },
  {
    "latitude": 5.88776,
    "longitude": 48.6638,
    "name": "Cora",
    "city": "Toul",
    "description": "Avenue G�n�ral Bigeard"
  },
  {
    "latitude": 6.17394,
    "longitude": 49.2595,
    "name": "Cora",
    "city": "Mondelange",
    "description": ""
  },
  {
    "latitude": 6.11104,
    "longitude": 49.08551,
    "name": "Cora",
    "city": "Moulins-les-Metz",
    "description": "Zone Tournebride"
  },
  {
    "latitude": 6.1706,
    "longitude": 47.62701,
    "name": "Cora",
    "city": "Vesoul",
    "description": "Boulevard Kennedy"
  },
  {
    "latitude": 4.05385,
    "longitude": 49.21473,
    "name": "Cora",
    "city": "Reims",
    "description": "Cormontreuil"
  },
  {
    "latitude": 3.55304,
    "longitude": 47.84434,
    "name": "Cora",
    "city": "Auxerre",
    "description": "Mon�teau - RN6"
  },
  {
    "latitude": 1.29712,
    "longitude": 47.62398,
    "name": "Cora",
    "city": "Blois",
    "description": "Villebarou"
  },
  {
    "latitude": 6.80884,
    "longitude": 47.52858,
    "name": "Cora",
    "city": "Montb�liard",
    "description": "Route Bethoncourt"
  },
  {
    "latitude": 2.37944,
    "longitude": 51.01623,
    "name": "Cora",
    "city": "Couderkerque-Branche",
    "description": "rue Jacquard"
  },
  {
    "latitude": 1.2917,
    "longitude": 45.87929,
    "name": "Cora",
    "city": "Limoges",
    "description": "ZAC Beaubreuil"
  },
  {
    "latitude": 6.86185,
    "longitude": 47.59856,
    "name": "Cora",
    "city": "Andelnans",
    "description": ""
  },
  {
    "latitude": 6.88394,
    "longitude": 49.17461,
    "name": "Cora",
    "city": "Forbach",
    "description": "Avenue de l'Europe"
  },
  {
    "latitude": 2.57059,
    "longitude": 50.49474,
    "name": "Cora",
    "city": "Bruay-la-Buissiere",
    "description": "CC Bruay - av Lib�ration"
  },
  {
    "latitude": -1.97872,
    "longitude": 48.60603,
    "name": "Cora",
    "city": "Saint-Jouan-des-Gu�rets",
    "description": ""
  },
  {
    "latitude": 1.13467,
    "longitude": 49.02271,
    "name": "Cora",
    "city": "Evreux",
    "description": ""
  },
  {
    "latitude": 7.72598,
    "longitude": 48.65286,
    "name": "Cora",
    "city": "Strasbourg",
    "description": "Mundolsheim - RN63"
  },
  {
    "latitude": 7.04479,
    "longitude": 49.13529,
    "name": "Cora",
    "city": "Grosbliederstroff",
    "description": "Record"
  },
  {
    "latitude": 3.3136,
    "longitude": 49.37008,
    "name": "Cora",
    "city": "Soissons",
    "description": "Rue Raymonde de Fiolet"
  },
  {
    "latitude": 2.41729,
    "longitude": 48.97535,
    "name": "Cora",
    "city": "Garges-les-Gonesse",
    "description": "Boulevard de la Muette"
  },
  {
    "latitude": 6.18417,
    "longitude": 48.63984,
    "name": "Cora",
    "city": "Heillecourt",
    "description": ""
  },
  {
    "latitude": 7.09281,
    "longitude": 49.11728,
    "name": "Cora",
    "city": "Sarreguemines",
    "description": "Rue de Bitche"
  },
  {
    "latitude": 2.32655,
    "longitude": 48.80482,
    "name": "Cora",
    "city": "Arcueil",
    "description": "RN20"
  },
  {
    "latitude": 6.69626,
    "longitude": 49.11036,
    "name": "Cora",
    "city": "Longeville-les-Saint-Avold",
    "description": ""
  },
  {
    "latitude": 2.55415,
    "longitude": 48.92831,
    "name": "Cora",
    "city": "Livry-Gargan",
    "description": "All�e de l'Est"
  },
  {
    "latitude": 7.314,
    "longitude": 47.80996,
    "name": "Cora",
    "city": "Wittenheim",
    "description": "Route de Soultz"
  },
  {
    "latitude": 4.02389,
    "longitude": 49.28746,
    "name": "Cora",
    "city": "Reims",
    "description": ""
  },
  {
    "latitude": 4.96157,
    "longitude": 48.64943,
    "name": "Cora",
    "city": "Saint-Dizier",
    "description": "Bettancourt-la-Ferr�e"
  },
  {
    "latitude": 4.75448,
    "longitude": 49.73349,
    "name": "Cora",
    "city": "Villiers-Semeuse",
    "description": ""
  },
  {
    "latitude": 1.34524,
    "longitude": 48.74902,
    "name": "Cora",
    "city": "Dreux",
    "description": "Rue des Bas Buissons"
  },
  {
    "latitude": 5.00243,
    "longitude": 47.27002,
    "name": "Cora",
    "city": "Dijon",
    "description": "CC Marsannay-la-Cote"
  },
  {
    "latitude": 6.72057,
    "longitude": 49.10923,
    "name": "Cora",
    "city": "Saint Avold",
    "description": ""
  },
  {
    "latitude": 6.24528,
    "longitude": 48.70419,
    "name": "Cora",
    "city": "Essey-les-Nancy",
    "description": "avenue de Saulxures"
  },
  {
    "latitude": 2.53446,
    "longitude": 48.68187,
    "name": "Cora",
    "city": "Boussy-Saint-Antoine",
    "description": "CC Val d'Yerres 2"
  },
  {
    "latitude": 5.4072,
    "longitude": 49.14253,
    "name": "Cora",
    "city": "Verdun",
    "description": ""
  },
  {
    "latitude": 7.07056,
    "longitude": 48.73944,
    "name": "Cora",
    "city": "Sarrebourg",
    "description": ""
  },
  {
    "latitude": -0.46126,
    "longitude": 49.19905,
    "name": "Cora",
    "city": "Rots",
    "description": "Chemin de la Croix Vautier"
  },
  {
    "latitude": 7.83657,
    "longitude": 48.80283,
    "name": "Cora",
    "city": "Haguenau",
    "description": "ZA Taubenhof"
  },
  {
    "latitude": 3.2223,
    "longitude": 50.14831,
    "name": "Cora",
    "city": "Cambrai",
    "description": "Avenue Georges Nuttin"
  },
  {
    "latitude": 6.68228,
    "longitude": 49.11074,
    "name": "Cora",
    "city": "Saint Avold",
    "description": ""
  },
  {
    "latitude": 2.2463,
    "longitude": 48.98764,
    "name": "Cora",
    "city": "Ermont",
    "description": "Avenue du Pr�sident Georges Pompidou"
  },
  {
    "latitude": 2.27815,
    "longitude": 48.72512,
    "name": "Cora",
    "city": "Massy",
    "description": "Avenue de l'Europe"
  },
  {
    "latitude": 3.41323,
    "longitude": 46.14347,
    "name": "Cora",
    "city": "Vichy",
    "description": "All�e Ailes"
  },
  {
    "latitude": 3.12021,
    "longitude": 50.63589,
    "name": "Cora",
    "city": "Villeneuve-d'Ascq",
    "description": "Rue Jules Guesde"
  },
  {
    "latitude": 6.52076,
    "longitude": 48.57854,
    "name": "Cora",
    "city": "Moncel-les-Lun�ville",
    "description": ""
  },
  {
    "latitude": -1.76707,
    "longitude": 48.13868,
    "name": "Cora",
    "city": "Pac�",
    "description": ""
  },
  {
    "latitude": 2.82611,
    "longitude": 50.46028,
    "name": "Cora",
    "city": "Vendin-le-Vieil",
    "description": "CC Lens 2"
  },
  {
    "latitude": 4.75929,
    "longitude": 49.73002,
    "name": "[Cora",
    "city": "Villers-Semeuse",
    "description": "Route Les Ayvelles"
  },
  {
    "latitude": 7.49648,
    "longitude": 48.52706,
    "name": "Cora",
    "city": "Dorlisheim",
    "description": "1 rue Mercure"
  },
  {
    "latitude": 3.1991,
    "longitude": 45.7787,
    "name": "Cora",
    "city": "Lempdes",
    "description": ""
  },
  {
    "latitude": 4.0908,
    "longitude": 49.91261,
    "name": "Auchan",
    "city": "Hirson",
    "description": "C.Cial Auchan avenue de Verdun"
  },
  {
    "latitude": 2.23836,
    "longitude": 48.89068,
    "name": "Auchan",
    "city": "Puteaux",
    "description": "Les 4 Temps Le Parvis de la D�fense"
  },
  {
    "latitude": 2.90182,
    "longitude": 50.58371,
    "name": "Auchan",
    "city": "Fournes-en-Weppes",
    "description": ""
  },
  {
    "latitude": 0.69874,
    "longitude": 47.42783,
    "name": "Auchan",
    "city": "Tours-Nord",
    "description": "C.Cial La Petite Arche Route de Paris"
  },
  {
    "latitude": 3.13502,
    "longitude": 50.73778,
    "name": "Auchan",
    "city": "Roncq",
    "description": "Boulevard d'Halluin"
  },
  {
    "latitude": 1.36808,
    "longitude": 44.03005,
    "name": "Auchan",
    "city": "Montauban",
    "description": "777 avenue Jean Moulin"
  },
  {
    "latitude": 6.17364,
    "longitude": 49.14949,
    "name": "Auchan",
    "city": "Woippy",
    "description": "ZI Metz Nord 1 avenue des deux Fontaines"
  },
  {
    "latitude": 1.67467,
    "longitude": 50.73462,
    "name": "Auchan",
    "city": "Saint-Martin-Boulogne",
    "description": "RN 42 C.Cial Auchan"
  },
  {
    "latitude": 2.3023,
    "longitude": 48.58626,
    "name": "Auchan",
    "city": "Bretigny-s/Orge",
    "description": "C.Cial Maison Neuve D19"
  },
  {
    "latitude": 5.82289,
    "longitude": 43.85031,
    "name": "Auchan",
    "city": "Manosque",
    "description": "C.Cial Auchan rte de Sisteron"
  },
  {
    "latitude": 3.25927,
    "longitude": 49.64373,
    "name": "Auchan",
    "city": "Viry-Noureuil",
    "description": "C.Cial Auchan RD338"
  },
  {
    "latitude": 2.25125,
    "longitude": 48.82074,
    "name": "Auchan",
    "city": "Issy-les-Moulineaux",
    "description": "C.Cial des 3 Moulins 1 av Aristide Briand"
  },
  {
    "latitude": 1.73567,
    "longitude": 46.7919,
    "name": "Auchan",
    "city": "Chateauroux-Poin�onnet",
    "description": "route de Montlu�on"
  },
  {
    "latitude": 1.68527,
    "longitude": 48.98068,
    "name": "Auchan",
    "city": "Mantes Buchelay",
    "description": "C.Cial Porte de Normandie D 110"
  },
  {
    "latitude": 2.3764,
    "longitude": 48.97713,
    "name": "Auchan",
    "city": "Sarcelles",
    "description": "8 Place Navarre"
  },
  {
    "latitude": 7.31845,
    "longitude": 43.74319,
    "name": "Auchan",
    "city": "La Trinit�",
    "description": "Nice C.Cial Auchan - Route de Laghet"
  },
  {
    "latitude": -0.33448,
    "longitude": 43.30589,
    "name": "Auchan",
    "city": "Pau",
    "description": "5 Avenue du Mar�chal Leclerc"
  },
  {
    "latitude": 2.29797,
    "longitude": 48.83788,
    "name": "Auchan",
    "city": "Paris",
    "description": ""
  },
  {
    "latitude": 2.36239,
    "longitude": 48.81097,
    "name": "Auchan",
    "city": "Paris",
    "description": ""
  },
  {
    "latitude": 7.74007,
    "longitude": 48.54385,
    "name": "Auchan",
    "city": "Illkirch Graffenstaden",
    "description": "C.Cial Bagersee 6 rte de Strasbourg"
  },
  {
    "latitude": 4.34169,
    "longitude": 45.47319,
    "name": "Auchan",
    "city": "Villars",
    "description": "Chemin de Montravel"
  },
  {
    "latitude": 0.11042,
    "longitude": 49.52202,
    "name": "Auchan",
    "city": "Le Havre",
    "description": "C.Cial Grand Cap avenue Bois au coq prolong�e"
  },
  {
    "latitude": 4.35237,
    "longitude": 47.48256,
    "name": "Auchan",
    "city": "Semur-en-Auxois",
    "description": ""
  },
  {
    "latitude": 2.41511,
    "longitude": 48.8656,
    "name": "Auchan",
    "city": "Bagnolet",
    "description": "26 avenue du G�n�ral De Gaulle"
  },
  {
    "latitude": 2.11502,
    "longitude": 49.40969,
    "name": "Auchan",
    "city": "Beauvais",
    "description": "1 avenue Descartes"
  },
  {
    "latitude": 5.05449,
    "longitude": 43.42284,
    "name": "Auchan",
    "city": "Martigues",
    "description": "C.Cial Martigues Nord CC Canto Perdrix"
  },
  {
    "latitude": 2.48356,
    "longitude": 48.85365,
    "name": "Auchan",
    "city": "Fontenay sous Bois",
    "description": "avenue du Mar�chal Joffre"
  },
  {
    "latitude": 0.5315,
    "longitude": 46.798,
    "name": "Auchan",
    "city": "Chatellerault",
    "description": "ZUP La For�t N10"
  },
  {
    "latitude": 5.59169,
    "longitude": 43.2946,
    "name": "Auchan",
    "city": "Aubagne",
    "description": "C.Cial Auchan Barneoud route de Gemenos"
  },
  {
    "latitude": 2.7619,
    "longitude": 48.18048,
    "name": "Auchan",
    "city": "Souppes-sur-Loing",
    "description": ""
  },
  {
    "latitude": 1.80847,
    "longitude": 50.94412,
    "name": "Auchan",
    "city": "Calais",
    "description": "Rte de Boulogne"
  },
  {
    "latitude": 2.43042,
    "longitude": 50.95288,
    "name": "Auchan",
    "city": "Socx-Bergues",
    "description": ""
  },
  {
    "latitude": -0.9601,
    "longitude": 44.63766,
    "name": "Auchan",
    "city": "Biganos",
    "description": "C.Cial Facture 1 rue des Fonderies"
  },
  {
    "latitude": 1.07762,
    "longitude": 49.91101,
    "name": "Auchan",
    "city": "Dieppe",
    "description": "C.Cial Belv�d�re avenue des Canadiens"
  },
  {
    "latitude": 4.85815,
    "longitude": 45.80508,
    "name": "Auchan",
    "city": "Caluire-et-Cuire",
    "description": "C.Cial Caluire 2 10 chemin Jean Petit"
  },
  {
    "latitude": 2.39871,
    "longitude": 48.87079,
    "name": "Auchan",
    "city": "Paris",
    "description": ""
  },
  {
    "latitude": 3.98542,
    "longitude": 47.85343,
    "name": "Auchan",
    "city": "Tonnerre",
    "description": "Route de Dijon"
  },
  {
    "latitude": 2.25303,
    "longitude": 48.70573,
    "name": "Auchan",
    "city": "Villebon-Yvette",
    "description": ""
  },
  {
    "latitude": 2.52267,
    "longitude": 48.9923,
    "name": "Auchan",
    "city": "Roissy",
    "description": ""
  },
  {
    "latitude": -0.56352,
    "longitude": 44.88306,
    "name": "Auchan",
    "city": "Blanquefort",
    "description": ""
  },
  {
    "latitude": 2.44646,
    "longitude": 48.90601,
    "name": "Auchan",
    "city": "Bobigny",
    "description": ""
  },
  {
    "latitude": 2.49235,
    "longitude": 48.62053,
    "name": "Auchan",
    "city": "Saint-Germain-l�s-Cobeil",
    "description": ""
  },
  {
    "latitude": 2.97695,
    "longitude": 50.41267,
    "name": "Auchan",
    "city": "Noyelles Godault",
    "description": "Rte Nationale 43"
  },
  {
    "latitude": 2.08164,
    "longitude": 49.038,
    "name": "Auchan",
    "city": "Cergy Pr�fecture",
    "description": "C.Cial des 3 Fontaines"
  },
  {
    "latitude": 7.69517,
    "longitude": 48.59166,
    "name": "Auchan",
    "city": "Strasbourg",
    "description": "C.Cial Haute Pierre place Andr� Maurois"
  },
  {
    "latitude": 1.91164,
    "longitude": 47.86718,
    "name": "Auchan",
    "city": "Olivet",
    "description": "600 avenue de Verdun"
  },
  {
    "latitude": 3.12849,
    "longitude": 50.6174,
    "name": "Auchan",
    "city": "Villeneuve-d'Asq",
    "description": "Quartier Hotel de Ville C.Cial V2"
  },
  {
    "latitude": 2.39484,
    "longitude": 48.83915,
    "name": "Auchan",
    "city": "Paris",
    "description": ""
  },
  {
    "latitude": 3.28984,
    "longitude": 44.74098,
    "name": "Auchan",
    "city": "Aumont-Aubrac",
    "description": ""
  },
  {
    "latitude": 1.91721,
    "longitude": 48.76182,
    "name": "Auchan",
    "city": "Maurepas",
    "description": "C.Cial Pariwest avenue Gutenberg"
  },
  {
    "latitude": 0.65678,
    "longitude": 47.42594,
    "name": "Auchan",
    "city": "St-Cyr-sur-Loire",
    "description": "C.Cial Choisille 247 Bd Charles de Gaulle"
  },
  {
    "latitude": 2.29071,
    "longitude": 48.99159,
    "name": "Auchan",
    "city": "Soisy-sous-Montmorency",
    "description": "28 avenue de Paris"
  },
  {
    "latitude": 5.85838,
    "longitude": 43.11094,
    "name": "Auchan",
    "city": "La Seyne-sur-mer",
    "description": "780 Bd de l'Europe"
  },
  {
    "latitude": 1.77744,
    "longitude": 49.27841,
    "name": "Auchan",
    "city": "Gisors",
    "description": ""
  },
  {
    "latitude": 3.24172,
    "longitude": 43.3449,
    "name": "Auchan",
    "city": "Beziers",
    "description": "C.Cial Bezier 2 4 avenue de la voie Domitienne"
  },
  {
    "latitude": 0.65841,
    "longitude": 45.19254,
    "name": "Auchan",
    "city": "Perigueux-Marsac-s/L'Iles",
    "description": "C.Cial Auchan Lieux dit La Cropte"
  },
  {
    "latitude": 2.28805,
    "longitude": 48.8832,
    "name": "Auchan",
    "city": "Paris",
    "description": ""
  },
  {
    "latitude": 2.92164,
    "longitude": 47.38997,
    "name": "Auchan",
    "city": "Cosne-sur-Loire",
    "description": "Chemin dit du Grand Champs"
  },
  {
    "latitude": 7.74189,
    "longitude": 48.83295,
    "name": "Auchan",
    "city": "Schweighouse-sur-Moder",
    "description": "ZI Zinzel RN 62 Haguenau"
  },
  {
    "latitude": 3.47939,
    "longitude": 50.37599,
    "name": "Auchan",
    "city": "Petite For�t",
    "description": "RN 45"
  },
  {
    "latitude": 3.01371,
    "longitude": 47.1911,
    "name": "Auchan",
    "city": "La Charit�-sur-Loire",
    "description": "138 av Mar�chal Leclerc"
  },
  {
    "latitude": 3.50475,
    "longitude": 47.4551,
    "name": "Auchan",
    "city": "Clamecy",
    "description": "route d'Orl�ans route de Cosne"
  },
  {
    "latitude": 6.12635,
    "longitude": 48.69143,
    "name": "Auchan",
    "city": "Laxou",
    "description": "C.Cial La Sapiniere rue De La Sapini�re"
  },
  {
    "latitude": 2.27085,
    "longitude": 50.73572,
    "name": "Auchan",
    "city": "St-Omer",
    "description": "C.Cial Maillebois Rte d'Arques"
  },
  {
    "latitude": 6.14687,
    "longitude": 49.19533,
    "name": "Auchan",
    "city": "Sem�court",
    "description": "Metz Voie Romaine"
  },
  {
    "latitude": 2.18815,
    "longitude": 43.58858,
    "name": "Auchan",
    "city": "Castres",
    "description": "C.Cial Grand Sud ZI Chartreuse Rte de Toulouse"
  },
  {
    "latitude": -0.34307,
    "longitude": 49.21357,
    "name": "Auchan",
    "city": "Herouville",
    "description": ""
  },
  {
    "latitude": 6.22183,
    "longitude": 48.68472,
    "name": "Auchan",
    "city": "Tomblaine",
    "description": "avenue Eug�ne Potier"
  },
  {
    "latitude": 1.75857,
    "longitude": 48.46533,
    "name": "Auchan",
    "city": "Auneau",
    "description": ""
  },
  {
    "latitude": 4.83636,
    "longitude": 45.76537,
    "name": "Auchan",
    "city": "Sainte-Foy-l�s-Lyon",
    "description": ""
  },
  {
    "latitude": 2.77802,
    "longitude": 48.85572,
    "name": "Auchan",
    "city": "Marne-la-Vall�e",
    "description": "Val d Europe 14 cours du Danube Serris"
  },
  {
    "latitude": 6.91606,
    "longitude": 47.6401,
    "name": "Auchan",
    "city": "Belfort-Bessoncourt",
    "description": "Lieu dit Blozier D419"
  },
  {
    "latitude": 3.09152,
    "longitude": 45.74544,
    "name": "Auchan",
    "city": "Beaumont",
    "description": ""
  },
  {
    "latitude": 3.25247,
    "longitude": 49.86042,
    "name": "Auchan",
    "city": "Saint-Quentin-le-Fayet",
    "description": "Rte d'Amiens RN 29"
  },
  {
    "latitude": 4.56223,
    "longitude": 47.88008,
    "name": "Auchan",
    "city": "Ch�tillon-sur-Seine",
    "description": ""
  },
  {
    "latitude": 2.89207,
    "longitude": 42.67819,
    "name": "Auchan",
    "city": "Perpignan",
    "description": "C.Cial avenue d'Espagne avenue d Espagne"
  },
  {
    "latitude": 5.42467,
    "longitude": 43.27903,
    "name": "Auchan",
    "city": "Marseille",
    "description": "C.Cial Pont de Vivaux 57 bd Romain Rolland"
  },
  {
    "latitude": 2.27819,
    "longitude": 51.00582,
    "name": "Auchan",
    "city": "C.Cial Flandre Littorale",
    "description": "Rte Nle 40"
  },
  {
    "latitude": 2.25999,
    "longitude": 48.70969,
    "name": "Auchan",
    "city": "Villebon-sur-Yvette",
    "description": "C.Cial Villebon 2 Chemin de Briis"
  },
  {
    "latitude": 2.59981,
    "longitude": 48.58763,
    "name": "Auchan",
    "city": "Cesson",
    "description": "N 5 Melun Senart"
  },
  {
    "latitude": 2.07865,
    "longitude": 49.07739,
    "name": "Auchan",
    "city": "Osny",
    "description": "C.Cial de l'Oseraie CD915"
  },
  {
    "latitude": 5.05109,
    "longitude": 43.83607,
    "name": "Auchan",
    "city": "Cavaillon",
    "description": "Le Ravaou 28 avenue des Taillades"
  },
  {
    "latitude": -0.5697,
    "longitude": 44.87862,
    "name": "Auchan",
    "city": "Bordeaux",
    "description": "C.Cial Le Lac avenue du Lac"
  },
  {
    "latitude": 2.31309,
    "longitude": 48.95389,
    "name": "Auchan",
    "city": "�pinay-sur-Seine",
    "description": ""
  },
  {
    "latitude": 7.33545,
    "longitude": 47.77743,
    "name": "Auchan",
    "city": "Mulhouse",
    "description": "C.Cial Auchan 170 rue des Romains - Bourtzwiller"
  },
  {
    "latitude": 2.2198,
    "longitude": 49.01493,
    "name": "Auchan",
    "city": "Taverny",
    "description": "C.Cial Portes de Taverny ZAC du bois de Boissy"
  },
  {
    "latitude": 4.79217,
    "longitude": 45.68086,
    "name": "Auchan",
    "city": "Saint-Genis-Laval",
    "description": ""
  },
  {
    "latitude": 2.56794,
    "longitude": 46.33928,
    "name": "Auchan",
    "city": "Montlu�on-Domerat",
    "description": "route de Gueret Terre Neuve"
  },
  {
    "latitude": 2.88142,
    "longitude": 42.66892,
    "name": "Auchan",
    "city": "Perpignan",
    "description": ""
  },
  {
    "latitude": 2.37165,
    "longitude": 48.98586,
    "name": "Auchan",
    "city": "Sarcelles",
    "description": "200 avenue de la division Leclerc"
  },
  {
    "latitude": -1.6056,
    "longitude": 47.24682,
    "name": "Auchan",
    "city": "St-Herblain",
    "description": "Espace Oc�an 325 route de Vannes"
  },
  {
    "latitude": 2.14097,
    "longitude": 49.21801,
    "name": "Auchan",
    "city": "M�ru",
    "description": ""
  },
  {
    "latitude": 4.88002,
    "longitude": 43.98207,
    "name": "Auchan",
    "city": "Le Pontet",
    "description": "N542 ZAC St-Tronquet"
  },
  {
    "latitude": 1.37275,
    "longitude": 47.57081,
    "name": "Auchan",
    "city": "Vineuil",
    "description": "ZI Les Gats du Coeur C.Cial Auchan"
  },
  {
    "latitude": 4.86365,
    "longitude": 43.92193,
    "name": "Auchan",
    "city": "Avignon",
    "description": "N7 route de Marseille"
  },
  {
    "latitude": 1.86153,
    "longitude": 47.90401,
    "name": "Auchan",
    "city": "St-Jean-de-la-Ruelle",
    "description": "Orl�ans avenue Pierre Mendes France"
  },
  {
    "latitude": 4.86719,
    "longitude": 44.93912,
    "name": "Auchan",
    "city": "Guilherand-Granges",
    "description": "1449 Avenue De La R�publique"
  },
  {
    "latitude": 3.23403,
    "longitude": 50.47507,
    "name": "Auchan",
    "city": "Orchie",
    "description": ""
  },
  {
    "latitude": 3.08118,
    "longitude": 50.58309,
    "name": "Auchan",
    "city": "Faches-Thumesnil",
    "description": "Rte de Vendeville"
  },
  {
    "latitude": 4.92501,
    "longitude": 45.72279,
    "name": "Auchan",
    "city": "Lyon-St-Priest",
    "description": "ZAC de Champs du Pont Bd Boulloche"
  },
  {
    "latitude": 2.23696,
    "longitude": 48.66549,
    "name": "Auchan",
    "city": "Nozay",
    "description": ""
  },
  {
    "latitude": 3.28997,
    "longitude": 44.55913,
    "name": "Auchan",
    "city": "Marvejols",
    "description": ""
  },
  {
    "latitude": 0.20401,
    "longitude": 45.63889,
    "name": "Auchan",
    "city": "Soyaux",
    "description": ""
  },
  {
    "latitude": 0.28077,
    "longitude": 46.53165,
    "name": "Auchan",
    "city": "Fontaine-le-Comte",
    "description": "C.Cial Auchan Rue Du Vercors"
  },
  {
    "latitude": 2.31167,
    "longitude": 48.88486,
    "name": "Auchan",
    "city": "Paris",
    "description": ""
  },
  {
    "latitude": 2.86082,
    "longitude": 48.95795,
    "name": "Auchan",
    "city": "Chauconin-Neufmontiers",
    "description": ""
  },
  {
    "latitude": -0.60766,
    "longitude": 47.51697,
    "name": "Auchan",
    "city": "Avrill�",
    "description": ""
  },
  {
    "latitude": 2.04222,
    "longitude": 45.40228,
    "name": "Auchan",
    "city": "Egletons",
    "description": ""
  },
  {
    "latitude": 3.09952,
    "longitude": 50.34169,
    "name": "Auchan",
    "city": "C.Cial Les Epis",
    "description": "N 17 Rte de Cambrai Sin Le Noble"
  },
  {
    "latitude": 4.06553,
    "longitude": 46.59033,
    "name": "Auchan",
    "city": "Gueugnon",
    "description": "route de Digoin 71"
  },
  {
    "latitude": 0.36978,
    "longitude": 46.66578,
    "name": "Auchan",
    "city": "Chasseneuil-du-Poitou",
    "description": "C.Cial Auchan N10"
  },
  {
    "latitude": 6.06608,
    "longitude": 44.54328,
    "name": "Auchan",
    "city": "Gap",
    "description": ""
  },
  {
    "latitude": 4.39565,
    "longitude": 45.42308,
    "name": "Auchan",
    "city": "Saint-�tienne",
    "description": ""
  },
  {
    "latitude": -0.52656,
    "longitude": 44.81693,
    "name": "Auchan",
    "city": "Bordeaux-Bouliac",
    "description": "CD 113. Lieu dit Bonneau"
  },
  {
    "latitude": 2.5176,
    "longitude": 48.85474,
    "name": "Auchan",
    "city": "Neuilly-sur-Marne",
    "description": "C.Cial Baobab 1 � 9 av. du Mar�chal Foch"
  },
  {
    "latitude": 2.16977,
    "longitude": 48.87608,
    "name": "Auchan",
    "city": "Rueil-Malmaison",
    "description": ""
  },
  {
    "latitude": 2.68273,
    "longitude": 48.54132,
    "name": "Auchan",
    "city": "Vaux-Le-P�nil",
    "description": ""
  },
  {
    "latitude": 2.43787,
    "longitude": 48.71475,
    "name": "Auchan",
    "city": "Vigneux",
    "description": "C.Cial Val d Oly 8 rue de la Longueraie"
  },
  {
    "latitude": 2.91335,
    "longitude": 48.95317,
    "name": "Auchan",
    "city": "Meaux",
    "description": ""
  },
  {
    "latitude": 3.22097,
    "longitude": 50.68072,
    "name": "Auchan",
    "city": "Leers",
    "description": "1 Avenue de l'Europe"
  },
  {
    "latitude": 5.1812,
    "longitude": 48.7606,
    "name": "Auchan",
    "city": "Bar le duc",
    "description": "Savonni�res Devant Bar 1 route de Longeville"
  },
  {
    "latitude": 2.27981,
    "longitude": 49.86229,
    "name": "Auchan",
    "city": "Dury les Amiens",
    "description": "C.Cial Amiens Sud Rte de Paris"
  },
  {
    "latitude": 2.4834,
    "longitude": 49.27171,
    "name": "Auchan",
    "city": "Nogent-sur-Oise",
    "description": "4 avenue de l'Europe"
  },
  {
    "latitude": -0.5848,
    "longitude": 44.83861,
    "name": "Auchan",
    "city": "Bordeaux-Meriadeck",
    "description": "Quartier de l'hotel de Ville"
  },
  {
    "latitude": 6.07484,
    "longitude": 45.93793,
    "name": "Auchan",
    "city": "Epagny",
    "description": "ZAC de Mandallaz 2 route de Bellegarde"
  },
  {
    "latitude": 2.73673,
    "longitude": 50.29909,
    "name": "Auchan",
    "city": "Arras",
    "description": "6 rue Claude Bernard ZI Ouest"
  },
  {
    "latitude": 3.25485,
    "longitude": 50.1843,
    "name": "Auchan",
    "city": "Cambrai",
    "description": "Escaudoeuvres 2 rue Jean Jaur�s"
  },
  {
    "latitude": 3.29239,
    "longitude": 48.1717,
    "name": "Auchan",
    "city": "Sens",
    "description": ""
  },
  {
    "latitude": 6.95096,
    "longitude": 43.63472,
    "name": "Auchan",
    "city": "Grasse",
    "description": "C.Cial La Paoute 158 Route De Cannes"
  },
  {
    "latitude": 1.92071,
    "longitude": 48.7456,
    "name": "Auchan",
    "city": "Coigni�res",
    "description": "RN10 RN 10"
  },
  {
    "latitude": 2.62033,
    "longitude": 47.68803,
    "name": "Auchan",
    "city": "Gien",
    "description": "C.Cial Auchan 80 place de la Victoire"
  },
  {
    "latitude": 2.34389,
    "longitude": 48.94919,
    "name": "Auchan",
    "city": "Villetaneuse",
    "description": "189 avenue de la division Leclerc"
  },
  {
    "latitude": 1.48362,
    "longitude": 43.6317,
    "name": "Auchan",
    "city": "Toulouse",
    "description": "N112 92 chemin de Gabardie"
  },
  {
    "latitude": 4.76714,
    "longitude": 45.82048,
    "name": "Auchan",
    "city": "Dardilly",
    "description": "RN 6 Lieu dit La Garde"
  },
  {
    "latitude": 2.97638,
    "longitude": 49.57005,
    "name": "Auchan",
    "city": "Noyon",
    "description": "C.Cial Noyon Sud RN32 ZAC du Mont Renaud"
  },
  {
    "latitude": -0.58627,
    "longitude": 44.81714,
    "name": "Auchan",
    "city": "Talence",
    "description": ""
  },
  {
    "latitude": 5.80078,
    "longitude": 49.54379,
    "name": "Auchan",
    "city": "Mont-Saint-Martin",
    "description": "C.Cial P�le Europe 1 avenue de l Europe"
  },
  {
    "latitude": 6.19877,
    "longitude": 48.68042,
    "name": "Auchan",
    "city": "Nancy",
    "description": "127 Boulevard Lobau"
  },
  {
    "latitude": 0.19039,
    "longitude": 49.52729,
    "name": "Auchan",
    "city": "Montivilliers",
    "description": "C.Cial Le Grand Havre La L�zarde"
  },
  {
    "latitude": 3.93481,
    "longitude": 50.25673,
    "name": "Auchan",
    "city": "Louvroil",
    "description": "C.Cial Auchan D�partmentale 121"
  },
  {
    "latitude": -1.49421,
    "longitude": 47.19089,
    "name": "Auchan",
    "city": "St-Sebastien-sur-Loire",
    "description": "Nantes 2 rue Pierre Mendes France"
  },
  {
    "latitude": 2.37656,
    "longitude": 43.51246,
    "name": "Auchan",
    "city": "Aussillon",
    "description": ""
  },
  {
    "latitude": -2.20927,
    "longitude": 47.30152,
    "name": "Auchan",
    "city": "Trignac",
    "description": "St-Nazaire C.Cial ZAC de la fontaine au brun N 471"
  },
  {
    "latitude": 4.87624,
    "longitude": 46.6317,
    "name": "Auchan",
    "city": "Sennecey-le-Grand",
    "description": ""
  },
  {
    "latitude": 2.21952,
    "longitude": 48.78201,
    "name": "Auchan",
    "city": "Velizy",
    "description": "C.Cial Velizy 2 2 avenue de l'Europe"
  },
  {
    "latitude": -0.30634,
    "longitude": 45.68356,
    "name": "Auchan",
    "city": "Chateaubernard",
    "description": "C.Cial Auchan Le Fief du Roy"
  },
  {
    "latitude": 1.96563,
    "longitude": 48.82901,
    "name": "Auchan",
    "city": "Plaisir",
    "description": "C.Cial Grand Plaisir CD 161"
  },
  {
    "latitude": 0.17465,
    "longitude": 48.04199,
    "name": "Auchan",
    "city": "La-Chapelle-Saint-Aubin",
    "description": "Le Mans ZAC du Moulin aux Moines"
  },
  {
    "latitude": 2.43664,
    "longitude": 48.88009,
    "name": "Auchan",
    "city": "Romainville",
    "description": ""
  },
  {
    "latitude": 3.9148,
    "longitude": 45.0495,
    "name": "Auchan",
    "city": "Brives-Charensac",
    "description": "Plaine de Corsac route de Coubon"
  },
  {
    "latitude": 3.90809,
    "longitude": 47.49957,
    "name": "Auchan",
    "city": "Avallon",
    "description": "Route de Tonnerre"
  },
  {
    "latitude": 0.6991,
    "longitude": 47.33934,
    "name": "Auchan",
    "city": "Tours-Sud-Chambray",
    "description": "C.Cial la Vrillonnerie Rte de Jou�"
  },
  {
    "latitude": 2.59037,
    "longitude": 48.86953,
    "name": "Auchan",
    "city": "Chelle",
    "description": ""
  },
  {
    "latitude": 2.38858,
    "longitude": 48.87053,
    "name": "Auchan",
    "city": "Paris",
    "description": ""
  },
  {
    "latitude": 3.51889,
    "longitude": 50.3456,
    "name": "Auchan",
    "city": "Valenciennes",
    "description": "avenue du G�n�ral Horne"
  },
  {
    "latitude": 1.40927,
    "longitude": 50.06167,
    "name": "Auchan",
    "city": "Mers-Les-Bains",
    "description": "RN 15bis Fond de Froideville"
  },
  {
    "latitude": 2.13629,
    "longitude": 49.22375,
    "name": "Auchan",
    "city": "Meru",
    "description": "rue Marcel Coquet ZAC CD609"
  },
  {
    "latitude": 3.10861,
    "longitude": 45.8114,
    "name": "Auchan",
    "city": "Clermont-Ferrand",
    "description": "C.Cial Croix Neyrat Bd Etienne Cl�mentel"
  },
  {
    "latitude": 3.66894,
    "longitude": 43.40862,
    "name": "Auchan",
    "city": "S�te",
    "description": "Bd Camille Blanc Les Metairies"
  },
  {
    "latitude": 4.83912,
    "longitude": 46.32419,
    "name": "Auchan",
    "city": "Macon",
    "description": "RN6 ZUP Nord"
  },
  {
    "latitude": 2.6302,
    "longitude": 50.52258,
    "name": "Auchan",
    "city": "B�thune",
    "description": "rue du docteur Dehnin C.Cial La Rotonde"
  },
  {
    "latitude": 3.12806,
    "longitude": 45.75293,
    "name": "Auchan",
    "city": "Aubi�re",
    "description": "Route d'Issoire 101 av Jean Moulin"
  },
  {
    "latitude": 0.67201,
    "longitude": 44.40451,
    "name": "Auchan",
    "city": "Villeneuve-sur-Lot - Bias",
    "description": "RN111 Rte de Bordeaux"
  },
  {
    "latitude": 0.30144,
    "longitude": 46.55141,
    "name": "Auchan",
    "city": "Poitiers",
    "description": "250 avenue du mai 1945"
  },
  {
    "latitude": 2.9667,
    "longitude": 50.63208,
    "name": "Auchan",
    "city": "C.Cial Englos les G�ants",
    "description": "RN 352"
  },
  {
    "latitude": 3.15964,
    "longitude": 50.72072,
    "name": "Auchan",
    "city": "Tourcoing",
    "description": ""
  },
  {
    "latitude": 3.94218,
    "longitude": 43.57265,
    "name": "Auchan",
    "city": "P�rols",
    "description": "C.Cial Plein Sud Autoroute de Carnon"
  },
  {
    "latitude": 1.91222,
    "longitude": 48.97973,
    "name": "Auchan",
    "city": "Les Mureaux",
    "description": "Centre commercial Espace"
  },
  {
    "latitude": 6.38862,
    "longitude": 47.82236,
    "name": "Auchan",
    "city": "Luxeuil les Bains",
    "description": "rue de l'Etang de la Poche Le Mont Valot - RN 57"
  },
  {
    "latitude": -1.60007,
    "longitude": 49.60296,
    "name": "Auchan",
    "city": "La Glacerie",
    "description": "C.Cial du Cotentin Cherbourg"
  },
  {
    "latitude": 3.12027,
    "longitude": 50.61535,
    "name": "Auchan",
    "city": "Lezennes",
    "description": ""
  },
  {
    "latitude": 0.10523,
    "longitude": 45.61949,
    "name": "Auchan",
    "city": "La Courronne",
    "description": "C.Cial Auchan route de Bordeaux"
  },
  {
    "latitude": -0.73912,
    "longitude": 46.37163,
    "name": "Coop",
    "city": "85 Maillezais",
    "description": ""
  },
  {
    "latitude": 2.44417,
    "longitude": 48.91656,
    "name": "Diagonal",
    "city": "93 Drancy",
    "description": "Avenue Henri Barbusse"
  },
  {
    "latitude": -4.07849,
    "longitude": 48.4056,
    "name": "Utile",
    "city": "29 Sizun",
    "description": ""
  },
  {
    "latitude": 2.2824,
    "longitude": 48.91638,
    "name": "Votre March�",
    "city": "92 Asnieres-sur-Seine",
    "description": ""
  },
  {
    "latitude": -4.17997,
    "longitude": 48.29513,
    "name": "Votre March�",
    "city": "29 Le Faou",
    "description": ""
  },
  {
    "latitude": -0.95932,
    "longitude": 45.93525,
    "name": "Coop",
    "city": "17 Rochefort",
    "description": ""
  },
  {
    "latitude": 7.59109,
    "longitude": 48.52845,
    "name": "Coop",
    "city": "67 Duppigheim",
    "description": "45 rue du G�n�ral de Gaulle"
  },
  {
    "latitude": 7.2094,
    "longitude": 47.91085,
    "name": "Coop",
    "city": "68 Guebwiller",
    "description": "126 Rue de La R�publique"
  },
  {
    "latitude": 7.27003,
    "longitude": 48.50773,
    "name": "Coop",
    "city": "67 Wisches",
    "description": "5 Rue de La Gare"
  },
  {
    "latitude": 4.80992,
    "longitude": 43.94758,
    "name": "U Express",
    "city": "84 Avignon",
    "description": ""
  },
  {
    "latitude": 7.74344,
    "longitude": 48.58089,
    "name": "Coop",
    "city": "67 Strasbourg",
    "description": "15 Rue Des Dentelles"
  },
  {
    "latitude": 7.38045,
    "longitude": 48.91895,
    "name": "Coop",
    "city": "67 Wingen-Sur-Moder",
    "description": "Rue Principale"
  },
  {
    "latitude": 7.3303,
    "longitude": 48.55005,
    "name": "Coop",
    "city": "67 Oberhaslach",
    "description": "42 Rue Principale"
  },
  {
    "latitude": 2.47093,
    "longitude": 48.80748,
    "name": "Eco Service",
    "city": "94 Saint-Maur-des-Foss�s",
    "description": "rue du Pont de Cr�teil"
  },
  {
    "latitude": 1.08498,
    "longitude": 44.1039,
    "name": "Relais Mousquetaires",
    "city": "82 Moissac",
    "description": ""
  },
  {
    "latitude": 7.46633,
    "longitude": 48.75325,
    "name": "Coop",
    "city": "67 Dettwiller",
    "description": "1 rue des Bouchers"
  },
  {
    "latitude": -3.99833,
    "longitude": 48.48786,
    "name": "Votre March�",
    "city": "29 Guimiliau",
    "description": ""
  },
  {
    "latitude": -2.24835,
    "longitude": 47.0006,
    "name": "U Express",
    "city": "85 Noirmoutier-en-l'Ile",
    "description": ""
  },
  {
    "latitude": -4.1536,
    "longitude": 47.93413,
    "name": "Votre March�",
    "city": "29 Plomelin",
    "description": ""
  },
  {
    "latitude": 2.31754,
    "longitude": 48.85734,
    "name": "Diagonal",
    "city": "75 Paris 07",
    "description": "39 Rue de Bourgogne"
  },
  {
    "latitude": 7.208,
    "longitude": 48.45735,
    "name": "Coop",
    "city": "67 Rothau",
    "description": "1 Rue de Schirmeck"
  },
  {
    "latitude": 2.9274,
    "longitude": 48.4264,
    "name": "Carrefour",
    "city": "77 A5 - Jonchets Grande Paroisse",
    "description": ""
  },
  {
    "latitude": -1.93301,
    "longitude": 47.98493,
    "name": "Viveco",
    "city": "35 Baulon",
    "description": "Place de l'Eglise"
  },
  {
    "latitude": 2.25144,
    "longitude": 48.83901,
    "name": "Votre March�",
    "city": "92 Boulogne-Billancourt",
    "description": "Rue du Parc"
  },
  {
    "latitude": 7.96246,
    "longitude": 48.82962,
    "name": "Coop",
    "city": "67 Soufflenheim",
    "description": "8 Grand Rue"
  },
  {
    "latitude": 7.33323,
    "longitude": 48.07303,
    "name": "Coop",
    "city": "68 Colmar",
    "description": "18 Rue des Trois Ch�teaux"
  },
  {
    "latitude": 5.69278,
    "longitude": 43.18139,
    "name": "Supermarch�",
    "city": "83 Saint-Cyr-sur-Mer",
    "description": "D559"
  },
  {
    "latitude": -4.15974,
    "longitude": 48.3268,
    "name": "Votre March�",
    "city": "29 Hanvec",
    "description": ""
  },
  {
    "latitude": 7.61457,
    "longitude": 48.55827,
    "name": "Coop",
    "city": "67 Hangenbieten",
    "description": "Rue de Woerth"
  },
  {
    "latitude": 7.9875,
    "longitude": 48.97052,
    "name": "Coop",
    "city": "67 Seebach",
    "description": "place de la Mairie"
  },
  {
    "latitude": 4.843,
    "longitude": 46.6936,
    "name": "Carrefour",
    "city": "71 A6 - La Fert�",
    "description": ""
  },
  {
    "latitude": 7.22234,
    "longitude": 48.06403,
    "name": "Coop",
    "city": "68 Walbach",
    "description": "2 place de l'Ecole"
  },
  {
    "latitude": 4.837,
    "longitude": 46.9603,
    "name": "Carrefour",
    "city": "21 A6 - Beaune",
    "description": ""
  },
  {
    "latitude": 7.67278,
    "longitude": 48.44774,
    "name": "Coop",
    "city": "67 Nordhouse",
    "description": "87a Rue Grun"
  },
  {
    "latitude": 7.27902,
    "longitude": 48.27078,
    "name": "Coop",
    "city": "68 Liepvre",
    "description": "29 Rue Cl�menceau"
  },
  {
    "latitude": 2.7222,
    "longitude": 48.2617,
    "name": "Carrefour",
    "city": "77 A6 - Nemours",
    "description": ""
  },
  {
    "latitude": -2.36893,
    "longitude": 47.28094,
    "name": "Sitis",
    "city": "44 La Baule-Escoublac",
    "description": "49 avenue Louis Lajarrige"
  },
  {
    "latitude": -3.88981,
    "longitude": 47.99549,
    "name": "Votre March�",
    "city": "29 Elliant",
    "description": ""
  },
  {
    "latitude": 4.84307,
    "longitude": 45.75616,
    "name": "U Express",
    "city": "69 Lyon 3",
    "description": "Libert�"
  },
  {
    "latitude": 7.42287,
    "longitude": 48.38581,
    "name": "Coop",
    "city": "67 Andlau",
    "description": "Rue de la Commanderie"
  },
  {
    "latitude": -1.78946,
    "longitude": 48.05271,
    "name": "Votre March�",
    "city": "35 Chavagne",
    "description": ""
  },
  {
    "latitude": 7.60759,
    "longitude": 48.50471,
    "name": "Coop",
    "city": "67 Blaesheim",
    "description": "rue de l'Ehn"
  },
  {
    "latitude": 4.87808,
    "longitude": 44.0878,
    "name": "U Express",
    "city": "84 Courth�zon",
    "description": "86-526 All�e Raimbaud d'Orange"
  },
  {
    "latitude": 7.64063,
    "longitude": 48.75843,
    "name": "Coop",
    "city": "67 Mommenheim",
    "description": "8 Rue du G�n�ral de Gaulle"
  },
  {
    "latitude": 7.46504,
    "longitude": 48.35929,
    "name": "Coop",
    "city": "67 Epfig",
    "description": "211 rue de l'Eglise"
  },
  {
    "latitude": -1.79641,
    "longitude": 48.10005,
    "name": "U Express",
    "city": "35 Le Rheu",
    "description": "Rue de Cintr�"
  },
  {
    "latitude": 7.7712,
    "longitude": 48.53606,
    "name": "Coop",
    "city": "67 Strasbourg",
    "description": "95 Route d'Altenheim"
  },
  {
    "latitude": 0.1872,
    "longitude": 44.4048,
    "name": "Carrefour",
    "city": "47 A62 - Le Mas-d'Agenais",
    "description": ""
  },
  {
    "latitude": 0.20036,
    "longitude": 48.00396,
    "name": "U Express",
    "city": "72 Le Mans",
    "description": "37-41 Ave du Gal De Gaulle"
  },
  {
    "latitude": 4.84639,
    "longitude": 45.76201,
    "name": "U Express",
    "city": "69 Lyon 3",
    "description": "Vendome-Lafayette"
  },
  {
    "latitude": 7.44239,
    "longitude": 48.26512,
    "name": "Coop",
    "city": "67 S�lestat",
    "description": "All�e de La Lohm�hle"
  },
  {
    "latitude": 6.56672,
    "longitude": 45.39802,
    "name": "Supermarch�",
    "city": "73 M�ribel-les-Allues",
    "description": ""
  },
  {
    "latitude": 7.70946,
    "longitude": 48.53914,
    "name": "Coop",
    "city": "67 Ostwald",
    "description": "Rue de Cernay"
  },
  {
    "latitude": 7.76122,
    "longitude": 48.59392,
    "name": "Coop",
    "city": "67 Strasbourg",
    "description": "3b Rue Lauth"
  },
  {
    "latitude": 7.09861,
    "longitude": 47.81235,
    "name": "Coop",
    "city": "68 Thann",
    "description": ""
  },
  {
    "latitude": -4.7186,
    "longitude": 48.3415,
    "name": "Votre March�",
    "city": "29 Plougonvelin",
    "description": ""
  },
  {
    "latitude": 7.41126,
    "longitude": 48.77153,
    "name": "Coop",
    "city": "67 Steinbourg",
    "description": "5 Rue du Mar�chal Leclerc"
  },
  {
    "latitude": 5.73111,
    "longitude": 45.19206,
    "name": "U Express",
    "city": "38 Grenoble",
    "description": "2 Rue du Pr�sident Carnot"
  },
  {
    "latitude": -1.51889,
    "longitude": 47.25885,
    "name": "U Express",
    "city": "44 Nantes",
    "description": "Beaujoire"
  },
  {
    "latitude": 7.79672,
    "longitude": 48.94439,
    "name": "Coop",
    "city": "67 Preuschdorf",
    "description": "61 Rue des Voyageurs"
  },
  {
    "latitude": 2.09233,
    "longitude": 49.06274,
    "name": "Sitis",
    "city": "95 Osny",
    "description": ""
  },
  {
    "latitude": 2.27544,
    "longitude": 48.87963,
    "name": "Votre March�",
    "city": "92 Neuilly-sur-Seine",
    "description": "41-65 Avenue Charles de Gaulle"
  },
  {
    "latitude": 2.39851,
    "longitude": 48.87066,
    "name": "A 2 pas",
    "city": "75 Paris 20",
    "description": "157 Rue de M�nilmontant"
  },
  {
    "latitude": 7.96873,
    "longitude": 49.03091,
    "name": "Coop",
    "city": "67 Altenstadt",
    "description": "29 Rue Principale"
  },
  {
    "latitude": 7.74915,
    "longitude": 48.5902,
    "name": "Coop",
    "city": "67 Strasbourg",
    "description": "63 Avenue des Vosges"
  },
  {
    "latitude": -3.36305,
    "longitude": 47.74329,
    "name": "Utile",
    "city": "56 Lorient",
    "description": "5 rue Adolphe Rondeaux"
  },
  {
    "latitude": -2.68962,
    "longitude": 48.06057,
    "name": "U Express",
    "city": "56 Br�han",
    "description": "16 rue de Ch�teaubriant"
  },
  {
    "latitude": 6.94125,
    "longitude": 47.80846,
    "name": "Coop",
    "city": "68 Oberbruck",
    "description": "26 Rue Principale"
  },
  {
    "latitude": -3.94617,
    "longitude": 48.51997,
    "name": "Votre March�",
    "city": "29 Saint-Th�gonnec",
    "description": ""
  },
  {
    "latitude": 7.70421,
    "longitude": 48.3191,
    "name": "Coop",
    "city": "67 Rhinau",
    "description": "11 place de l'Hotel de Ville"
  },
  {
    "latitude": 7.75761,
    "longitude": 48.60925,
    "name": "Coop",
    "city": "67 Schiltigheim",
    "description": "Rue de La Zorn"
  },
  {
    "latitude": 7.76021,
    "longitude": 48.56484,
    "name": "Coop",
    "city": "67 Strasbourg",
    "description": "105 Route du Polygone"
  },
  {
    "latitude": 7.80044,
    "longitude": 48.71761,
    "name": "Coop",
    "city": "67 Weyersheim",
    "description": "Rue de La R�publique"
  },
  {
    "latitude": 7.57297,
    "longitude": 48.49574,
    "name": "Coop",
    "city": "67 Innenheim",
    "description": "77 rue principale"
  },
  {
    "latitude": 4.85906,
    "longitude": 45.67416,
    "name": "U Express",
    "city": "69 Feyzin",
    "description": ""
  },
  {
    "latitude": 3.13086,
    "longitude": 50.00647,
    "name": "Coop",
    "city": "80 Epehy",
    "description": ""
  },
  {
    "latitude": 7.73379,
    "longitude": 48.57824,
    "name": "Coop",
    "city": "67 Strasbourg",
    "description": "7 Rue d'Obernai"
  },
  {
    "latitude": 7.7045,
    "longitude": 48.38181,
    "name": "Coop",
    "city": "67 Gerstheim",
    "description": "rue du Moulin"
  },
  {
    "latitude": -1.65267,
    "longitude": 48.09089,
    "name": "Sitis",
    "city": "35 Rennes",
    "description": "16 place du Landrel"
  },
  {
    "latitude": 1.44267,
    "longitude": 49.73275,
    "name": "Viveco",
    "city": "76 Neufch�tel-en-Bray",
    "description": "Rue Saint-Jacques"
  },
  {
    "latitude": 7.36423,
    "longitude": 48.20508,
    "name": "Coop",
    "city": "68 Bergheim",
    "description": "27 Grand'Rue"
  },
  {
    "latitude": 7.30441,
    "longitude": 47.83576,
    "name": "Coop",
    "city": "68 Pulversheim",
    "description": "10 Rue d'Ensisheim"
  },
  {
    "latitude": 2.35405,
    "longitude": 48.8793,
    "name": "Votre March�",
    "city": "75 Paris",
    "description": "7 bd de Denain"
  },
  {
    "latitude": -4.2226,
    "longitude": 47.86398,
    "name": "U Express",
    "city": "29 Pont-l'Abb�",
    "description": ""
  },
  {
    "latitude": 7.49803,
    "longitude": 48.30098,
    "name": "Coop",
    "city": "67 Ebersheim",
    "description": "222 rue de la Chapelle"
  },
  {
    "latitude": 7.36967,
    "longitude": 47.78835,
    "name": "Coop",
    "city": "68 Sausheim",
    "description": "73 Grand Rue"
  },
  {
    "latitude": -1.89983,
    "longitude": 46.72046,
    "name": "Utile",
    "city": "85 Le Fenouiller",
    "description": ""
  },
  {
    "latitude": -4.72316,
    "longitude": 48.40225,
    "name": "Votre March�",
    "city": "29 Ploumoguer",
    "description": ""
  },
  {
    "latitude": 7.55363,
    "longitude": 47.57494,
    "name": "Coop",
    "city": "68 Saint-Louis",
    "description": ""
  },
  {
    "latitude": 7.77344,
    "longitude": 48.61331,
    "name": "Coop",
    "city": "67 Strasbourg",
    "description": "42 Rue De L'Ill"
  },
  {
    "latitude": -1.03068,
    "longitude": 45.62725,
    "name": "Coop",
    "city": "17 Royan",
    "description": ""
  },
  {
    "latitude": 7.42427,
    "longitude": 48.79158,
    "name": "Coop",
    "city": "67 Hattmatt",
    "description": "6 Rue Principale"
  },
  {
    "latitude": 7.74416,
    "longitude": 48.93716,
    "name": "Coop",
    "city": "67 Woerth",
    "description": "5 Rue Principale"
  },
  {
    "latitude": 3.8845,
    "longitude": 43.60884,
    "name": "Supermarch�",
    "city": "34 Montpellier",
    "description": "cc Polygone - Inno"
  },
  {
    "latitude": 7.27487,
    "longitude": 47.82553,
    "name": "Coop",
    "city": "68 Staffelfelden",
    "description": "28 Rue du Chaperon Rouge"
  },
  {
    "latitude": 7.73654,
    "longitude": 48.58227,
    "name": "Coop",
    "city": "67 Strasbourg",
    "description": "21 Rue du Faubourg National"
  },
  {
    "latitude": -2.50981,
    "longitude": 47.29235,
    "name": "Diagonal",
    "city": "44 Le Croisic",
    "description": "Place Dinan"
  },
  {
    "latitude": 5.57781,
    "longitude": 43.40044,
    "name": "Carrefour",
    "city": "13 A52 Nord",
    "description": ""
  },
  {
    "latitude": -2.73654,
    "longitude": 47.69103,
    "name": "Utile",
    "city": "56 Saint-Av�",
    "description": "Place Fran�ois Mitterand"
  },
  {
    "latitude": 7.43989,
    "longitude": 48.47736,
    "name": "Coop",
    "city": "67 Boersch",
    "description": "14 rue de la Lib�ration"
  },
  {
    "latitude": -0.57015,
    "longitude": 48.41463,
    "name": "Viveco",
    "city": "53 Chantrign�",
    "description": "Rue des Vall�es"
  },
  {
    "latitude": 7.73623,
    "longitude": 48.8216,
    "name": "Coop",
    "city": "67 Schweighouse",
    "description": ""
  },
  {
    "latitude": 7.0701,
    "longitude": 48.00902,
    "name": "Coop",
    "city": "68 Metzeral",
    "description": "rue de l'Ecole"
  },
  {
    "latitude": -3.62506,
    "longitude": 47.95932,
    "name": "Votre March�",
    "city": "29 Saint-Thurien",
    "description": ""
  },
  {
    "latitude": -0.72018,
    "longitude": 48.12275,
    "name": "Viveco",
    "city": "53 Louvern�",
    "description": ""
  },
  {
    "latitude": -0.60329,
    "longitude": 45.8944,
    "name": "Carrefour",
    "city": "17 A10 - Fenioux Ouest",
    "description": ""
  },
  {
    "latitude": 7.71968,
    "longitude": 48.59433,
    "name": "Coop",
    "city": "67 Strasbourg",
    "description": "85 Route de Mittelhausbergen"
  },
  {
    "latitude": 5.70522,
    "longitude": 45.18034,
    "name": "Utile",
    "city": "38 Grenoble",
    "description": "Ampere"
  },
  {
    "latitude": -0.64348,
    "longitude": 48.08527,
    "name": "Utile",
    "city": "53 Argentr�",
    "description": ""
  },
  {
    "latitude": 7.82682,
    "longitude": 48.65854,
    "name": "Coop",
    "city": "67 La Wantzenau",
    "description": "Rue des H�ros"
  },
  {
    "latitude": -4.40235,
    "longitude": 48.43376,
    "name": "Votre March�",
    "city": "29 Guipavas",
    "description": ""
  },
  {
    "latitude": 1.35594,
    "longitude": 49.36154,
    "name": "Viveco",
    "city": "27 Fleury-sur-Andelle",
    "description": "Rue Raymond Bisson"
  },
  {
    "latitude": 7.71267,
    "longitude": 48.6695,
    "name": "Coop",
    "city": "67 Vendenheim",
    "description": "Rue de La Gare"
  },
  {
    "latitude": 3.24283,
    "longitude": 50.47415,
    "name": "U Express",
    "city": "59 Orchies",
    "description": "2 pl. du Gal De Gaulle"
  },
  {
    "latitude": 0.2554,
    "longitude": 48.0559,
    "name": "Carrefour",
    "city": "72 A11 - Sarg� Le Mans",
    "description": ""
  },
  {
    "latitude": -2.49555,
    "longitude": 47.34945,
    "name": "Utile",
    "city": "44 La Turballe",
    "description": "Rue de la Fr�gate"
  },
  {
    "latitude": -4.56785,
    "longitude": 48.46583,
    "name": "Utile",
    "city": "29 Milizac",
    "description": ""
  },
  {
    "latitude": -1.59305,
    "longitude": 48.01362,
    "name": "Viveco",
    "city": "35 Saint-Armel",
    "description": "5 rue de la Mairie"
  },
  {
    "latitude": 7.66232,
    "longitude": 48.29025,
    "name": "Coop",
    "city": "67 Diebolsheim",
    "description": "29 rue de l'Eglise"
  },
  {
    "latitude": 8.08259,
    "longitude": 48.86138,
    "name": "Coop",
    "city": "67 Beinheim",
    "description": "25 Rue Principale"
  },
  {
    "latitude": 7.47245,
    "longitude": 48.93224,
    "name": "Coop",
    "city": "67 Reipertswiller",
    "description": "8 Rue du Moulin"
  },
  {
    "latitude": 7.91049,
    "longitude": 48.70976,
    "name": "Coop",
    "city": "67 Offendorf",
    "description": "183 Route de Gambsheim"
  },
  {
    "latitude": 7.91195,
    "longitude": 48.89984,
    "name": "Coop",
    "city": "67 Betschdorf",
    "description": "1 Grand' Rue"
  },
  {
    "latitude": 7.34086,
    "longitude": 47.75786,
    "name": "Coop",
    "city": "68 Mulhouse",
    "description": "61 Rue Vauban"
  },
  {
    "latitude": 1.12507,
    "longitude": 49.46231,
    "name": "Coop",
    "city": "76 Bois-Guillaume",
    "description": "Maxicoop"
  },
  {
    "latitude": 7.08345,
    "longitude": 48.94247,
    "name": "Coop",
    "city": "67 Sarre-Union",
    "description": "Rue du Mar�chal Foch"
  },
  {
    "latitude": 7.88315,
    "longitude": 48.68747,
    "name": "Coop",
    "city": "67 Gambsheim",
    "description": "rue du Limousin"
  },
  {
    "latitude": -1.52083,
    "longitude": 46.20649,
    "name": "U Express",
    "city": "17 Ars En R�",
    "description": ""
  },
  {
    "latitude": 5.952,
    "longitude": 45.30146,
    "name": "Utile",
    "city": "38 Tencin",
    "description": "Ave du Gr�sivaudan"
  },
  {
    "latitude": -4.21577,
    "longitude": 47.79787,
    "name": "Votre March�",
    "city": "29 Plobannalec",
    "description": "Lesconil"
  },
  {
    "latitude": -2.64063,
    "longitude": 47.89171,
    "name": "Votre March�",
    "city": "56 Gu�henno",
    "description": "Place du March�"
  },
  {
    "latitude": -4.10293,
    "longitude": 48.6643,
    "name": "Votre March�",
    "city": "29 Cl�der",
    "description": ""
  },
  {
    "latitude": 7.68759,
    "longitude": 48.58038,
    "name": "Coop",
    "city": "67 Eckbolsheim",
    "description": "avenue du G�n�ral de Gaulle"
  },
  {
    "latitude": -4.36923,
    "longitude": 48.37417,
    "name": "Votre March�",
    "city": "29 Plougastel Daoulas",
    "description": ""
  },
  {
    "latitude": 7.32927,
    "longitude": 48.15987,
    "name": "Coop",
    "city": "68 Beblenheim",
    "description": "Rue de Hoen"
  },
  {
    "latitude": 2.27951,
    "longitude": 48.85725,
    "name": "Supermarch�",
    "city": "75 Paris",
    "description": "cc Passy Plaza - Inno"
  },
  {
    "latitude": 7.60282,
    "longitude": 48.8433,
    "name": "Coop",
    "city": "67 Pfaffenhoffen",
    "description": "Rue de Saverne"
  },
  {
    "latitude": 2.48912,
    "longitude": 48.88085,
    "name": "Sitis",
    "city": "93 Rosny-sous-Bois",
    "description": "66-92 Rue Jean Mermoz"
  },
  {
    "latitude": 7.45511,
    "longitude": 48.40972,
    "name": "Coop",
    "city": "67 Barr",
    "description": ""
  },
  {
    "latitude": 7.70049,
    "longitude": 48.48879,
    "name": "Coop",
    "city": "67 Ohnheim",
    "description": "2 Rue de l'Eglise"
  },
  {
    "latitude": -1.69298,
    "longitude": 48.11251,
    "name": "U Express",
    "city": "35 Rennes",
    "description": "21 rue de Brest"
  },
  {
    "latitude": 7.78478,
    "longitude": 48.76314,
    "name": "Coop",
    "city": "67 Weitbruch",
    "description": "141 Rue Principale"
  },
  {
    "latitude": -1.67674,
    "longitude": 48.11545,
    "name": "U Express",
    "city": "35 Rennes",
    "description": "10 place Hoche"
  },
  {
    "latitude": -1.86218,
    "longitude": 47.92021,
    "name": "Utile",
    "city": "35 Guignen",
    "description": "9 rue de la Monnaie"
  },
  {
    "latitude": 7.25162,
    "longitude": 48.9187,
    "name": "Coop",
    "city": "67 Weislingen",
    "description": "2 Rue Principale"
  },
  {
    "latitude": 2.38211,
    "longitude": 48.85055,
    "name": "Votre March�",
    "city": "75 Paris",
    "description": "rue du Faubourg Saint-Jacques"
  },
  {
    "latitude": -1.73314,
    "longitude": 48.17717,
    "name": "U Express",
    "city": "35 La Chapelle-des-Fougeretz",
    "description": "Rue de la mairie"
  },
  {
    "latitude": 7.35476,
    "longitude": 47.89514,
    "name": "Coop",
    "city": "68 R�guisheim",
    "description": "46 Grande Rue"
  },
  {
    "latitude": 7.73081,
    "longitude": 48.60711,
    "name": "Coop",
    "city": "67 Schiltigheim",
    "description": "Rue de Dachstein"
  },
  {
    "latitude": 7.60024,
    "longitude": 48.75551,
    "name": "Coop",
    "city": "67 Schwindratzheim",
    "description": "Rue de La Zorn"
  },
  {
    "latitude": 4.7306,
    "longitude": 44.1969,
    "name": "Carrefour",
    "city": "84 A7 - Mornas Crousilles",
    "description": ""
  },
  {
    "latitude": 6.45243,
    "longitude": 43.41588,
    "name": "Leclerc",
    "city": "83 Vidauban Nord",
    "description": "A8 - Aire Vidauban Nord"
  },
  {
    "latitude": 1.16224,
    "longitude": 49.56234,
    "name": "Coop",
    "city": "76 Fontaine-le-Bourg",
    "description": "rue Delamare Deboutteville"
  },
  {
    "latitude": 7.696,
    "longitude": 48.7205,
    "name": "Carrefour",
    "city": "67 A4E - Brumath Est",
    "description": ""
  },
  {
    "latitude": -3.97024,
    "longitude": 48.22672,
    "name": "Votre March�",
    "city": "29 pleyben",
    "description": ""
  },
  {
    "latitude": 7.77666,
    "longitude": 48.58088,
    "name": "Coop",
    "city": "67 Strasbourg",
    "description": "71 av.de la Foret Noire"
  },
  {
    "latitude": -3.90665,
    "longitude": 47.86968,
    "name": "Viveco",
    "city": "29 Concarneau",
    "description": "3 rue du Rouz"
  },
  {
    "latitude": 7.29257,
    "longitude": 48.36591,
    "name": "Coop",
    "city": "67 Breitenbach",
    "description": "Rue Muhlbach"
  },
  {
    "latitude": 1.5496,
    "longitude": 43.4855,
    "name": "Carrefour",
    "city": "31 A61 - Toulouse Sud aire Nord",
    "description": ""
  },
  {
    "latitude": 7.71786,
    "longitude": 48.64206,
    "name": "Coop",
    "city": "67 Mundolsheim",
    "description": "Rue du G�n�ral Leclerc"
  },
  {
    "latitude": 2.9324,
    "longitude": 48.4287,
    "name": "Carrefour",
    "city": "77 A5 - Jonchets Les R�compenses",
    "description": ""
  },
  {
    "latitude": 7.25139,
    "longitude": 48.73643,
    "name": "Coop",
    "city": "57 Lutzelbourg",
    "description": "45 Rue de Phalsbourg"
  },
  {
    "latitude": 2.83812,
    "longitude": 44.92113,
    "name": "Utile",
    "city": "15 Pierrefort",
    "description": "Utile R."
  },
  {
    "latitude": 2.2288,
    "longitude": 48.83372,
    "name": "Votre March�",
    "city": "92 Boulogne-Billancourt",
    "description": "71 Rue de Sevres"
  },
  {
    "latitude": 2.5743,
    "longitude": 48.36214,
    "name": "Leclerc",
    "city": "77 A6 Acheres-la-Foret Est",
    "description": ""
  },
  {
    "latitude": -3.63953,
    "longitude": 48.33888,
    "name": "Votre March�",
    "city": "29 Poullaouen",
    "description": ""
  },
  {
    "latitude": 7.78222,
    "longitude": 48.60146,
    "name": "Coop",
    "city": "67 Strasbourg",
    "description": "85 Rue Boecklin"
  },
  {
    "latitude": 7.78759,
    "longitude": 48.69976,
    "name": "Coop",
    "city": "67 Hoerdt",
    "description": "Rue de La R�publique"
  },
  {
    "latitude": 2.9701,
    "longitude": 42.9509,
    "name": "Carrefour",
    "city": "11 A9 - La Palme Ouest",
    "description": ""
  },
  {
    "latitude": 7.56697,
    "longitude": 48.47492,
    "name": "Coop",
    "city": "67 Krautergersheim",
    "description": "237 Rue Centrale"
  },
  {
    "latitude": -1.56661,
    "longitude": 47.23299,
    "name": "U Express",
    "city": "44 Nantes",
    "description": "Lelasseur"
  },
  {
    "latitude": 7.49227,
    "longitude": 48.542,
    "name": "Coop",
    "city": "67 Molsheim",
    "description": "20 Place de l'Hotel de Ville"
  },
  {
    "latitude": 7.90519,
    "longitude": 48.80146,
    "name": "Coop",
    "city": "67 Schirrhein",
    "description": "2 Rue Principale"
  },
  {
    "latitude": -1.5705,
    "longitude": 47.23885,
    "name": "U Express",
    "city": "44 Nantes",
    "description": "Schuman"
  },
  {
    "latitude": 8.10806,
    "longitude": 48.97271,
    "name": "Coop",
    "city": "67 Niederlauterbach",
    "description": "52 Rue Principale"
  },
  {
    "latitude": 7.76846,
    "longitude": 48.58669,
    "name": "Coop",
    "city": "67 Strasbourg",
    "description": "36 Rue Geiler"
  },
  {
    "latitude": 2.26481,
    "longitude": 48.8022,
    "name": "Atoo",
    "city": "92 Clamart",
    "description": "D68"
  },
  {
    "latitude": 7.6799,
    "longitude": 48.48941,
    "name": "Coop",
    "city": "67 Fegersheim",
    "description": "146 rue Henri Ebel"
  },
  {
    "latitude": 7.65919,
    "longitude": 48.90667,
    "name": "Coop",
    "city": "67 Gundershoffen",
    "description": "8 rue du Gal De Gaulle"
  },
  {
    "latitude": 7.79209,
    "longitude": 48.57504,
    "name": "Coop",
    "city": "67 Strasbourg",
    "description": "18 rue du Port Du Rhin"
  },
  {
    "latitude": 2.0706,
    "longitude": 49.41877,
    "name": "Eco Service",
    "city": "60 Beauvais",
    "description": "CC Bellevue"
  },
  {
    "latitude": 7.63993,
    "longitude": 48.87864,
    "name": "Coop",
    "city": "67 Mietesheim",
    "description": "20 rue Principale"
  },
  {
    "latitude": 8.04149,
    "longitude": 48.98909,
    "name": "Coop",
    "city": "67 Schleithal",
    "description": "50 Rue Principale"
  },
  {
    "latitude": 7.31811,
    "longitude": 48.19551,
    "name": "Coop",
    "city": "68 Ribeauvill�",
    "description": "114 Grand' Rue"
  },
  {
    "latitude": 7.64309,
    "longitude": 48.55787,
    "name": "Coop",
    "city": "67 Holtzheim",
    "description": "Rue du Lieutenant Lespagnol"
  },
  {
    "latitude": 7.75459,
    "longitude": 48.59036,
    "name": "Coop",
    "city": "67 Strasbourg",
    "description": "8 Rue Strauss D�rkheim"
  },
  {
    "latitude": 7.31999,
    "longitude": 48.52787,
    "name": "Coop",
    "city": "67 Urmatt",
    "description": "86 Rue de Molsheim"
  },
  {
    "latitude": 7.97791,
    "longitude": 48.89996,
    "name": "Coop",
    "city": "67 Hatten",
    "description": "Rue du Temple Neuf"
  },
  {
    "latitude": 7.32099,
    "longitude": 48.19514,
    "name": "Coop",
    "city": "68 Ribeauvill�",
    "description": "Rue Salzmann"
  },
  {
    "latitude": 5.14057,
    "longitude": 48.1119,
    "name": "Eco Service",
    "city": "52 Chaumont",
    "description": ""
  },
  {
    "latitude": -3.55811,
    "longitude": 48.27745,
    "name": "Votre March�",
    "city": "29 Carhaix-Plouguer",
    "description": "D764"
  },
  {
    "latitude": -2.577,
    "longitude": 47.52116,
    "name": "Utile",
    "city": "56 Damgan",
    "description": "Place des Lavandieres"
  },
  {
    "latitude": 7.75483,
    "longitude": 48.57652,
    "name": "Coop",
    "city": "67 Strasbourg",
    "description": "13 Rue Jacques Peirotes"
  },
  {
    "latitude": 8.18152,
    "longitude": 48.9759,
    "name": "Coop",
    "city": "67 Lauterbourg",
    "description": "11 Rue du G�n�ral Mittelhauser"
  },
  {
    "latitude": 7.71611,
    "longitude": 48.57283,
    "name": "Coop",
    "city": "67 Strasbourg",
    "description": ""
  },
  {
    "latitude": 2.23983,
    "longitude": 48.71696,
    "name": "Diagonal",
    "city": "91 Palaiseau",
    "description": ""
  },
  {
    "latitude": 1.37472,
    "longitude": 50.05993,
    "name": "Coop",
    "city": "76 Le Tr�port",
    "description": "Petit Coop"
  },
  {
    "latitude": 7.41461,
    "longitude": 48.91169,
    "name": "Coop",
    "city": "67 Wimmenau",
    "description": "2 rue de la Gare"
  },
  {
    "latitude": 2.35313,
    "longitude": 48.82302,
    "name": "Votre March�",
    "city": "75 Paris 13eme",
    "description": ""
  },
  {
    "latitude": 7.29315,
    "longitude": 47.69628,
    "name": "Coop",
    "city": "68 Zillisheim",
    "description": "10 Rue Jeanne d'Arc"
  },
  {
    "latitude": 4.723,
    "longitude": 44.2152,
    "name": "Carrefour",
    "city": "84 A7 - Mornas Les Adrets",
    "description": ""
  },
  {
    "latitude": 7.34653,
    "longitude": 48.0884,
    "name": "Coop",
    "city": "68 Colmar",
    "description": "14 Rue du Raisin"
  },
  {
    "latitude": -4.53395,
    "longitude": 48.37993,
    "name": "Votre March�",
    "city": "29 Brest St Pierre",
    "description": ""
  },
  {
    "latitude": -3.94729,
    "longitude": 48.52183,
    "name": "Utile",
    "city": "29 Saint-Th�gonnec",
    "description": ""
  },
  {
    "latitude": 7.44106,
    "longitude": 48.60333,
    "name": "Coop",
    "city": "67 Westhoffen",
    "description": "81 Rue de L'Eau"
  },
  {
    "latitude": 7.70798,
    "longitude": 48.52127,
    "name": "Coop",
    "city": "67 Illkirch-Graffenstaden",
    "description": "Faubourg de La Paix"
  },
  {
    "latitude": 7.36659,
    "longitude": 48.0874,
    "name": "Coop",
    "city": "68 Colmar",
    "description": "12 Rue du Chanoine Boxler"
  },
  {
    "latitude": -2.774,
    "longitude": 47.8798,
    "name": "Votre March�",
    "city": "56 Bignan",
    "description": ""
  },
  {
    "latitude": -1.54682,
    "longitude": 47.19026,
    "name": "Utile",
    "city": "44 Rez�",
    "description": "Rue F�lix Faure"
  },
  {
    "latitude": 7.64672,
    "longitude": 48.51609,
    "name": "Coop",
    "city": "67 Geispolsheim",
    "description": "rue du G�n�ral de Gaulle"
  },
  {
    "latitude": 7.45421,
    "longitude": 48.80291,
    "name": "Coop",
    "city": "67 Imbsheim",
    "description": "Rue Du Foss�"
  },
  {
    "latitude": 7.13735,
    "longitude": 48.04244,
    "name": "Coop",
    "city": "68 Munster",
    "description": "Rue des Tilleuls"
  },
  {
    "latitude": 2.35068,
    "longitude": 48.82071,
    "name": "Epi Service] 75 Paris 13",
    "city": "63 bd Kellermann",
    "description": ""
  },
  {
    "latitude": 7.65477,
    "longitude": 48.90572,
    "name": "Coop",
    "city": "67 Gundershoffen",
    "description": "6 Rue du Maire Spiess"
  },
  {
    "latitude": 7.32455,
    "longitude": 48.14452,
    "name": "Coop",
    "city": "68 Bennwihr",
    "description": "33 rue du G�n�ral de Gaulle"
  },
  {
    "latitude": -3.88963,
    "longitude": 48.25665,
    "name": "Votre March�",
    "city": "29 Le Clo�tre-Pleyben",
    "description": ""
  },
  {
    "latitude": 7.6912,
    "longitude": 48.7244,
    "name": "Carrefour",
    "city": "67 A4E - Brumath Ouest",
    "description": ""
  },
  {
    "latitude": -4.11201,
    "longitude": 47.99067,
    "name": "U Express",
    "city": "29 Quimper",
    "description": "Cap Horn"
  },
  {
    "latitude": -1.97912,
    "longitude": 46.71093,
    "name": "Supermarch�",
    "city": "85 St-Hilaire-de-Riez",
    "description": "Supermarch� de la plage"
  },
  {
    "latitude": 2.26271,
    "longitude": 48.88718,
    "name": "Votre March�",
    "city": "92 Neuilly-sur-Seine",
    "description": ""
  },
  {
    "latitude": 2.01241,
    "longitude": 43.57953,
    "name": "Utile",
    "city": "81 Puylaurens",
    "description": ""
  },
  {
    "latitude": 2.394,
    "longitude": 48.9347,
    "name": "Carrefour",
    "city": "93 A1 - La Courneuve Ouest",
    "description": ""
  },
  {
    "latitude": 7.53913,
    "longitude": 48.16485,
    "name": "Coop",
    "city": "67 Marckolsheim",
    "description": "Rue de Vend�e"
  },
  {
    "latitude": 7.39595,
    "longitude": 48.18888,
    "name": "Coop",
    "city": "68 Gu�mar",
    "description": "2 Grand'Rue"
  },
  {
    "latitude": 7.42713,
    "longitude": 48.54252,
    "name": "Coop",
    "city": "67 Dinsheim",
    "description": "Grand Rue"
  },
  {
    "latitude": 1.99257,
    "longitude": 48.82513,
    "name": "Votre March�",
    "city": "78 Les Clayes-sous-Bois",
    "description": ""
  },
  {
    "latitude": 4.69322,
    "longitude": 43.86292,
    "name": "Utile",
    "city": "13 Boulbon",
    "description": "8 Rue de l_Enclos"
  },
  {
    "latitude": 7.75293,
    "longitude": 48.61552,
    "name": "Coop",
    "city": "67 Bischheim",
    "description": "43 Route de Bischwiller"
  },
  {
    "latitude": 7.66643,
    "longitude": 48.49227,
    "name": "Coop",
    "city": "67 Lipsheim",
    "description": "5 rue du G�n�ral de Gaulle"
  },
  {
    "latitude": 2.24114,
    "longitude": 44.30876,
    "name": "Utile",
    "city": "12 Rieupeyroux",
    "description": "5 Ave de Rouergue"
  },
  {
    "latitude": 2.80861,
    "longitude": 49.13917,
    "name": "Sitis",
    "city": "60 Nanteuil-le-Haudouin",
    "description": ""
  },
  {
    "latitude": 4.84737,
    "longitude": 45.75618,
    "name": "U Express",
    "city": "69 Lyon 3",
    "description": "Vendome-Gambetta"
  },
  {
    "latitude": 2.58,
    "longitude": 50.83,
    "name": "Carrefour",
    "city": "59 A25 - Saint-Eloi",
    "description": ""
  },
  {
    "latitude": 7.74554,
    "longitude": 48.58919,
    "name": "Coop",
    "city": "67 Strasbourg",
    "description": "40 rue du Faubourg de Pierre"
  },
  {
    "latitude": 7.77842,
    "longitude": 48.56597,
    "name": "Coop",
    "city": "67 Strasbourg",
    "description": "28 Rue De Soultz"
  },
  {
    "latitude": 4.7302,
    "longitude": 45.9016,
    "name": "Carrefour",
    "city": "69 A6 - Les Cheres Est",
    "description": ""
  },
  {
    "latitude": -4.26905,
    "longitude": 48.39825,
    "name": "Votre March�",
    "city": "29 Dirinon",
    "description": ""
  },
  {
    "latitude": 7.72797,
    "longitude": 48.53931,
    "name": "Coop",
    "city": "67 Illkirch-Graffenstaden",
    "description": "Rue du Verger"
  },
  {
    "latitude": 7.31485,
    "longitude": 47.81395,
    "name": "Coop",
    "city": "68 Wittenheim",
    "description": "4 Place de La Lib�ration"
  },
  {
    "latitude": 7.74597,
    "longitude": 48.60267,
    "name": "Coop",
    "city": "67 Schiltigheim",
    "description": "25 Route de Bischwiller"
  },
  {
    "latitude": 7.26715,
    "longitude": 47.73751,
    "name": "Coop",
    "city": "68 Morschwiller-Le-Bas",
    "description": "28 Rue de 1ere Arm�e Fran�aise"
  },
  {
    "latitude": -0.6035,
    "longitude": 45.8921,
    "name": "Carrefour",
    "city": "17 A10 - Fenioux Est",
    "description": ""
  },
  {
    "latitude": 4.82749,
    "longitude": 45.77576,
    "name": "U Express",
    "city": "69 Lyon 4",
    "description": "Croix-Rousse"
  },
  {
    "latitude": 1.0651,
    "longitude": 44.03957,
    "name": "Utile",
    "city": "82 Castelsarrasin",
    "description": ""
  },
  {
    "latitude": 2.8407,
    "longitude": 49.8888,
    "name": "Carrefour",
    "city": "80 A1 Assevilliers",
    "description": ""
  },
  {
    "latitude": 7.42646,
    "longitude": 48.45838,
    "name": "Coop",
    "city": "67 Ottrott",
    "description": "99 Rue Principale"
  },
  {
    "latitude": 5.01828,
    "longitude": 47.2781,
    "name": "Supermarch�",
    "city": "21 Marsannay-la-Cote",
    "description": "Espace Fraicheur"
  },
  {
    "latitude": 7.73312,
    "longitude": 48.5753,
    "name": "Coop",
    "city": "67 Strasbourg",
    "description": "11 Boulevard De Lyon"
  },
  {
    "latitude": 7.5609,
    "longitude": 48.61146,
    "name": "Coop",
    "city": "67 Furdenheim",
    "description": "2 rue de la Mairie"
  },
  {
    "latitude": 7.64387,
    "longitude": 48.95083,
    "name": "Coop",
    "city": "67 Niederbronn-les-Bains",
    "description": "1-17 Rue du G�n�ral de Gaulle"
  },
  {
    "latitude": 0.81157,
    "longitude": 46.7867,
    "name": "Utile",
    "city": "86 La Roche Posay",
    "description": ""
  },
  {
    "latitude": -2.15345,
    "longitude": 47.17566,
    "name": "U Express",
    "city": "44 Saint-Michel-Chef-Chef",
    "description": ""
  },
  {
    "latitude": 7.18651,
    "longitude": 47.92626,
    "name": "Coop",
    "city": "68 Buhl",
    "description": ""
  },
  {
    "latitude": -2.57093,
    "longitude": 47.67577,
    "name": "Viveco",
    "city": "56 Sulniac",
    "description": "Rue Ren� Cassin"
  },
  {
    "latitude": 7.35988,
    "longitude": 48.07297,
    "name": "Coop",
    "city": "68 Colmar",
    "description": "37 Rue de Turenne"
  },
  {
    "latitude": -3.17981,
    "longitude": 48.22641,
    "name": "Viveco",
    "city": "22 Gouarec",
    "description": ""
  },
  {
    "latitude": 2.29324,
    "longitude": 48.78655,
    "name": "Atoo",
    "city": "92 Fontenay-Aux-Roses",
    "description": "Rue de l'Abb� Turgis"
  },
  {
    "latitude": 7.40489,
    "longitude": 48.54952,
    "name": "Coop",
    "city": "67 Still",
    "description": "59 Grande Rue"
  },
  {
    "latitude": 1.04989,
    "longitude": 46.12084,
    "name": "U Express",
    "city": "87 Bellac",
    "description": "13bis Rue Lamartine"
  },
  {
    "latitude": 7.45702,
    "longitude": 48.25915,
    "name": "Coop",
    "city": "67 S�lestat",
    "description": "5 Place du March� Aux Choux"
  },
  {
    "latitude": 7.35596,
    "longitude": 47.91333,
    "name": "Coop",
    "city": "68 Meyenheim",
    "description": ""
  },
  {
    "latitude": 7.94223,
    "longitude": 48.92819,
    "name": "Coop",
    "city": "67 Hoffen",
    "description": "7 rue du Tilleul"
  },
  {
    "latitude": 7.48893,
    "longitude": 48.48696,
    "name": "Coop",
    "city": "67 Bischoffsheim",
    "description": "63 Grand'Rue"
  },
  {
    "latitude": 7.74247,
    "longitude": 48.57878,
    "name": "Coop",
    "city": "67 Strasbourg",
    "description": "18 rue Finkwiller"
  },
  {
    "latitude": 7.95173,
    "longitude": 49.03607,
    "name": "Coop",
    "city": "67 Wissembourg",
    "description": "Rue Bannacker"
  },
  {
    "latitude": -1.20761,
    "longitude": 45.84165,
    "name": "Coop",
    "city": "17 St. Trojan",
    "description": ""
  },
  {
    "latitude": 7.75083,
    "longitude": 48.7226,
    "name": "Coop",
    "city": "67 Geudertheim",
    "description": "88 rue du G�n�ral de Gaulle"
  },
  {
    "latitude": 7.31645,
    "longitude": 48.49583,
    "name": "Coop",
    "city": "67 Grendelbruch",
    "description": "route de Schirmeck"
  },
  {
    "latitude": 7.54777,
    "longitude": 48.4511,
    "name": "Coop",
    "city": "67 Meistratzheim",
    "description": "85 Route de Strasbourg"
  },
  {
    "latitude": 7.19433,
    "longitude": 47.88532,
    "name": "Coop",
    "city": "68 Jungholtz",
    "description": ""
  },
  {
    "latitude": 2.14706,
    "longitude": 48.94832,
    "name": "Votre March�",
    "city": "78 Maisons-Laffitte",
    "description": ""
  },
  {
    "latitude": 7.63857,
    "longitude": 48.46859,
    "name": "Coop",
    "city": "67 Hindisheim",
    "description": "150 Grand'Rue"
  },
  {
    "latitude": 7.72739,
    "longitude": 48.53277,
    "name": "Coop",
    "city": "67 Illkirch-Graffenstaden",
    "description": "Rue d'Alsace"
  },
  {
    "latitude": 7.77266,
    "longitude": 48.54411,
    "name": "Coop",
    "city": "67 Strasbourg",
    "description": "23 Rue du Marschallhof"
  },
  {
    "latitude": 7.36625,
    "longitude": 48.15944,
    "name": "Coop",
    "city": "68 Ostheim",
    "description": "1 Rue de La Gare"
  },
  {
    "latitude": 7.30443,
    "longitude": 48.0957,
    "name": "Coop",
    "city": "68 Ingersheim",
    "description": ""
  },
  {
    "latitude": -1.70371,
    "longitude": 48.0129,
    "name": "U Express",
    "city": "35 Pont-Pean",
    "description": "31 Ave du Chemin Vert"
  },
  {
    "latitude": 7.95212,
    "longitude": 48.90306,
    "name": "Coop",
    "city": "67 Rittershoffen",
    "description": "65 Rue Principale"
  },
  {
    "latitude": 7.39992,
    "longitude": 48.26991,
    "name": "Coop",
    "city": "67 Ch�tenois",
    "description": "38 rue du Mal.Foch"
  },
  {
    "latitude": 2.15474,
    "longitude": 48.80871,
    "name": "Sitis",
    "city": "78 Versailles",
    "description": ""
  },
  {
    "latitude": -2.17984,
    "longitude": 46.94481,
    "name": "U Express",
    "city": "85 Barb�tre",
    "description": ""
  },
  {
    "latitude": 7.45552,
    "longitude": 48.53858,
    "name": "Coop",
    "city": "67 Mutzig",
    "description": "Rue du Mar�chal Foch"
  },
  {
    "latitude": -4.27833,
    "longitude": 48.45255,
    "name": "Votre March�",
    "city": "29 Landerneau",
    "description": ""
  },
  {
    "latitude": 7.29235,
    "longitude": 47.91138,
    "name": "Coop",
    "city": "68 Merxheim",
    "description": ""
  },
  {
    "latitude": 7.53443,
    "longitude": 48.26985,
    "name": "Coop",
    "city": "67 Muttersholtz",
    "description": "88 Rue de Hilsenheim"
  },
  {
    "latitude": 7.68063,
    "longitude": 48.86435,
    "name": "Coop",
    "city": "67 Mertzwiller",
    "description": "22 Rue de La Libert�"
  },
  {
    "latitude": -1.02882,
    "longitude": 45.63755,
    "name": "Coop",
    "city": "17 Royan",
    "description": "Rue des Cormorans"
  },
  {
    "latitude": -4.3052,
    "longitude": 48.37461,
    "name": "Votre March�",
    "city": "29 Loperhet",
    "description": ""
  },
  {
    "latitude": 0.82012,
    "longitude": 44.12552,
    "name": "Relais Mousquetaires",
    "city": "82 Lamagistere",
    "description": ""
  },
  {
    "latitude": 1.44504,
    "longitude": 49.13274,
    "name": "Viveco",
    "city": "27 Pressagny-l'Orgueilleux",
    "description": "D313"
  },
  {
    "latitude": 1.90605,
    "longitude": 48.85577,
    "name": "Atoo",
    "city": "78 Beynes",
    "description": "Avenue du Centre"
  },
  {
    "latitude": 7.98945,
    "longitude": 48.79694,
    "name": "Coop",
    "city": "67 Sessenheim",
    "description": "9 Rue de La Gare"
  },
  {
    "latitude": 0.55326,
    "longitude": 44.19951,
    "name": "Utile",
    "city": "47 Brax",
    "description": ""
  },
  {
    "latitude": 7.34091,
    "longitude": 48.54249,
    "name": "Coop",
    "city": "67 Niederhaslach",
    "description": "122 Grand'Rue"
  },
  {
    "latitude": 0.04137,
    "longitude": 47.94369,
    "name": "Viveco",
    "city": "72 Louplande",
    "description": ""
  },
  {
    "latitude": 0.05688,
    "longitude": 47.21625,
    "name": "Viveco",
    "city": "49 Montsoreau",
    "description": ""
  },
  {
    "latitude": 7.50452,
    "longitude": 48.53369,
    "name": "Coop",
    "city": "67 Molsheim",
    "description": "2 rue Jean Marie Lehn"
  },
  {
    "latitude": 4.63832,
    "longitude": 43.808,
    "name": "U Express",
    "city": "30 Beaucaire",
    "description": ""
  },
  {
    "latitude": 3.13233,
    "longitude": 44.18866,
    "name": "Utile",
    "city": "12 Riviere/Tarn",
    "description": ""
  },
  {
    "latitude": 4.7281,
    "longitude": 45.9041,
    "name": "Carrefour",
    "city": "69 A6 - Les Cheres Ouest",
    "description": ""
  },
  {
    "latitude": 7.76611,
    "longitude": 48.57224,
    "name": "Coop",
    "city": "67 Strasbourg",
    "description": "27 route du Rhin"
  },
  {
    "latitude": 7.36465,
    "longitude": 48.74019,
    "name": "Coop",
    "city": "67 Saverne",
    "description": "116-118 Grand Rue"
  },
  {
    "latitude": 7.68405,
    "longitude": 48.60832,
    "name": "Coop",
    "city": "67 Oberhausbergen",
    "description": "15 Rue du G�n�ral de Gaulle"
  },
  {
    "latitude": 7.71656,
    "longitude": 48.48707,
    "name": "Coop",
    "city": "67 Eschau",
    "description": "87 rue du 27 Novembre"
  },
  {
    "latitude": 7.48028,
    "longitude": 48.82509,
    "name": "Coop",
    "city": "67 Bouxwiller",
    "description": "66 Grand Rue"
  },
  {
    "latitude": 2.3821,
    "longitude": 48.85053,
    "name": "Votre March�",
    "city": "75 Paris 11",
    "description": "195 Rue du Faubourg Saint-Antoine"
  },
  {
    "latitude": 7.34792,
    "longitude": 47.78176,
    "name": "Coop",
    "city": "68 Illzach",
    "description": "22 Place de La R�publique"
  },
  {
    "latitude": -2.40768,
    "longitude": 47.58314,
    "name": "Votre March�",
    "city": "56 Le Guerno",
    "description": "Rue de la Mairie"
  },
  {
    "latitude": 7.76286,
    "longitude": 48.56951,
    "name": "Coop",
    "city": "67 Strasbourg",
    "description": "Avenue Jean Jaures"
  },
  {
    "latitude": -0.70358,
    "longitude": 47.02154,
    "name": "Sitis",
    "city": "49 Yzernay",
    "description": ""
  },
  {
    "latitude": 7.43049,
    "longitude": 48.5347,
    "name": "Coop",
    "city": "67 Gresswiller",
    "description": "1 rue de La Libert�"
  },
  {
    "latitude": -4.4355,
    "longitude": 48.03405,
    "name": "Votre March�",
    "city": "29 Mahalon",
    "description": ""
  },
  {
    "latitude": 7.18736,
    "longitude": 48.9409,
    "name": "Coop",
    "city": "67 Diemeringen",
    "description": "1 rue du Vin"
  },
  {
    "latitude": 8.00991,
    "longitude": 48.81316,
    "name": "Coop",
    "city": "67 Auenheim",
    "description": "31 rte Nationale"
  },
  {
    "latitude": 7.78916,
    "longitude": 49.00766,
    "name": "Coop",
    "city": "67 Lembach",
    "description": "30 Route de Bitche"
  },
  {
    "latitude": 7.39939,
    "longitude": 47.74665,
    "name": "Coop",
    "city": "68 Rixheim",
    "description": "4 Rue Saint-Jean"
  },
  {
    "latitude": -1.66578,
    "longitude": 48.10974,
    "name": "Viveco",
    "city": "35 Rennes",
    "description": "2 boulevard Ren� Laennec"
  },
  {
    "latitude": 7.59191,
    "longitude": 48.36944,
    "name": "Coop",
    "city": "67 Benfeld",
    "description": ""
  },
  {
    "latitude": -2.1286,
    "longitude": 46.83096,
    "name": "U Express",
    "city": "85 Notre-Dame de Monts",
    "description": ""
  },
  {
    "latitude": 7.73669,
    "longitude": 48.87457,
    "name": "Coop",
    "city": "67 Eschbach",
    "description": "2 rue de Laubach"
  },
  {
    "latitude": 7.3766,
    "longitude": 48.75462,
    "name": "Coop",
    "city": "67 Monswiller",
    "description": "Rue Haute"
  },
  {
    "latitude": 7.58862,
    "longitude": 48.26315,
    "name": "Coop",
    "city": "67 Wittisheim",
    "description": "Rue des Chevaliers"
  },
  {
    "latitude": 1.63222,
    "longitude": 48.99226,
    "name": "Carrefour",
    "city": "78 Rosny-sur-Seine",
    "description": "A13 - Aire Sud de Rosny-sur-Seine"
  },
  {
    "latitude": 5.82441,
    "longitude": 47.53184,
    "name": "Viveco",
    "city": "70 Vellexon-Queutry-et-Vaudey",
    "description": "40 Gde Rue Vellexon"
  },
  {
    "latitude": 7.56299,
    "longitude": 48.28932,
    "name": "Coop",
    "city": "67 Hilsenheim",
    "description": "9 Rue Principale"
  },
  {
    "latitude": 6.98537,
    "longitude": 47.89655,
    "name": "Utile",
    "city": "68 Fellering",
    "description": ""
  },
  {
    "latitude": 2.01242,
    "longitude": 43.5712,
    "name": "Utile",
    "city": "81 Puylaurens",
    "description": ""
  },
  {
    "latitude": 2.8438,
    "longitude": 44.92653,
    "name": "Utile",
    "city": "15 Pierrefort",
    "description": ""
  },
  {
    "latitude": -0.63275,
    "longitude": 45.74572,
    "name": "Coop",
    "city": "17 Saintes",
    "description": ""
  },
  {
    "latitude": -0.24528,
    "longitude": 47.6716,
    "name": "Viveco",
    "city": "49 Durtal",
    "description": "Rue Saint-Pierre"
  },
  {
    "latitude": 7.68914,
    "longitude": 48.55353,
    "name": "Coop",
    "city": "67 Lingolsheim",
    "description": "Rue des Hirondelles"
  },
  {
    "latitude": 4.37078,
    "longitude": 47.84138,
    "name": "Utile",
    "city": "21 Laignes",
    "description": ""
  },
  {
    "latitude": 0.12609,
    "longitude": 45.64729,
    "name": "U Express",
    "city": "16 Angoul�me",
    "description": "38 rue Pierre Aumaitre"
  },
  {
    "latitude": 7.38024,
    "longitude": 48.97737,
    "name": "Coop",
    "city": "57 Goetzenbruck",
    "description": "8 rue d'Ingwiller"
  },
  {
    "latitude": 7.7418,
    "longitude": 48.63541,
    "name": "Coop",
    "city": "67 Souffelweyersheim",
    "description": "5 Place du G�n�ral de Gaulle"
  },
  {
    "latitude": -1.37469,
    "longitude": 48.00334,
    "name": "Epi Service] 35 Moulins",
    "city": "Le Pont",
    "description": ""
  },
  {
    "latitude": 5.6548,
    "longitude": 43.4696,
    "name": "Carrefour",
    "city": "13 A8 - L'Arc",
    "description": ""
  },
  {
    "latitude": 2.29009,
    "longitude": 48.8857,
    "name": "Votre March�",
    "city": "75 Paris 17",
    "description": "Place de la Porte de Champerret"
  },
  {
    "latitude": 7.70821,
    "longitude": 48.73084,
    "name": "Coop",
    "city": "67 Brumath",
    "description": "1 rue du G�n�ral Duport"
  },
  {
    "latitude": -4.24755,
    "longitude": 48.44987,
    "name": "A&O",
    "city": "29 Landerneau",
    "description": ""
  },
  {
    "latitude": 2.329,
    "longitude": 48.70703,
    "name": "Votre March�",
    "city": "91 Morangis",
    "description": ""
  },
  {
    "latitude": 7.39691,
    "longitude": 48.71253,
    "name": "Coop",
    "city": "67 Marmoutier",
    "description": "Rue de Saverne"
  },
  {
    "latitude": 5.94643,
    "longitude": 44.18832,
    "name": "U Express",
    "city": "04 Sisteron",
    "description": "6-8 Avenue Jean Jaures"
  },
  {
    "latitude": -3.33937,
    "longitude": 47.72309,
    "name": "Utile",
    "city": "56 Locmiquelic",
    "description": "2 rue de l'Eglise"
  },
  {
    "latitude": 7.27567,
    "longitude": 48.08656,
    "name": "Coop",
    "city": "68 Turckheim",
    "description": "44 Grand Rue"
  },
  {
    "latitude": 7.76852,
    "longitude": 48.89571,
    "name": "Coop",
    "city": "67 Durrenbach",
    "description": "20 rue Principale"
  },
  {
    "latitude": 7.40422,
    "longitude": 48.82475,
    "name": "Coop",
    "city": "67 Neuwiller-les-Saverne",
    "description": "Rue du 22 Novembre"
  },
  {
    "latitude": -1.67581,
    "longitude": 48.08648,
    "name": "Viveco",
    "city": "35 Rennes",
    "description": "12 rue de Suede"
  },
  {
    "latitude": 7.29939,
    "longitude": 47.95708,
    "name": "Coop",
    "city": "68 Rouffach",
    "description": "1 rue du March�"
  },
  {
    "latitude": 0.40103,
    "longitude": 49.62801,
    "name": "Epi Service] 76 Br�aut�",
    "city": "",
    "description": ""
  },
  {
    "latitude": 2.57188,
    "longitude": 48.36248,
    "name": "Leclerc",
    "city": "77 A6 Acheres-la-Foret Ouest",
    "description": ""
  },
  {
    "latitude": 7.59283,
    "longitude": 48.60274,
    "name": "Coop",
    "city": "67 Ittenheim",
    "description": "20 Route de Paris"
  },
  {
    "latitude": -1.33902,
    "longitude": 47.14073,
    "name": "Viveco",
    "city": "44 Le Pallet",
    "description": "Rue Saint-Vincent"
  },
  {
    "latitude": -3.82193,
    "longitude": 48.63847,
    "name": "Votre March�",
    "city": "29 Plou�zoch",
    "description": ""
  },
  {
    "latitude": 7.34648,
    "longitude": 48.0736,
    "name": "U Express",
    "city": "68 Colmar",
    "description": "Rue du Tir"
  },
  {
    "latitude": -4.13094,
    "longitude": 47.98931,
    "name": "Votre March�",
    "city": "29 Quimper",
    "description": "Penhars"
  },
  {
    "latitude": -3.86284,
    "longitude": 48.10644,
    "name": "Votre March�",
    "city": "29 Tr�gourez",
    "description": ""
  },
  {
    "latitude": 1.08806,
    "longitude": 49.43298,
    "name": "Coop",
    "city": "76 rouen",
    "description": "Point Coop"
  },
  {
    "latitude": 7.28779,
    "longitude": 48.51966,
    "name": "Coop",
    "city": "67 Lutzelhouse",
    "description": "1 Rue de La Fontaine"
  },
  {
    "latitude": 7.81708,
    "longitude": 48.76138,
    "name": "Coop",
    "city": "67 Gries",
    "description": "91 Rue Principale"
  },
  {
    "latitude": 7.1302,
    "longitude": 48.0422,
    "name": "U Express",
    "city": "68 Munster",
    "description": ""
  },
  {
    "latitude": 7.45108,
    "longitude": 47.86737,
    "name": "Coop",
    "city": "68 Munchhouse",
    "description": "16 Rue de Mulhouse"
  },
  {
    "latitude": 7.05275,
    "longitude": 47.75591,
    "name": "Coop",
    "city": "68 Sentheim",
    "description": ""
  },
  {
    "latitude": 7.443,
    "longitude": 48.6385,
    "name": "Coop",
    "city": "67 Wasselonne",
    "description": "Rue de Romanswiller"
  },
  {
    "latitude": -0.50734,
    "longitude": 43.15376,
    "name": "U Express",
    "city": "64 Ogeu-les-Bains",
    "description": "Ave d'Ossau"
  },
  {
    "latitude": -2.74857,
    "longitude": 47.6584,
    "name": "Viveco",
    "city": "56 Vannes",
    "description": "Place Bir-Hakeim"
  },
  {
    "latitude": 6.78584,
    "longitude": 43.54153,
    "name": "Leclerc",
    "city": "83 Les Adrets-de-l'Est�rel",
    "description": "A8 - Aire Est�rel"
  },
  {
    "latitude": 6.67569,
    "longitude": 45.50666,
    "name": "Utile",
    "city": "73 La Plagne Centre",
    "description": ""
  },
  {
    "latitude": 0.5233,
    "longitude": 46.9052,
    "name": "Carrefour",
    "city": "86 A10 - Ch�tellerault Usseau",
    "description": ""
  },
  {
    "latitude": -4.11279,
    "longitude": 48.60598,
    "name": "Votre March�",
    "city": "29 Plouz�ved�",
    "description": ""
  },
  {
    "latitude": -1.44085,
    "longitude": 47.88328,
    "name": "Viveco",
    "city": "35 Co�smes",
    "description": "2 rue des Ardoisieres"
  }
]