[
  {
    "longitude": -0.66916,
    "latitude": 45.74739,
    "name": "Hotel Formule 1",
    "city": "Saintes",
    "description": "+33891705388"
  },
  {
    "longitude": 3.21943,
    "latitude": 45.61068,
    "name": "Hotel Formule 1",
    "city": "Clermont-Ferrand",
    "description": "Issoire Coudes"
  },
  {
    "longitude": 2.2,
    "latitude": 48.51,
    "name": "Hotel Formule 1",
    "city": "Etr�chy",
    "description": ""
  },
  {
    "longitude": 2.29785,
    "latitude": 48.62596,
    "name": "Hotel Formule 1",
    "city": "Br�tigny sur Orge",
    "description": "+33891705199"
  },
  {
    "longitude": -0.51558,
    "latitude": 47.47118,
    "name": "Hotel Formule 1",
    "city": "Angers",
    "description": "Sud"
  },
  {
    "longitude": -0.51471,
    "latitude": 44.88273,
    "name": "Hotel Formule 1",
    "city": "Bordeaux",
    "description": "Lormont"
  },
  {
    "longitude": 7.12768,
    "latitude": 43.62834,
    "name": "Hotel Formule 1",
    "city": "Villeneuve Loubet",
    "description": "+33891705430"
  },
  {
    "longitude": 7.72185,
    "latitude": 48.65971,
    "name": "Hotel Formule 1",
    "city": "Strasbourg",
    "description": "Nord"
  },
  {
    "longitude": 4.85278,
    "latitude": 46.99904,
    "name": "Hotel Formule 1",
    "city": "Beaunes",
    "description": "+33891705177"
  },
  {
    "longitude": 3.14332,
    "latitude": 50.64247,
    "name": "Hotel Formule 1",
    "city": "Lille Villeneuve d'Ascq",
    "description": "+33 891705428"
  },
  {
    "longitude": 2.33478,
    "latitude": 51.02284,
    "name": "Hotel Formule 1",
    "city": "Dunkerque",
    "description": "St Pol sur Mer"
  },
  {
    "longitude": -1.62538,
    "latitude": 48.07408,
    "name": "Hotel Formule 1",
    "city": "Rennes",
    "description": "Sud Vern sur Seiche"
  },
  {
    "longitude": 4.13063,
    "latitude": 48.22441,
    "name": "Hotel Formule 1",
    "city": "Troyes",
    "description": "Sud Parc St Thibault"
  },
  {
    "longitude": 2.4636,
    "latitude": 49.01972,
    "name": "Hotel Formule 1",
    "city": "Roissy",
    "description": "CDG Goussainville"
  },
  {
    "longitude": -1.98125,
    "latitude": 48.61615,
    "name": "Hotel Formule 1",
    "city": "St Malo",
    "description": "+33891705385"
  },
  {
    "longitude": 0.17576,
    "latitude": 45.69319,
    "name": "Hotel Formule 1",
    "city": "Angoul�me",
    "description": "+33891705162"
  },
  {
    "longitude": 2.77666,
    "latitude": 50.42217,
    "name": "Hotel Formule 1",
    "city": "Li�vin",
    "description": "+33891705273"
  },
  {
    "longitude": 0.36458,
    "latitude": 46.64998,
    "name": "Hotel Formule 1",
    "city": "Poitiers",
    "description": "Futuroscope"
  },
  {
    "longitude": 1.47537,
    "latitude": 43.64357,
    "name": "Hotel Formule 1",
    "city": "Toulouse",
    "description": "l'Union"
  },
  {
    "longitude": 5.69757,
    "latitude": 45.15882,
    "name": "Hotel Formule 1",
    "city": "Grenoble",
    "description": "Seyssins"
  },
  {
    "longitude": 1.51294,
    "latitude": 48.42804,
    "name": "Hotel Formule 1",
    "city": "Chartres",
    "description": "+33891705218"
  },
  {
    "longitude": 2.37268,
    "latitude": 49.86568,
    "name": "Hotel Formule 1",
    "city": "Amiens",
    "description": "Est"
  },
  {
    "longitude": 6.63527,
    "latitude": 43.46387,
    "name": "Hotel Formule 1",
    "city": "Roquebrune sur Argens",
    "description": "+33891705252"
  },
  {
    "longitude": 7.53275,
    "latitude": 47.60909,
    "name": "Hotel Formule 1",
    "city": "Mulhouse",
    "description": "Bale A�roport"
  },
  {
    "longitude": 4.79631,
    "latitude": 44.67529,
    "name": "Hotel Formule 1",
    "city": "Mont�limar",
    "description": "Nord"
  },
  {
    "longitude": 6.84428,
    "latitude": 47.62591,
    "name": "Hotel Formule 1",
    "city": "Belfort",
    "description": "Gare Bavilliers"
  },
  {
    "longitude": -1.63419,
    "latitude": 47.22991,
    "name": "Hotel Formule 1",
    "city": "Nantes",
    "description": "Ouest St Herblain"
  },
  {
    "longitude": 4.84087,
    "latitude": 46.36494,
    "name": "Hotel Formule 1",
    "city": "Macon",
    "description": "nord No. 2"
  },
  {
    "longitude": 4.6234,
    "latitude": 46.86907,
    "name": "Hotel Formule 1",
    "city": "Saint-L�ger-sur-Dheune",
    "description": "Nion"
  },
  {
    "longitude": 5.501,
    "latitude": 47.10952,
    "name": "Hotel Formule 1",
    "city": "Dole",
    "description": "+33891705235"
  },
  {
    "longitude": 6.82188,
    "latitude": 49.14634,
    "name": "Hotel Formule 1",
    "city": "Freyming-Merlebach",
    "description": "+33891705312"
  },
  {
    "longitude": 0.70904,
    "latitude": 47.4378,
    "name": "Hotel Formule 1",
    "city": "Tours",
    "description": "Nord"
  },
  {
    "longitude": -0.542,
    "latitude": 44.82987,
    "name": "Hotel Formule 1",
    "city": "Bordeaux",
    "description": "Ville"
  },
  {
    "longitude": 1.48238,
    "latitude": 45.16696,
    "name": "Hotel Formule 1",
    "city": "Brive",
    "description": "Ussac"
  },
  {
    "longitude": 4.81174,
    "latitude": 45.3277,
    "name": "Hotel Formule 1",
    "city": "Chanas A7",
    "description": "+33 891705215"
  },
  {
    "longitude": 3.40733,
    "latitude": 50.31104,
    "name": "Hotel Formule 1",
    "city": "Douchy les Mines",
    "description": "+33891705237"
  },
  {
    "longitude": 2.11228,
    "latitude": 49.41002,
    "name": "Hotel Formule 1",
    "city": "Beauvais",
    "description": "+33891705178"
  },
  {
    "longitude": 2.5775,
    "latitude": 48.84555,
    "name": "Hotel Formule 1",
    "city": "Marne la Vall�e Noisy",
    "description": "+33 891705295"
  },
  {
    "longitude": -0.58764,
    "latitude": 44.7845,
    "name": "Hotel Formule 1",
    "city": "Bordeaux",
    "description": "Villenave d'Ornon"
  },
  {
    "longitude": 1.91078,
    "latitude": 47.86013,
    "name": "Hotel Formule 1",
    "city": "Orl�ans",
    "description": "Olivet la Source"
  },
  {
    "longitude": 2.66122,
    "latitude": 49.04574,
    "name": "Hotel Formule 1",
    "city": "Roissy Longperrier",
    "description": "+33891705369"
  },
  {
    "longitude": 7.7929,
    "latitude": 48.57258,
    "name": "Hotel Formule 1",
    "city": "Strasbourg",
    "description": "Pont de l'Europe"
  },
  {
    "longitude": 6.04944,
    "latitude": 43.2034,
    "name": "Hotel Formule 1",
    "city": "Toulon",
    "description": "Sollies Pont"
  },
  {
    "longitude": 1.97268,
    "latitude": 48.80292,
    "name": "Hotel Formule 1",
    "city": "Plaisir",
    "description": "+33891705355"
  },
  {
    "longitude": 4.02546,
    "latitude": 48.33463,
    "name": "Hotel Formule 1",
    "city": "Troyes",
    "description": "Nord Barberey St Sulpice"
  },
  {
    "longitude": 2.37699,
    "latitude": 48.77775,
    "name": "Hotel Formule 1",
    "city": "Vitry",
    "description": "N7"
  },
  {
    "longitude": 4.42285,
    "latitude": 43.85677,
    "name": "Hotel Formule 1",
    "city": "N�mes",
    "description": "Marguerites"
  },
  {
    "longitude": 3.82863,
    "latitude": 43.54861,
    "name": "Hotel Formule 1",
    "city": "Montpellier",
    "description": "St-Jean de Vedas"
  },
  {
    "longitude": 2.33475,
    "latitude": 48.67743,
    "name": "Hotel Formule 1",
    "city": "�pinay sur Orge",
    "description": "+33891705243"
  },
  {
    "longitude": -1.61452,
    "latitude": 47.17512,
    "name": "Hotel Formule 1",
    "city": "Nantes",
    "description": "A�roport Bouguenais"
  },
  {
    "longitude": 4.56545,
    "latitude": 45.50393,
    "name": "Hotel Formule 1",
    "city": "St-Etienne",
    "description": "La Grand Croix"
  },
  {
    "longitude": 4.35686,
    "latitude": 48.97793,
    "name": "Hotel Formule 1",
    "city": "Ch�lons en Champagne",
    "description": "+33 891705211"
  },
  {
    "longitude": 4.09635,
    "latitude": 46.01495,
    "name": "Hotel Formule 1",
    "city": "Roanne",
    "description": "+33891705368"
  },
  {
    "longitude": 2.44837,
    "latitude": 48.62146,
    "name": "Hotel Formule 1",
    "city": "�vry",
    "description": "N7"
  },
  {
    "longitude": 0.11699,
    "latitude": 48.44869,
    "name": "Hotel Formule 1",
    "city": "Alencon",
    "description": "+33891705158"
  },
  {
    "longitude": 2.73673,
    "latitude": 50.72541,
    "name": "Hotel Formule 1",
    "city": "Lille",
    "description": "Bailleul"
  },
  {
    "longitude": 2.58922,
    "latitude": 49.26962,
    "name": "Hotel Formule 1",
    "city": "Senlis",
    "description": "Fleurines"
  },
  {
    "longitude": -2.05238,
    "latitude": 48.61182,
    "name": "Hotel Formule 1",
    "city": "St Malo",
    "description": "Dinard"
  },
  {
    "longitude": 2.29647,
    "latitude": 51.02191,
    "name": "Hotel Formule 1",
    "city": "Dunkerque Grande Synthe",
    "description": "+33 891705239"
  },
  {
    "longitude": 4.34323,
    "latitude": 43.81497,
    "name": "Hotel Formule 1",
    "city": "N�mes",
    "description": "Ouest"
  },
  {
    "longitude": -0.35499,
    "latitude": 43.32986,
    "name": "Hotel Formule 1",
    "city": "Pau",
    "description": "+33 891705351"
  },
  {
    "longitude": 4.88253,
    "latitude": 44.96484,
    "name": "Hotel Formule 1",
    "city": "Valence",
    "description": "Nord"
  },
  {
    "longitude": 2.34906,
    "latitude": 48.75578,
    "name": "Hotel Formule 1",
    "city": "Rungis",
    "description": "Orly"
  },
  {
    "longitude": 0.30297,
    "latitude": 46.54998,
    "name": "Hotel Formule 1",
    "city": "Poitiers",
    "description": "+33891705357"
  },
  {
    "longitude": 4.73345,
    "latitude": 43.95935,
    "name": "Hotel Formule 1",
    "city": "Avignon",
    "description": "Rochefort"
  },
  {
    "longitude": 4.39564,
    "latitude": 45.45892,
    "name": "Hotel Formule 1",
    "city": "St-Etienne",
    "description": "+33891705381"
  },
  {
    "longitude": 6.03278,
    "latitude": 46.1233,
    "name": "Hotel Formule 1",
    "city": "Saint-Julien-en-Genevois",
    "description": "+33891705255"
  },
  {
    "longitude": 1.1537,
    "latitude": 49.00154,
    "name": "Hotel Formule 1",
    "city": "Evreux",
    "description": "Sud"
  },
  {
    "longitude": 5.48048,
    "latitude": 43.28991,
    "name": "Hotel Formule 1",
    "city": "Marseille",
    "description": "Est St Menet"
  },
  {
    "longitude": 1.70016,
    "latitude": 48.97917,
    "name": "Hotel Formule 1",
    "city": "Mantes Magnanville",
    "description": "+33891705293"
  },
  {
    "longitude": 2.60812,
    "latitude": 46.35151,
    "name": "Hotel Formule 1",
    "city": "Montlucon",
    "description": "+33891705322"
  },
  {
    "longitude": 5.65507,
    "latitude": 45.25033,
    "name": "Hotel Formule 1",
    "city": "Grenoble",
    "description": "Fontanil St Egreve"
  },
  {
    "longitude": 5.00139,
    "latitude": 45.66083,
    "name": "Hotel Formule 1",
    "city": "St-Pierre de Chandieu",
    "description": "+33891705287"
  },
  {
    "longitude": 1.91635,
    "latitude": 47.83899,
    "name": "Hotel Formule 1",
    "city": "Orl�ans Olivet La Source",
    "description": "+33 891705347"
  },
  {
    "longitude": 6.00284,
    "latitude": 45.5182,
    "name": "Hotel Formule 1",
    "city": "Chamb�ry sud Chignin",
    "description": "+33 891705213"
  },
  {
    "longitude": -0.49171,
    "latitude": 44.8656,
    "name": "Hotel Formule 1",
    "city": "Bordeaux",
    "description": "Artigues"
  },
  {
    "longitude": 3.769,
    "latitude": 43.465,
    "name": "Hotel Formule 1",
    "city": "Sete",
    "description": "Frontignan"
  },
  {
    "longitude": 2.59842,
    "latitude": 48.70282,
    "name": "Hotel Formule 1",
    "city": "Brie Comte Robert",
    "description": "+33891705200"
  },
  {
    "longitude": 5.85944,
    "latitude": 43.11033,
    "name": "Hotel Formule 1",
    "city": "Toulon",
    "description": "La Seyne"
  },
  {
    "longitude": 3.97692,
    "latitude": 43.65012,
    "name": "Hotel Formule 1",
    "city": "Montpellier",
    "description": "Vendargue"
  },
  {
    "longitude": 6.13918,
    "latitude": 47.63011,
    "name": "Hotel Formule 1",
    "city": "Vesoul",
    "description": "+33891705425"
  },
  {
    "longitude": 5.14587,
    "latitude": 48.08343,
    "name": "Hotel Formule 1",
    "city": "Chaumont",
    "description": "+33891705220"
  },
  {
    "longitude": 3.89679,
    "latitude": 43.58627,
    "name": "Hotel Formule 1",
    "city": "Montpellier",
    "description": "Sud"
  },
  {
    "longitude": 4.90699,
    "latitude": 45.78802,
    "name": "Hotel Formule 1",
    "city": "Villeurbanne",
    "description": "+33891705289"
  },
  {
    "longitude": 6.12962,
    "latitude": 48.69596,
    "name": "Hotel Formule 1",
    "city": "Nancy",
    "description": "Laxou"
  },
  {
    "longitude": 5.04129,
    "latitude": 45.02123,
    "name": "Hotel Formule 1",
    "city": "Romans",
    "description": "gare TGV"
  },
  {
    "longitude": 1.40641,
    "latitude": 43.57505,
    "name": "Hotel Formule 1",
    "city": "Toulouse Universit�",
    "description": "+33891705414"
  },
  {
    "longitude": 4.73996,
    "latitude": 45.98041,
    "name": "Hotel Formule 1",
    "city": "Villefranche sur Saone",
    "description": "+33891705426"
  },
  {
    "longitude": -1.34761,
    "latitude": 48.6493,
    "name": "Hotel Formule 1",
    "city": "Avranches",
    "description": "+33891705174"
  },
  {
    "longitude": 2.67098,
    "latitude": 48.55226,
    "name": "Hotel Formule 1",
    "city": "Melun",
    "description": "+33891705308"
  },
  {
    "longitude": 2.08584,
    "latitude": 49.0068,
    "name": "Hotel Formule 1",
    "city": "Conflans Ste Honorine",
    "description": "+33891705228"
  },
  {
    "longitude": 2.47522,
    "latitude": 48.94577,
    "name": "Hotel Formule 1",
    "city": "Aulnay le Blanc Menil",
    "description": "Garonor"
  },
  {
    "longitude": 7.36059,
    "latitude": 48.74366,
    "name": "Hotel Formule 1",
    "city": "Saverne",
    "description": "Monswiller"
  },
  {
    "longitude": 0.76203,
    "latitude": 45.18055,
    "name": "Hotel Formule 1",
    "city": "Perigueux",
    "description": "Boulazac"
  },
  {
    "longitude": 2.55375,
    "latitude": 49.08912,
    "name": "Hotel Formule 1",
    "city": "Saint-Witz",
    "description": "Roissy CDG A1"
  },
  {
    "longitude": 2.81442,
    "latitude": 50.28198,
    "name": "Hotel Formule 1",
    "city": "Arras",
    "description": "Est"
  },
  {
    "longitude": -0.64187,
    "latitude": 44.88734,
    "name": "Hotel Formule 1",
    "city": "Bordeaux",
    "description": "Eysines"
  },
  {
    "longitude": 1.37955,
    "latitude": 43.62946,
    "name": "Hotel Formule 1",
    "city": "Toulouse",
    "description": "A�roport"
  },
  {
    "longitude": 4.78956,
    "latitude": 43.92888,
    "name": "Hotel Formule 1",
    "city": "Avignon",
    "description": "Gare TGV"
  },
  {
    "longitude": -1.57786,
    "latitude": 49.63649,
    "name": "Hotel Formule 1",
    "city": "Cherbourg",
    "description": "+33891705221"
  },
  {
    "longitude": 1.32692,
    "latitude": 47.61317,
    "name": "Hotel Formule 1",
    "city": "Blois",
    "description": "Nord"
  },
  {
    "longitude": 2.96438,
    "latitude": 50.63326,
    "name": "Hotel Formule 1",
    "city": "Lille",
    "description": "Englos"
  },
  {
    "longitude": -0.84395,
    "latitude": 47.07511,
    "name": "Hotel Formule 1",
    "city": "Cholet",
    "description": "+33891705223"
  },
  {
    "longitude": 6.38312,
    "latitude": 45.65908,
    "name": "Hotel Formule 1",
    "city": "Albertville",
    "description": "+33891705156"
  },
  {
    "longitude": 6.16144,
    "latitude": 49.12773,
    "name": "Hotel Formule 1",
    "city": "Metz",
    "description": "Devant-les-Ponts"
  },
  {
    "longitude": 3.09752,
    "latitude": 50.64452,
    "name": "Hotel Formule 1",
    "city": "Lille",
    "description": "Mons en Baroeul"
  },
  {
    "longitude": 4.95791,
    "latitude": 48.64864,
    "name": "Hotel Formule 1",
    "city": "St Dizier",
    "description": "+33891705380"
  },
  {
    "longitude": 6.31257,
    "latitude": 46.2252,
    "name": "Hotel Formule 1",
    "city": "Annemasse",
    "description": "+3891705164"
  },
  {
    "longitude": 5.2567,
    "latitude": 46.17626,
    "name": "Hotel Formule 1",
    "city": "Bourg en Bresse",
    "description": "+33891705195"
  },
  {
    "longitude": -0.63461,
    "latitude": 47.46641,
    "name": "Hotel Formule 1",
    "city": "Angers",
    "description": "Ouest"
  },
  {
    "longitude": -2.72139,
    "latitude": 48.49125,
    "name": "Hotel Formule 1",
    "city": "St Brieuc",
    "description": "+33891705376"
  },
  {
    "longitude": 5.77907,
    "latitude": 45.18557,
    "name": "Hotel Formule 1",
    "city": "Grenoble",
    "description": "Universit�"
  },
  {
    "longitude": 5.11402,
    "latitude": 43.62754,
    "name": "Hotel Formule 1",
    "city": "Salon de Provence",
    "description": "+33891705389"
  },
  {
    "longitude": 6.18389,
    "latitude": 48.63944,
    "name": "Hotel Formule 1",
    "city": "Nancy",
    "description": "Sud"
  },
  {
    "longitude": 5.51056,
    "latitude": 43.2871,
    "name": "Hotel Formule 1",
    "city": "Marseille est St Menet",
    "description": "+33 891705297"
  },
  {
    "longitude": 1.19198,
    "latitude": 49.24969,
    "name": "Hotel Formule 1",
    "city": "Rouen",
    "description": "Louviers le Vaudreuil"
  },
  {
    "longitude": 6.72275,
    "latitude": 43.38575,
    "name": "Hotel Formule 1",
    "city": "Fr�jus Roquebrune Argen",
    "description": "+33 891705252"
  },
  {
    "longitude": 5.98194,
    "latitude": 47.21845,
    "name": "Hotel Formule 1",
    "city": "Besancon",
    "description": "Micropolis"
  },
  {
    "longitude": 6.21689,
    "latitude": 49.22998,
    "name": "Hotel Formule 1",
    "city": "Metz",
    "description": "Ennery"
  },
  {
    "longitude": 3.18017,
    "latitude": 50.72282,
    "name": "Hotel Formule 1",
    "city": "Tourcoing",
    "description": "Gare"
  },
  {
    "longitude": 3.13536,
    "latitude": 50.64405,
    "name": "Hotel Formule 1",
    "city": "Villeneuve d'Ascq",
    "description": "+33891705428"
  },
  {
    "longitude": 1.37077,
    "latitude": 47.57412,
    "name": "Hotel Formule 1",
    "city": "Blois",
    "description": "Vineuil"
  },
  {
    "longitude": 2.03757,
    "latitude": 48.97604,
    "name": "Hotel Formule 1",
    "city": "Chanteloup Andr�sy",
    "description": "+33891705216"
  },
  {
    "longitude": 2.50029,
    "latitude": 48.87913,
    "name": "Hotel Formule 1",
    "city": "Villemomble",
    "description": "+33 891705427"
  },
  {
    "longitude": -2.76833,
    "latitude": 47.67032,
    "name": "Hotel Formule 1",
    "city": "Vannes",
    "description": "+33891705422"
  },
  {
    "longitude": 4.69015,
    "latitude": 43.79491,
    "name": "Hotel Formule 1",
    "city": "Tarascon sur Rhone",
    "description": "+33891705403"
  },
  {
    "longitude": 2.28663,
    "latitude": 51.02286,
    "name": "Hotel Formule 1",
    "city": "Dunkerque Grande Synthe",
    "description": "+33891705239"
  },
  {
    "longitude": -1.98662,
    "latitude": 48.62105,
    "name": "Hotel Formule 1",
    "city": "Saint Malo",
    "description": "+33 891705385"
  },
  {
    "longitude": -4.35407,
    "latitude": 48.38395,
    "name": "Hotel Formule 1",
    "city": "Brest",
    "description": "Plougastel"
  },
  {
    "longitude": 0.69901,
    "latitude": 47.33788,
    "name": "Hotel Formule 1",
    "city": "Tours",
    "description": "Sud"
  },
  {
    "longitude": -1.4541,
    "latitude": 43.49015,
    "name": "Hotel Formule 1",
    "city": "Bayonne",
    "description": "+33891705176"
  },
  {
    "longitude": 4.79368,
    "latitude": 44.13791,
    "name": "Hotel Formule 1",
    "city": "Orange",
    "description": "+33891705345"
  },
  {
    "longitude": 3.29073,
    "latitude": 48.55365,
    "name": "Hotel Formule 1",
    "city": "Provins",
    "description": "+33891705360"
  },
  {
    "longitude": 2.15884,
    "latitude": 43.943,
    "name": "Hotel Formule 1",
    "city": "Albi",
    "description": "+33891705157"
  },
  {
    "longitude": 1.85341,
    "latitude": 47.89387,
    "name": "Hotel Formule 1",
    "city": "Orl�ans",
    "description": "la Chapelle St Mesmin"
  },
  {
    "longitude": 2.3327,
    "latitude": 47.04466,
    "name": "Hotel Formule 1",
    "city": "Bourges",
    "description": "+33891705196"
  },
  {
    "longitude": 4.9924,
    "latitude": 45.82261,
    "name": "Hotel Formule 1",
    "city": "Beynost",
    "description": "+33891705280"
  },
  {
    "longitude": 1.07527,
    "latitude": 49.90308,
    "name": "Hotel Formule 1",
    "city": "Dieppe",
    "description": "+33891705231"
  },
  {
    "longitude": 0.11167,
    "latitude": 43.22389,
    "name": "Hotel Formule 1",
    "city": "Tarbes",
    "description": "+3391705404"
  },
  {
    "longitude": 7.72132,
    "latitude": 48.65149,
    "name": "Hotel Formule 1",
    "city": "Strasbourg nord",
    "description": "+33 891705400"
  },
  {
    "longitude": 6.03819,
    "latitude": 46.11878,
    "name": "Hotel Formule 1",
    "city": "Gen�ve St Julien",
    "description": "+33 891705255"
  },
  {
    "longitude": 1.88899,
    "latitude": 48.97909,
    "name": "Hotel Formule 1",
    "city": "Flins Les Mureaux",
    "description": "+33891705248"
  },
  {
    "longitude": -1.07346,
    "latitude": 49.10106,
    "name": "Hotel Formule 1",
    "city": "St Lo",
    "description": "+33891705384"
  },
  {
    "longitude": 2.7808,
    "latitude": 49.40764,
    "name": "Hotel Formule 1",
    "city": "Compiegne",
    "description": "+33891705227"
  },
  {
    "longitude": 7.38461,
    "latitude": 48.75149,
    "name": "Hotel Formule 1",
    "city": "Saverne Monswiller",
    "description": "+33 891705391"
  },
  {
    "longitude": 2.30001,
    "latitude": 48.7156,
    "name": "Hotel Formule 1",
    "city": "Chilly-Mazarin",
    "description": "+33891705222"
  },
  {
    "longitude": 2.25518,
    "latitude": 48.38263,
    "name": "Hotel Formule 1",
    "city": "La For�t Sainte Croix",
    "description": ""
  },
  {
    "longitude": 6.00312,
    "latitude": 43.13819,
    "name": "Hotel Formule 1",
    "city": "Toulon",
    "description": "La Valette"
  },
  {
    "longitude": 1.42481,
    "latitude": 44.45893,
    "name": "Hotel Formule 1",
    "city": "Cahors",
    "description": "+3389170205"
  },
  {
    "longitude": 6.87781,
    "latitude": 47.64081,
    "name": "Hotel Formule 1",
    "city": "Belfort",
    "description": "C. du Glacis Chateau"
  },
  {
    "longitude": 1.29096,
    "latitude": 45.8883,
    "name": "Hotel Formule 1",
    "city": "Limoges",
    "description": "+33891705275"
  },
  {
    "longitude": 2.51661,
    "latitude": 48.96829,
    "name": "Hotel Formule 1",
    "city": "Villepinte",
    "description": "+33891705434"
  },
  {
    "longitude": 1.45469,
    "latitude": 49.10471,
    "name": "Hotel Formule 1",
    "city": "Vernon",
    "description": "+33891705424"
  },
  {
    "longitude": 5.10123,
    "latitude": 45.65986,
    "name": "Hotel Formule 1",
    "city": "Isle d'Abeau",
    "description": "St Exup�ry"
  },
  {
    "longitude": 2.06099,
    "latitude": 48.9668,
    "name": "Hotel Formule 1",
    "city": "Achere Poissy",
    "description": "+33891705153"
  },
  {
    "longitude": 3.2765,
    "latitude": 48.20588,
    "name": "Hotel Formule 1",
    "city": "Sens",
    "description": "Nord"
  },
  {
    "longitude": 2.33896,
    "latitude": 48.66812,
    "name": "Hotel Formule 1",
    "city": "Savigny Villemoisson",
    "description": "+33891705392"
  },
  {
    "longitude": 5.88955,
    "latitude": 45.59502,
    "name": "Hotel Formule 1",
    "city": "Chamb�ry",
    "description": "Nord"
  },
  {
    "longitude": 2.38903,
    "latitude": 48.9869,
    "name": "Hotel Formule 1",
    "city": "Sarcelles",
    "description": "+33891705390"
  },
  {
    "longitude": -3.33147,
    "latitude": 47.78758,
    "name": "Hotel Formule 1",
    "city": "Lorient",
    "description": "+33891705277"
  },
  {
    "longitude": 3.15062,
    "latitude": 47.0136,
    "name": "Hotel Formule 1",
    "city": "Nevers",
    "description": "Nord"
  },
  {
    "longitude": 6.15191,
    "latitude": 48.75844,
    "name": "Hotel Formule 1",
    "city": "Les Bouxieres aux Dames",
    "description": "+33891705333"
  },
  {
    "longitude": 2.01108,
    "latitude": 48.77109,
    "name": "Hotel Formule 1",
    "city": "Trappes",
    "description": "+33891705418"
  },
  {
    "longitude": 2.02038,
    "latitude": 49.0541,
    "name": "Hotel Formule 1",
    "city": "Cergy",
    "description": "St Christophe"
  },
  {
    "longitude": 2.39312,
    "latitude": 48.95584,
    "name": "Hotel Formule 1",
    "city": "Stains",
    "description": "+33891705398"
  },
  {
    "longitude": -1.43054,
    "latitude": 46.71012,
    "name": "Hotel Formule 1",
    "city": "La Roche sur Yon",
    "description": "+33891705264"
  },
  {
    "longitude": 2.86394,
    "latitude": 42.68528,
    "name": "Hotel Formule 1",
    "city": "Perpignan",
    "description": "+33891705354"
  },
  {
    "longitude": 6.04996,
    "latitude": 43.409,
    "name": "Hotel Formule 1",
    "city": "Brignoles",
    "description": "Centre Var"
  },
  {
    "longitude": -0.39806,
    "latitude": 49.20029,
    "name": "Hotel Formule 1",
    "city": "Caen",
    "description": "Memorial"
  },
  {
    "longitude": 6.35473,
    "latitude": 43.39693,
    "name": "Hotel Formule 1",
    "city": "Le Cannet des Maures",
    "description": "+33891705268"
  },
  {
    "longitude": 1.8608,
    "latitude": 50.09793,
    "name": "Hotel Formule 1",
    "city": "Abbeville",
    "description": "+33891705151"
  },
  {
    "longitude": 6.13306,
    "latitude": 45.9425,
    "name": "Hotel Formule 1",
    "city": "Annecy",
    "description": "+33891705163"
  },
  {
    "longitude": 6.10067,
    "latitude": 44.56568,
    "name": "Hotel Formule 1",
    "city": "Gap",
    "description": "+33891705253"
  },
  {
    "longitude": 3.54887,
    "latitude": 47.85158,
    "name": "Hotel Formule 1",
    "city": "Auxerre",
    "description": "+33891705170"
  },
  {
    "longitude": 5.99252,
    "latitude": 47.28494,
    "name": "Hotel Formule 1",
    "city": "Besancon",
    "description": "Valentin"
  },
  {
    "longitude": 2.71875,
    "latitude": 48.26597,
    "name": "Hotel Formule 1",
    "city": "Nemours",
    "description": "+33891705340"
  },
  {
    "longitude": 1.35522,
    "latitude": 48.7488,
    "name": "Hotel Formule 1",
    "city": "Dreux",
    "description": "+33891705238"
  },
  {
    "longitude": -0.66363,
    "latitude": 44.89244,
    "name": "Hotel Formule 1",
    "city": "Bordeaux ouest Eysines",
    "description": "+33 891705191"
  },
  {
    "longitude": 4.82388,
    "latitude": 45.6375,
    "name": "Hotel Formule 1",
    "city": "Solaize",
    "description": "+33891705286"
  },
  {
    "longitude": 5.40054,
    "latitude": 49.14898,
    "name": "Hotel Formule 1",
    "city": "Verdun",
    "description": "+33891705423"
  },
  {
    "longitude": 6.0977,
    "latitude": 46.24738,
    "name": "Hotel Formule 1",
    "city": "Ferney Voltaire",
    "description": "+33891705254"
  },
  {
    "longitude": 2.56533,
    "latitude": 48.62166,
    "name": "Hotel Formule 1",
    "city": "Moisy Cramayel",
    "description": "+33891705309"
  },
  {
    "longitude": 5.35909,
    "latitude": 43.40495,
    "name": "Hotel Formule 1",
    "city": "Marseille",
    "description": "La Hte Bedoule"
  },
  {
    "longitude": -0.31116,
    "latitude": 46.34837,
    "name": "Hotel Formule 1",
    "city": "Niort St Maixent",
    "description": "+33891705344"
  },
  {
    "longitude": 2.98572,
    "latitude": 43.16757,
    "name": "Hotel Formule 1",
    "city": "Narbonne",
    "description": "Sud"
  },
  {
    "longitude": 6.25144,
    "latitude": 49.11614,
    "name": "Hotel Formule 1",
    "city": "Metz",
    "description": "Actipole"
  },
  {
    "longitude": 3.24533,
    "latitude": 43.34777,
    "name": "Hotel Formule 1",
    "city": "B�ziers",
    "description": "+33891705184"
  },
  {
    "longitude": -1.10042,
    "latitude": 46.10847,
    "name": "Hotel Formule 1",
    "city": "La Rochelle",
    "description": "Angoulins"
  },
  {
    "longitude": 6.17901,
    "latitude": 49.34579,
    "name": "Hotel Formule 1",
    "city": "Thionville",
    "description": "yutz"
  },
  {
    "longitude": 6.83688,
    "latitude": 47.51189,
    "name": "Hotel Formule 1",
    "city": "Sochaux",
    "description": "Monbeliart"
  },
  {
    "longitude": 2.46361,
    "latitude": 48.95735,
    "name": "Hotel Formule 1",
    "city": "Aulnay",
    "description": "Garonor A1"
  },
  {
    "longitude": -1.62367,
    "latitude": 48.09821,
    "name": "Hotel Formule 1",
    "city": "Rennes",
    "description": "Sud Est Chantepie"
  },
  {
    "longitude": 0.5474,
    "latitude": 46.83875,
    "name": "Hotel Formule 1",
    "city": "Chatellerault",
    "description": "+33891705219"
  },
  {
    "longitude": 1.37298,
    "latitude": 43.5152,
    "name": "Hotel Formule 1",
    "city": "Toulouse",
    "description": "Muret"
  },
  {
    "longitude": 2.31636,
    "latitude": 48.82311,
    "name": "Hotel Formule 1",
    "city": "Paris",
    "description": "Porte de Chatillon"
  },
  {
    "longitude": -1.50167,
    "latitude": 47.24639,
    "name": "Hotel Formule 1",
    "city": "Nantes",
    "description": "Porte de Ste Luce"
  },
  {
    "longitude": 6.28323,
    "latitude": 43.15136,
    "name": "Hotel Formule 1",
    "city": "Hy�res Le Lavandou",
    "description": "+33 891705262"
  },
  {
    "longitude": 3.046,
    "latitude": 50.39872,
    "name": "Hotel Formule 1",
    "city": "Douai",
    "description": "Flers"
  },
  {
    "longitude": 3.96585,
    "latitude": 50.26801,
    "name": "Hotel Formule 1",
    "city": "Maubeuge",
    "description": "Louvroil"
  },
  {
    "longitude": 4.80528,
    "latitude": 45.57472,
    "name": "Hotel Formule 1",
    "city": "Chasse sur Rhone",
    "description": "+33891705279"
  },
  {
    "longitude": 0.18067,
    "latitude": 47.94314,
    "name": "Hotel Formule 1",
    "city": "Le Mans",
    "description": "Arnage"
  },
  {
    "longitude": 4.49527,
    "latitude": 46.74829,
    "name": "Hotel Formule 1",
    "city": "Le Creusot",
    "description": "Montchanin"
  },
  {
    "longitude": -0.30922,
    "latitude": 49.15964,
    "name": "Hotel Formule 1",
    "city": "Caen",
    "description": "Mondeville"
  },
  {
    "longitude": 4.38901,
    "latitude": 48.94365,
    "name": "Hotel Formule 1",
    "city": "Chalons-en-Champagne",
    "description": "+33891705211"
  },
  {
    "longitude": 3.18252,
    "latitude": 50.69514,
    "name": "Hotel Formule 1",
    "city": "Roubaix",
    "description": "Centre"
  },
  {
    "longitude": 2.43426,
    "latitude": 48.71546,
    "name": "Hotel Formule 1",
    "city": "Vigneux sur Seine",
    "description": "+33891705432"
  },
  {
    "longitude": 2.40875,
    "latitude": 43.20502,
    "name": "Hotel Formule 1",
    "city": "Carcassonne",
    "description": "+33891705208"
  },
  {
    "longitude": 5.23139,
    "latitude": 43.44641,
    "name": "Hotel Formule 1",
    "city": "Marseille",
    "description": "A�roport"
  },
  {
    "longitude": 2.30981,
    "latitude": 50.72473,
    "name": "Hotel Formule 1",
    "city": "Arques St Omer",
    "description": "+33891705166"
  },
  {
    "longitude": 4.72466,
    "latitude": 49.73904,
    "name": "Hotel Formule 1",
    "city": "Charleville M�zieres",
    "description": "+33891705217"
  },
  {
    "longitude": 7.06207,
    "latitude": 43.6024,
    "name": "Hotel Formule 1",
    "city": "Antibes Sophia Antipolis",
    "description": "+33891705165"
  },
  {
    "longitude": 3.12149,
    "latitude": 50.76374,
    "name": "Hotel Formule 1",
    "city": "Lille",
    "description": "Roncq"
  },
  {
    "longitude": 1.48691,
    "latitude": 43.552,
    "name": "Hotel Formule 1",
    "city": "Toulouse",
    "description": "Ramonville"
  },
  {
    "longitude": 0.22545,
    "latitude": 49.50915,
    "name": "Hotel Formule 1",
    "city": "Le Havre",
    "description": "+33891705267"
  },
  {
    "longitude": 2.30692,
    "latitude": 48.91868,
    "name": "Hotel Formule 1",
    "city": "Gennevilliers Asnieres",
    "description": "+33891705256"
  },
  {
    "longitude": 4.76095,
    "latitude": 45.82079,
    "name": "Hotel Formule 1",
    "city": "Dardilly",
    "description": "+33891705284"
  },
  {
    "longitude": 4.28077,
    "latitude": 45.53186,
    "name": "Hotel Formule 1",
    "city": "St-Etienne",
    "description": "Andrezieux"
  },
  {
    "longitude": 1.98613,
    "latitude": 47.92138,
    "name": "Hotel Formule 1",
    "city": "Orl�ans",
    "description": "St Jean de Braye"
  },
  {
    "longitude": -1.18314,
    "latitude": 48.34755,
    "name": "Hotel Formule 1",
    "city": "Fougeres",
    "description": "+33891705250"
  },
  {
    "longitude": 7.39016,
    "latitude": 47.77254,
    "name": "Hotel Formule 1",
    "city": "Mulhouse",
    "description": "Ile Napol�on"
  },
  {
    "longitude": 5.01885,
    "latitude": 47.28166,
    "name": "Hotel Formule 1",
    "city": "Dijon",
    "description": "Sud"
  },
  {
    "longitude": 5.02572,
    "latitude": 43.40927,
    "name": "Hotel Formule 1",
    "city": "Martigues",
    "description": "+33 891705303"
  },
  {
    "longitude": 2.23335,
    "latitude": 49.17079,
    "name": "Hotel Formule 1",
    "city": "Chambly",
    "description": "+33 891705214"
  },
  {
    "longitude": 1.92538,
    "latitude": 48.7614,
    "name": "Hotel Formule 1",
    "city": "Maurepas",
    "description": "+33891705305"
  },
  {
    "longitude": 4.7422,
    "latitude": 44.2866,
    "name": "Hotel Formule 1",
    "city": "Bollene",
    "description": "+33891705187"
  },
  {
    "longitude": 1.80351,
    "latitude": 50.94201,
    "name": "Hotel Formule 1",
    "city": "Calais Coquelles",
    "description": "+33 891705206"
  },
  {
    "longitude": 7.36249,
    "latitude": 48.10782,
    "name": "Hotel Formule 1",
    "city": "Colmar",
    "description": "Parc des Expositions"
  },
  {
    "longitude": 2.55294,
    "latitude": 48.90601,
    "name": "Hotel Formule 1",
    "city": "Clichy sous Bois",
    "description": "+33891705225"
  },
  {
    "longitude": 2.25939,
    "latitude": 48.62252,
    "name": "Hotel Formule 1",
    "city": "Linas Montlery",
    "description": "+33891705276"
  },
  {
    "longitude": 5.03653,
    "latitude": 43.4108,
    "name": "Hotel Formule 1",
    "city": "Martigues",
    "description": "+33891705303"
  },
  {
    "longitude": 2.47131,
    "latitude": 48.72499,
    "name": "Hotel Formule 1",
    "city": "Villeneuve St Georges",
    "description": "+33891705431"
  },
  {
    "longitude": 6.25631,
    "latitude": 43.14762,
    "name": "Hotel Formule 1",
    "city": "Hyeres",
    "description": "Le Lavandou"
  },
  {
    "longitude": 7.47079,
    "latitude": 48.53032,
    "name": "Hotel Formule 1",
    "city": "Strasbourg",
    "description": "Mutzig"
  },
  {
    "longitude": 2.6212,
    "latitude": 48.95122,
    "name": "Hotel Formule 1",
    "city": "Villeparisis",
    "description": "+33891705433"
  },
  {
    "longitude": 2.8407,
    "latitude": 49.88792,
    "name": "Hotel Formule 1",
    "city": "P�ronne",
    "description": "Assevillers A1"
  },
  {
    "longitude": 1.16157,
    "latitude": 49.40267,
    "name": "Hotel Formule 1",
    "city": "Rouen",
    "description": "+33891705372"
  },
  {
    "longitude": 5.36081,
    "latitude": 43.41755,
    "name": "Hotel Formule 1",
    "city": "Marseille",
    "description": "Plan de Campagne 1"
  },
  {
    "longitude": 2.5251,
    "latitude": 48.87418,
    "name": "Hotel Formule 1",
    "city": "Villemomble",
    "description": "+33891705427"
  },
  {
    "longitude": 5.02862,
    "latitude": 45.75967,
    "name": "Hotel Formule 1",
    "city": "M�zieux",
    "description": "Eurexpo"
  },
  {
    "longitude": 4.7217,
    "latitude": 45.80914,
    "name": "Hotel Formule 1",
    "city": "La Tour de Salvagny",
    "description": "+33891705282"
  },
  {
    "longitude": -0.73745,
    "latitude": 48.08762,
    "name": "Hotel Formule 1",
    "city": "Laval",
    "description": "+33891705266"
  },
  {
    "longitude": 5.62222,
    "latitude": 43.28072,
    "name": "Hotel Formule 1",
    "city": "Aubagne",
    "description": "+33891705296"
  },
  {
    "longitude": 4.87262,
    "latitude": 45.72241,
    "name": "Hotel Formule 1",
    "city": "V�nissieux",
    "description": "Etats-Unis"
  },
  {
    "longitude": 4.99433,
    "latitude": 45.82812,
    "name": "Hotel Formule 1",
    "city": "Lyon est Beynost",
    "description": "+33 891705280"
  },
  {
    "longitude": -4.07435,
    "latitude": 48.01245,
    "name": "Hotel Formule 1",
    "city": "Quimper",
    "description": "+33891705361"
  },
  {
    "longitude": 5.06853,
    "latitude": 47.35193,
    "name": "Hotel Formule 1",
    "city": "Dijon",
    "description": "Nord"
  },
  {
    "longitude": 3.19418,
    "latitude": 50.17435,
    "name": "Hotel Formule 1",
    "city": "Cambrai",
    "description": "+33891705207"
  },
  {
    "longitude": -2.21026,
    "latitude": 47.2923,
    "name": "Hotel Formule 1",
    "city": "Saint Nazaire la Baule",
    "description": "+33 891705386"
  },
  {
    "longitude": -1.45337,
    "latitude": 47.28336,
    "name": "Hotel Formule 1",
    "city": "Nantes",
    "description": "Nord Est Carquefou"
  },
  {
    "longitude": 2.36425,
    "latitude": 48.92142,
    "name": "Hotel Formule 1",
    "city": "St-Denis",
    "description": "Stade de France"
  },
  {
    "longitude": 4.4955,
    "latitude": 46.4803,
    "name": "Hotel Formule 1",
    "city": "Pressy sous Dodin",
    "description": ""
  },
  {
    "longitude": 2.19827,
    "latitude": 48.67922,
    "name": "Hotel Formule 1",
    "city": "Les Ulis",
    "description": "Courtabeuf"
  },
  {
    "longitude": 6.59663,
    "latitude": 48.08057,
    "name": "Hotel Formule 1",
    "city": "Remiremont",
    "description": "St Nabord"
  },
  {
    "longitude": -1.70684,
    "latitude": 48.15619,
    "name": "Hotel Formule 1",
    "city": "Rennes",
    "description": "Nord Montgermont"
  },
  {
    "longitude": 2.41967,
    "latitude": 48.62123,
    "name": "Hotel Formule 1",
    "city": "Evry A6",
    "description": "+33 891705246"
  },
  {
    "longitude": 1.81435,
    "latitude": 48.96056,
    "name": "Hotel Formule 1",
    "city": "�pone",
    "description": "+33891705244"
  },
  {
    "longitude": 4.83229,
    "latitude": 46.80074,
    "name": "Hotel Formule 1",
    "city": "Chalon sur Saone",
    "description": "Nord"
  },
  {
    "longitude": 3.09628,
    "latitude": 48.80358,
    "name": "Hotel Formule 1",
    "city": "Coulommiers",
    "description": "+33891705230"
  },
  {
    "longitude": 7.31651,
    "latitude": 47.75625,
    "name": "Hotel Formule 1",
    "city": "Mulhouse",
    "description": "Centre Ouest"
  },
  {
    "longitude": 2.5135,
    "latitude": 48.98888,
    "name": "Hotel Formule 1",
    "city": "Roissy",
    "description": "A�roport CDG"
  },
  {
    "longitude": 2.43504,
    "latitude": 48.72896,
    "name": "Hotel Formule 1",
    "city": "Villeneuve le Roi",
    "description": "+33891705429"
  },
  {
    "longitude": 5.52586,
    "latitude": 43.49078,
    "name": "Hotel Formule 1",
    "city": "Aix en Provence",
    "description": "+33891705155"
  },
  {
    "longitude": 4.82017,
    "latitude": 45.71561,
    "name": "Hotel Formule 1",
    "city": "Oullins",
    "description": "+33891705288"
  },
  {
    "longitude": -1.7686,
    "latitude": 48.09489,
    "name": "Hotel Formule 1",
    "city": "Rennes",
    "description": "Ouest Le Rheu"
  },
  {
    "longitude": 3.35594,
    "latitude": 49.39778,
    "name": "Hotel Formule 1",
    "city": "Soissons",
    "description": "Crouy"
  },
  {
    "longitude": 2.45777,
    "latitude": 48.57019,
    "name": "Hotel Formule 1",
    "city": "Mennecy",
    "description": "+33891705311"
  },
  {
    "longitude": -0.68616,
    "latitude": 44.83798,
    "name": "Hotel Formule 1",
    "city": "Bordeaux",
    "description": "A�roport"
  },
  {
    "longitude": 6.10764,
    "latitude": 49.07763,
    "name": "Hotel Formule 1",
    "city": "Metz",
    "description": "Sud Augny"
  },
  {
    "longitude": 6.50877,
    "latitude": 46.38242,
    "name": "Hotel Formule 1",
    "city": "Thonon les bains",
    "description": "+33891705406"
  },
  {
    "longitude": 1.34393,
    "latitude": 43.49116,
    "name": "Hotel Formule 1",
    "city": "Toulouse Muret",
    "description": "+33 891705412"
  },
  {
    "longitude": 6.43097,
    "latitude": 48.22109,
    "name": "Hotel Formule 1",
    "city": "Epinal",
    "description": "+33891705242"
  },
  {
    "longitude": 3.14107,
    "latitude": 45.78538,
    "name": "Hotel Formule 1",
    "city": "Clermont-Ferrand",
    "description": "Est"
  },
  {
    "longitude": 6.93439,
    "latitude": 48.29222,
    "name": "Hotel Formule 1",
    "city": "St Di� des Vosges",
    "description": "+33891705379"
  },
  {
    "longitude": 7.31202,
    "latitude": 47.79093,
    "name": "Hotel Formule 1",
    "city": "Mulhouse",
    "description": "Kingersheim"
  },
  {
    "longitude": 1.7981,
    "latitude": 50.931,
    "name": "Hotel Formule 1",
    "city": "Calais",
    "description": "Coquelles"
  },
  {
    "longitude": 4.72654,
    "latitude": 45.81631,
    "name": "Hotel Formule 1",
    "city": "Lyon la Tour",
    "description": "+33 891705282"
  },
  {
    "longitude": 3.9742,
    "latitude": 49.252,
    "name": "Hotel Formule 1",
    "city": "Reims",
    "description": "Tinqueux"
  },
  {
    "longitude": 6.33463,
    "latitude": 46.91341,
    "name": "Hotel Formule 1",
    "city": "Pontarlier",
    "description": "+33891705358"
  },
  {
    "longitude": 1.38569,
    "latitude": 44.00829,
    "name": "Hotel Formule 1",
    "city": "Montauban",
    "description": "+33891705319"
  },
  {
    "longitude": 2.08422,
    "latitude": 49.04534,
    "name": "Hotel Formule 1",
    "city": "Cergy Pontoise",
    "description": "St Martin"
  },
  {
    "longitude": -1.18652,
    "latitude": 48.35427,
    "name": "Hotel Formule 1",
    "city": "Foug�res",
    "description": "+33 891705250"
  },
  {
    "longitude": 2.36802,
    "latitude": 48.9374,
    "name": "Hotel Formule 1",
    "city": "Saint Denis",
    "description": "Basilique"
  },
  {
    "longitude": 2.3325,
    "latitude": 48.90124,
    "name": "Hotel Formule 1",
    "city": "Paris",
    "description": "Porte de Saint Ouen"
  },
  {
    "longitude": 2.22979,
    "latitude": 49.17465,
    "name": "Hotel Formule 1",
    "city": "Chambly",
    "description": "+33891705214"
  },
  {
    "longitude": 4.91333,
    "latitude": 45.70556,
    "name": "Hotel Formule 1",
    "city": "Saint Priest",
    "description": "+33891705285"
  },
  {
    "longitude": 4.86801,
    "latitude": 46.42234,
    "name": "Hotel Formule 1",
    "city": "Macon",
    "description": "A6 nord No. 1"
  },
  {
    "longitude": 2.41647,
    "latitude": 48.85574,
    "name": "Hotel Formule 1",
    "city": "Paris",
    "description": "Porte de Montreuil"
  },
  {
    "longitude": 4.81139,
    "latitude": 45.31583,
    "name": "Hotel Formule 1",
    "city": "Chanas",
    "description": "A7"
  },
  {
    "longitude": -0.31549,
    "latitude": 43.32304,
    "name": "Hotel Formule 1",
    "city": "Pau",
    "description": "+33891705351"
  },
  {
    "longitude": 2.42477,
    "latitude": 48.61573,
    "name": "Hotel Formule 1",
    "city": "�vry",
    "description": "A6"
  },
  {
    "longitude": 1.67382,
    "latitude": 50.73096,
    "name": "Hotel Formule 1",
    "city": "Boulogne sur Mer",
    "description": "+33 891705194"
  },
  {
    "longitude": 2.85481,
    "latitude": 48.99419,
    "name": "Hotel Formule 1",
    "city": "Marne La Vall�e",
    "description": "+33891705307"
  },
  {
    "longitude": 2.68488,
    "latitude": 50.51379,
    "name": "Hotel Formule 1",
    "city": "B�thune",
    "description": "Beuvry"
  },
  {
    "longitude": 2.1634,
    "latitude": 49.0534,
    "name": "Hotel Formule 1",
    "city": "Cergy",
    "description": "M�ry sur Oise"
  },
  {
    "longitude": 0.16547,
    "latitude": 48.05157,
    "name": "Hotel Formule 1",
    "city": "Le Mans",
    "description": "Nord"
  },
  {
    "longitude": 4.88865,
    "latitude": 43.98486,
    "name": "Hotel Formule 1",
    "city": "Avignon",
    "description": "Nord"
  },
  {
    "longitude": 2.83874,
    "latitude": 48.36728,
    "name": "Hotel Formule 1",
    "city": "Moret Fontainebleau",
    "description": "+33891705326"
  },
  {
    "longitude": 7.70105,
    "latitude": 48.52049,
    "name": "Hotel Formule 1",
    "city": "Strasbourg",
    "description": "Illkirch"
  },
  {
    "longitude": 3.09001,
    "latitude": 50.58004,
    "name": "Hotel Formule 1",
    "city": "Lille",
    "description": "Lesquin A�roport"
  },
  {
    "longitude": 5.85036,
    "latitude": 43.10692,
    "name": "Hotel Formule 1",
    "city": "Toulon ouest La Seyne",
    "description": "+33 891705409"
  },
  {
    "longitude": 0.60114,
    "latitude": 44.16357,
    "name": "Hotel Formule 1",
    "city": "Agen",
    "description": "+33891705154"
  },
  {
    "longitude": -0.74821,
    "latitude": 48.08981,
    "name": "Hotel Formule 1",
    "city": "Laval",
    "description": "+33 891705266"
  },
  {
    "longitude": -4.44536,
    "latitude": 48.43164,
    "name": "Hotel Formule 1",
    "city": "Brest",
    "description": "Kergaradec"
  },
  {
    "longitude": -2.20928,
    "latitude": 47.30152,
    "name": "Hotel Formule 1",
    "city": "La Baule",
    "description": "+33891705386"
  },
  {
    "longitude": 1.64546,
    "latitude": 50.72649,
    "name": "Hotel Formule 1",
    "city": "Boulogne sur Mer",
    "description": "+33891705194"
  },
  {
    "longitude": 6.80495,
    "latitude": 49.14059,
    "name": "Hotel Formule 1",
    "city": "Merlebach",
    "description": "Saarbruck"
  },
  {
    "longitude": 2.58231,
    "latitude": 48.83755,
    "name": "Hotel Formule 1",
    "city": "Noisy le Grand",
    "description": "Champs"
  },
  {
    "longitude": 2.37546,
    "latitude": 48.64667,
    "name": "Hotel Formule 1",
    "city": "Grigny",
    "description": "+33891705261"
  },
  {
    "longitude": 6.00723,
    "latitude": 45.51414,
    "name": "Hotel Formule 1",
    "city": "Chamb�ry",
    "description": "Chignin"
  },
  {
    "longitude": 5.47722,
    "latitude": 43.29889,
    "name": "Hotel Formule 1",
    "city": "Marseille",
    "description": "Valentine"
  },
  {
    "longitude": 1.06322,
    "latitude": 49.39967,
    "name": "Hotel Formule 1",
    "city": "Rouen",
    "description": "Parc Expos"
  },
  {
    "longitude": 1.14499,
    "latitude": 49.49075,
    "name": "Hotel Formule 1",
    "city": "Rouen",
    "description": "Isneauville"
  },
  {
    "longitude": 2.68113,
    "latitude": 48.8295,
    "name": "Hotel Formule 1",
    "city": "Marne La Vall�e",
    "description": "Coll�gien"
  },
  {
    "longitude": 2.61222,
    "latitude": 50.51213,
    "name": "Hotel Formule 1",
    "city": "B�thune",
    "description": "Fouquieres les B�thune"
  },
  {
    "longitude": 2.81308,
    "latitude": 48.91686,
    "name": "Hotel Formule 1",
    "city": "Marne la Vall�e",
    "description": "Meaux Esbly"
  },
  {
    "longitude": 3.3495,
    "latitude": 46.53243,
    "name": "Hotel Formule 1",
    "city": "Moulins",
    "description": "Sud"
  },
  {
    "longitude": 1.37014,
    "latitude": 47.57393,
    "name": "Bed & Breakfast",
    "city": "41 Blois",
    "description": "+33 8 92 78 80 13"
  },
  {
    "longitude": 3.05532,
    "latitude": 50.5465,
    "name": "Bed & Breakfast",
    "city": "59 Lille Seclin",
    "description": "+33 8 92 78 80 54"
  },
  {
    "longitude": -0.66931,
    "latitude": 44.84499,
    "name": "Bed & Breakfast",
    "city": "33 Bordeaux Merignac",
    "description": "+33 8 92 78 80 15"
  },
  {
    "longitude": 0.37195,
    "latitude": 46.66334,
    "name": "Bed & Breakfast",
    "city": "86 Poitiers Confort (3)",
    "description": "+33 8 92 78 80 81"
  },
  {
    "longitude": 1.98061,
    "latitude": 48.92952,
    "name": "Bed & Breakfast",
    "city": "78 Orgeval",
    "description": "+33 8 92 78 80 74"
  },
  {
    "longitude": 2.34159,
    "latitude": 47.04729,
    "name": "Bed & Breakfast",
    "city": "18 Bourges (2)",
    "description": "+33 8 92 78 80 19"
  },
  {
    "longitude": 3.15758,
    "latitude": 45.84008,
    "name": "Bed & Breakfast",
    "city": "63 Clermont Ferrand Gerzat (1)",
    "description": "+33 8 92 70 75 87"
  },
  {
    "longitude": 2.17068,
    "latitude": 48.71454,
    "name": "Bed & Breakfast",
    "city": "91 Saclay",
    "description": "+33 8 92 78 80 91"
  },
  {
    "longitude": 2.11598,
    "latitude": 48.87619,
    "name": "Bed & Breakfast",
    "city": "78 Louveciennes",
    "description": "+33 8 92 78 80 58"
  },
  {
    "longitude": 5.33753,
    "latitude": 43.36028,
    "name": "Bed & Breakfast",
    "city": "13 Marseille Saumaty S�on",
    "description": "+33 8 92 70 75 37"
  },
  {
    "longitude": 5.53016,
    "latitude": 44.7161,
    "name": "B & B Le Sareymond",
    "city": "Men�e",
    "description": "Treschenu-Creyers"
  },
  {
    "longitude": 4.84277,
    "latitude": 47.01223,
    "name": "Bed & Breakfast",
    "city": "21 Beaune Sud (1)",
    "description": "+33 8 92 78 80 09"
  },
  {
    "longitude": 4.83334,
    "latitude": 46.8256,
    "name": "Bed & Breakfast",
    "city": "71 Chalon-Sur-Saone Nord",
    "description": "+33 8 92 78 80 27"
  },
  {
    "longitude": -0.6328,
    "latitude": 47.4668,
    "name": "Bed & Breakfast",
    "city": "49 Angers (2)",
    "description": "+33 8 92 70 75 04"
  },
  {
    "longitude": 1.70451,
    "latitude": 46.85129,
    "name": "Bed & Breakfast",
    "city": "36 Chateauroux (2)",
    "description": "+33 8 92 78 80 30"
  },
  {
    "longitude": -1.61973,
    "latitude": 47.2517,
    "name": "Bed & Breakfast",
    "city": "44 Nantes Orvault",
    "description": "+33 8 92 78 80 71"
  },
  {
    "longitude": 2.55312,
    "latitude": 48.96277,
    "name": "Bed & Breakfast",
    "city": "93 Villepinte",
    "description": "+33 8 92 70 75 58"
  },
  {
    "longitude": 3.8369,
    "latitude": 43.5673,
    "name": "Bed & Breakfast",
    "city": "34 Montpellier (1)",
    "description": "+33 8 92 70 75 40"
  },
  {
    "longitude": 6.11215,
    "latitude": 49.07743,
    "name": "Bed & Breakfast",
    "city": "57 Metz Augny",
    "description": "+33 8 92 78 80 62"
  },
  {
    "longitude": -0.4,
    "latitude": 49.20056,
    "name": "Bed & Breakfast",
    "city": "14 Caen M�morial",
    "description": "+33 8 92 70 75 17"
  },
  {
    "longitude": 0.5426,
    "latitude": 46.83818,
    "name": "Bed & Breakfast",
    "city": "86 Chatellerault",
    "description": "+33 8 92 78 80 31"
  },
  {
    "longitude": 0.1966,
    "latitude": 49.5034,
    "name": "Bed & Breakfast",
    "city": "76 Le Havre (2)",
    "description": "+33 8 92 70 75 26"
  },
  {
    "longitude": -0.87528,
    "latitude": 47.05515,
    "name": "Bed & Breakfast",
    "city": "49 Cholet",
    "description": "+33 8 92 78 80 34"
  },
  {
    "longitude": 2.56828,
    "latitude": 48.78237,
    "name": "Bed & Breakfast",
    "city": "94 La-Queue-En-Brie",
    "description": "+33 8 92 78 80 46"
  },
  {
    "longitude": -1.1444,
    "latitude": 46.1546,
    "name": "Bed & Breakfast",
    "city": "17 La Rochelle Centre",
    "description": "+33 8 92 78 80 48"
  },
  {
    "longitude": 2.46037,
    "latitude": 48.61081,
    "name": "Bed & Breakfast",
    "city": "91 Corbeil",
    "description": "+33 8 92 78 80 35"
  },
  {
    "longitude": 7.3134,
    "latitude": 48.0842,
    "name": "Bed & Breakfast",
    "city": "68 Colmar",
    "description": "+33 8 92 70 75 23"
  },
  {
    "longitude": 2.30111,
    "latitude": 48.82485,
    "name": "Bed & Breakfast",
    "city": "92 Paris Malakoff",
    "description": "+33 8 92 78 80 77"
  },
  {
    "longitude": 4.855,
    "latitude": 45.71619,
    "name": "Bed & Breakfast",
    "city": "69 Lyon Venissieux",
    "description": "+33 8 92 78 81 12"
  },
  {
    "longitude": 2.55386,
    "latitude": 49.08858,
    "name": "Bed & Breakfast",
    "city": "95 Saint-Witz",
    "description": "+33 8 92 78 80 92"
  },
  {
    "longitude": 1.48172,
    "latitude": 45.1635,
    "name": "Bed & Breakfast",
    "city": "19 Brive-La -Gaillarde Ussac",
    "description": "+33 8 92 70 75 86"
  },
  {
    "longitude": 1.86066,
    "latitude": 50.93824,
    "name": "Bed & Breakfast",
    "city": "62 Calais St Pierre",
    "description": "+33 8 92 70 75 18"
  },
  {
    "longitude": 2.73439,
    "latitude": 50.30317,
    "name": "Bed & Breakfast",
    "city": "62 Arras",
    "description": "+33 8 92 70 22 13"
  },
  {
    "longitude": 4.90824,
    "latitude": 45.70856,
    "name": "Bed & Breakfast",
    "city": "69 Lyon St Priest",
    "description": "+33 8 92 78 80 59"
  },
  {
    "longitude": 5.1225,
    "latitude": 43.62803,
    "name": "Bed & Breakfast",
    "city": "13 Salon De Provence",
    "description": "+33 8 92 70 22 09"
  },
  {
    "longitude": -4.07415,
    "latitude": 48.01177,
    "name": "Bed & Breakfast",
    "city": "29 Quimper Nord",
    "description": "+33 8 92 78 80 84"
  },
  {
    "longitude": 1.85448,
    "latitude": 47.89827,
    "name": "Bed & Breakfast",
    "city": "45 Orleans",
    "description": "+33 8 92 78 80 75"
  },
  {
    "longitude": 6.8144,
    "latitude": 49.1412,
    "name": "Bed & Breakfast",
    "city": "57 Freyming Merlebach",
    "description": "+33 8 92 78 80 82"
  },
  {
    "longitude": 4.84799,
    "latitude": 47.04301,
    "name": "Bed & Breakfast",
    "city": "21 Beaune Nord",
    "description": "+33 8 92 70 75 12"
  },
  {
    "longitude": 4.79455,
    "latitude": 44.13673,
    "name": "Bed & Breakfast",
    "city": "84 Orange",
    "description": "+33 8 92 78 81 17"
  },
  {
    "longitude": 1.06337,
    "latitude": 49.39993,
    "name": "Bed & Breakfast",
    "city": "76 Rouen Parc Des Expos",
    "description": "+33 8 92 78 80 89"
  },
  {
    "longitude": 1.42655,
    "latitude": 43.61262,
    "name": "Bed & Breakfast",
    "city": "31 Toulouse Centre",
    "description": "+33 8 92 78 81 02"
  },
  {
    "longitude": 2.51458,
    "latitude": 48.99808,
    "name": "Bed & Breakfast",
    "city": "95 Roissy Cdg",
    "description": "+33 1 34 38 55 55"
  },
  {
    "longitude": 5.85539,
    "latitude": 43.11535,
    "name": "Bed & Breakfast",
    "city": "83 Toulon",
    "description": "+33 8 92 78 81 00"
  },
  {
    "longitude": 2.299,
    "latitude": 48.62642,
    "name": "Bed & Breakfast",
    "city": "91 Saint Michel Sur Orge",
    "description": "+33 8 92 70 75 56"
  },
  {
    "longitude": 3.2749,
    "latitude": 43.3342,
    "name": "Bed & Breakfast",
    "city": "34 Beziers",
    "description": "+33 8 92 78 80 12"
  },
  {
    "longitude": 1.5127,
    "latitude": 48.42785,
    "name": "Bed & Breakfast",
    "city": "28 Chartres (1)",
    "description": "+33 8 92 78 80 29"
  },
  {
    "longitude": 6.14745,
    "latitude": 49.19029,
    "name": "Bed & Breakfast",
    "city": "57 Metz Semecourt",
    "description": "+33 8 92 70 75 81"
  },
  {
    "longitude": 5.92077,
    "latitude": 45.57624,
    "name": "Bed & Breakfast",
    "city": "73 Chambery",
    "description": "+33 8 92 78 80 28"
  },
  {
    "longitude": -1.0983,
    "latitude": 46.10578,
    "name": "Bed & Breakfast",
    "city": "17 La Rochelle Angoulins",
    "description": "+33 8 92 78 80 47"
  },
  {
    "longitude": 1.11206,
    "latitude": 49.36906,
    "name": "Bed & Breakfast",
    "city": "76 Rouen St-Etienne",
    "description": "+33 8 92 78 80 90"
  },
  {
    "longitude": 3.83578,
    "latitude": 43.56695,
    "name": "Bed & Breakfast",
    "city": "34 Montpellier (2)",
    "description": "+33 8 92 78 80 64"
  },
  {
    "longitude": 3.15764,
    "latitude": 45.84087,
    "name": "Bed & Breakfast",
    "city": "63 Clermont-Ferrand Gerzat (2)",
    "description": "+33 8 92 78 80 26"
  },
  {
    "longitude": -1.59691,
    "latitude": 47.15963,
    "name": "Bed & Breakfast",
    "city": "44 Nantes Atlantique",
    "description": "+33 8 92 78 80 68"
  },
  {
    "longitude": 4.98785,
    "latitude": 45.76903,
    "name": "Bed & Breakfast",
    "city": "69 Lyon Meyzieu",
    "description": "+33 8 92 70 75 35"
  },
  {
    "longitude": 2.70477,
    "latitude": 48.83222,
    "name": "Bed & Breakfast",
    "city": "77 Marne La Vallee Bussy St Georges",
    "description": "+33 8 92 70 75 84"
  },
  {
    "longitude": -1.60053,
    "latitude": 48.11404,
    "name": "Bed & Breakfast",
    "city": "35 Rennes Cesson S�vign�",
    "description": "+33 8 92 70 75 61"
  },
  {
    "longitude": 2.18111,
    "latitude": 48.99904,
    "name": "Bed & Breakfast",
    "city": "95 Herblay",
    "description": "+33 8 92 78 80 43"
  },
  {
    "longitude": 2.98444,
    "latitude": 43.16814,
    "name": "Bed & Breakfast",
    "city": "11 Narbonne (2)",
    "description": "+33 8 92 70 75 49"
  },
  {
    "longitude": 4.03216,
    "latitude": 48.32606,
    "name": "Bed & Breakfast",
    "city": "10 Troyes Barberey",
    "description": "+33 8 92 78 81 06"
  },
  {
    "longitude": 0.7049,
    "latitude": 47.4297,
    "name": "Bed & Breakfast",
    "city": "37 Tours Nord (2)",
    "description": "+33 8 92 70 75 68"
  },
  {
    "longitude": -1.64524,
    "latitude": 47.23263,
    "name": "Bed & Breakfast",
    "city": "44 Nantes St Herblain",
    "description": "+33 8 92 78 81 11"
  },
  {
    "longitude": -1.71611,
    "latitude": 48.11722,
    "name": "Bed & Breakfast",
    "city": "35 Rennes Atalante Champeaux",
    "description": "+33 8 92 78 81 13"
  },
  {
    "longitude": 6.0994,
    "latitude": 49.0798,
    "name": "Bed & Breakfast",
    "city": "57 Metz Jouy Aux Arches",
    "description": "+33 8 92 70 75 38"
  },
  {
    "longitude": -4.4457,
    "latitude": 48.3928,
    "name": "Bed & Breakfast",
    "city": "29 Brest Port",
    "description": "+33 8 92 78 80 21"
  },
  {
    "longitude": -1.54938,
    "latitude": 47.27631,
    "name": "Bed & Breakfast",
    "city": "44 Nantes La Chapelle",
    "description": "+33 8 92 78 80 70"
  },
  {
    "longitude": 3.05683,
    "latitude": 50.38115,
    "name": "Bed & Breakfast",
    "city": "59 Douai Cuincy",
    "description": "+33 8 92 78 80 39"
  },
  {
    "longitude": 2.48459,
    "latitude": 48.95408,
    "name": "Bed & Breakfast",
    "city": "93 Aulnay Sous Bois >33892707533",
    "description": ""
  },
  {
    "longitude": 7.13294,
    "latitude": 43.63329,
    "name": "Bed & Breakfast",
    "city": "06 Villeneuve Loubet Les Cavaliers",
    "description": "+33 8 92 70 75 72"
  },
  {
    "longitude": 2.34332,
    "latitude": 48.92212,
    "name": "Bed & Breakfast",
    "city": "93 Saint-Denis Pleyel (3)",
    "description": "+33 8 92 70 22 16"
  },
  {
    "longitude": -1.48659,
    "latitude": 47.21056,
    "name": "Bed & Breakfast",
    "city": "44 Nantes St-S�bastien Sur Loire",
    "description": "+33 8 92 70 75 48"
  },
  {
    "longitude": 0.1659,
    "latitude": 48.05178,
    "name": "Bed & Breakfast",
    "city": "72 Le Mans Nord (2)",
    "description": "+33 8 92 78 80 51"
  },
  {
    "longitude": 0.3693,
    "latitude": 46.6584,
    "name": "Bed & Breakfast",
    "city": "86 Poitiers (1)",
    "description": "+33 8 92 70 75 60"
  },
  {
    "longitude": -2.72257,
    "latitude": 47.66802,
    "name": "Bed & Breakfast",
    "city": "56 Vannes Est",
    "description": "+33 8 92 78 81 08"
  },
  {
    "longitude": 6.63653,
    "latitude": 43.46084,
    "name": "Bed & Breakfast",
    "city": "83 Frejus Roquebrune Sur Argens",
    "description": "+33 8 92 70 75 62"
  },
  {
    "longitude": 2.88458,
    "latitude": 42.65945,
    "name": "Bed & Breakfast",
    "city": "66 Perpignan",
    "description": "+33 8 92 78 80 79"
  },
  {
    "longitude": -2.77529,
    "latitude": 47.67758,
    "name": "Bed & Breakfast",
    "city": "56 Vannes Ouest",
    "description": "+33 8 92 78 81 10"
  },
  {
    "longitude": -0.44482,
    "latitude": 43.32963,
    "name": "Bed & Breakfast",
    "city": "64 Pau Lescar",
    "description": "+33 8 92 70 22 36"
  },
  {
    "longitude": 7.12621,
    "latitude": 43.65324,
    "name": "Bed & Breakfast",
    "city": "06 Villeneuve-Loubet Parc Des Sports",
    "description": "+33 8 92 78 81 09"
  },
  {
    "longitude": 5.48128,
    "latitude": 43.28936,
    "name": "Bed & Breakfast",
    "city": "13 Marseille La Valentine",
    "description": "+33 8 92 78 80 61"
  },
  {
    "longitude": 2.29861,
    "latitude": 48.62588,
    "name": "Bed & Breakfast",
    "city": "91 Bretigny-Sur-Orge",
    "description": "+33 8 92 78 80 22"
  },
  {
    "longitude": 1.92181,
    "latitude": 48.76098,
    "name": "Bed & Breakfast",
    "city": "78 Maurepas",
    "description": "+33 8 92 70 75 53"
  },
  {
    "longitude": 5.77907,
    "latitude": 45.18991,
    "name": "Bed & Breakfast",
    "city": "38 Grenoble",
    "description": "+33 8 92 78 80 42"
  },
  {
    "longitude": 0.17952,
    "latitude": 47.94643,
    "name": "Bed & Breakfast",
    "city": "72 Le Mans Sud",
    "description": "+33 8 92 78 80 52"
  },
  {
    "longitude": 0.71668,
    "latitude": 47.37057,
    "name": "Bed & Breakfast",
    "city": "37 Tours St Avertin",
    "description": "+33 8 92 78 81 03"
  },
  {
    "longitude": 1.7046,
    "latitude": 46.8516,
    "name": "Bed & Breakfast",
    "city": "36 Chateauroux (1)",
    "description": "+33 8 92 70 75 22"
  },
  {
    "longitude": -1.97524,
    "latitude": 48.60305,
    "name": "Bed & Breakfast",
    "city": "35 Saint Malo Saint-Jouan",
    "description": "+33 8 92 70 22 17"
  },
  {
    "longitude": -1.49576,
    "latitude": 43.46446,
    "name": "Bed & Breakfast",
    "city": "64 Bayonne",
    "description": "+33 8 92 78 80 08"
  },
  {
    "longitude": 5.01589,
    "latitude": 47.27915,
    "name": "Bed & Breakfast",
    "city": "21 Dijon Sud (1)",
    "description": "+33 8 92 78 80 38"
  },
  {
    "longitude": 2.38902,
    "latitude": 48.90185,
    "name": "Bed & Breakfast",
    "city": "75 Paris Porte De La Villette",
    "description": "+33 8 92 70 75 50"
  },
  {
    "longitude": 0.37229,
    "latitude": 46.66334,
    "name": "Bed & Breakfast",
    "city": "86 Poitiers (2)",
    "description": "+33 8 92 78 80 80"
  },
  {
    "longitude": -1.62908,
    "latitude": 48.09178,
    "name": "Bed & Breakfast",
    "city": "35 Rennes Sud Chantepie",
    "description": "+33 8 92 78 80 86"
  },
  {
    "longitude": -1.51373,
    "latitude": 47.2537,
    "name": "Bed & Breakfast",
    "city": "44 Nantes La Beaujoire",
    "description": "+33 8 92 78 80 69"
  },
  {
    "longitude": 6.12477,
    "latitude": 43.11364,
    "name": "Bed & Breakfast",
    "city": "83 Hyeres",
    "description": "+33 8 92 78 80 45"
  },
  {
    "longitude": 5.0178,
    "latitude": 47.28061,
    "name": "Bed & Breakfast",
    "city": "21 Dijon Sud (2)",
    "description": "+33 8 92 70 75 25"
  },
  {
    "longitude": 2.2581,
    "latitude": 48.6281,
    "name": "Bed & Breakfast",
    "city": "91 Montlhery",
    "description": "+33 8 92 78 80 63"
  },
  {
    "longitude": -0.75161,
    "latitude": 48.09064,
    "name": "Bed & Breakfast",
    "city": "53 Laval",
    "description": "+33 8 92 78 80 49"
  },
  {
    "longitude": 0.64657,
    "latitude": 47.34564,
    "name": "Bed & Breakfast",
    "city": "37 Tours Sud",
    "description": "+33 8 92 78 81 05"
  },
  {
    "longitude": 5.037,
    "latitude": 47.323,
    "name": "Bed & Breakfast",
    "city": "21 Dijon Centre",
    "description": "+33 8 92 70 75 06"
  },
  {
    "longitude": 7.69198,
    "latitude": 48.53381,
    "name": "Bed & Breakfast",
    "city": "67 Strasbourg Sud Ostwald",
    "description": "+33 8 92 70 75 64"
  },
  {
    "longitude": 1.0757,
    "latitude": 49.90009,
    "name": "Bed & Breakfast",
    "city": "76 Dieppe Saint-Aubin",
    "description": "+33 8 92 78 80 36"
  },
  {
    "longitude": 5.01558,
    "latitude": 45.69831,
    "name": "Bed & Breakfast",
    "city": "69 Lyon A�roport St Exup�ry",
    "description": "+33 8 92 70 75 36"
  },
  {
    "longitude": 3.26013,
    "latitude": 49.8555,
    "name": "Bed & Breakfast",
    "city": "2 Saint-Quentin",
    "description": "+33 8 92 78 80 97"
  },
  {
    "longitude": 1.15528,
    "latitude": 49.01861,
    "name": "Bed & Breakfast",
    "city": "27 Evreux",
    "description": "+33 8 92 78 81 14"
  },
  {
    "longitude": 2.34271,
    "latitude": 47.04699,
    "name": "Bed & Breakfast",
    "city": "18 Bourges (1)",
    "description": "+33 8 92 70 75 16"
  },
  {
    "longitude": 1.64248,
    "latitude": 50.72591,
    "name": "Bed & Breakfast",
    "city": "62 Boulogne",
    "description": "+33 8 92 78 80 18"
  },
  {
    "longitude": 5.4469,
    "latitude": 43.51108,
    "name": "Bed & Breakfast",
    "city": "13 Aix-En-Provence",
    "description": "+33 8 92 70 75 02"
  },
  {
    "longitude": 1.2909,
    "latitude": 45.8895,
    "name": "Bed & Breakfast",
    "city": "87 Limoges (1)",
    "description": "+33 8 92 70 75 30"
  },
  {
    "longitude": 4.87188,
    "latitude": 43.97852,
    "name": "Bed & Breakfast",
    "city": "84 Avignon (1)",
    "description": "+33 8 92 78 80 06"
  },
  {
    "longitude": 3.08177,
    "latitude": 50.62772,
    "name": "Bed & Breakfast",
    "city": "59 Lille Euralille",
    "description": "+33 8 92 70 22 06"
  },
  {
    "longitude": -0.58786,
    "latitude": 44.78448,
    "name": "Bed & Breakfast",
    "city": "33 Bordeaux Sud",
    "description": "+33 8 92 78 80 17"
  },
  {
    "longitude": -4.09563,
    "latitude": 47.97897,
    "name": "Bed & Breakfast",
    "city": "29 Quimper Sud",
    "description": "+33 8 92 78 80 85"
  },
  {
    "longitude": 3.51981,
    "latitude": 50.33875,
    "name": "Bed & Breakfast",
    "city": "59 Valenciennes",
    "description": "+33 8 92 70 22 08"
  },
  {
    "longitude": 6.888,
    "latitude": 47.64299,
    "name": "Bed & Breakfast",
    "city": "90 Belfort",
    "description": "+33 8 92 78 81 21"
  },
  {
    "longitude": -0.59436,
    "latitude": 44.88803,
    "name": "Bed & Breakfast",
    "city": "33 Bordeaux Bruges",
    "description": "+33 8 92 78 80 14"
  },
  {
    "longitude": 4.84096,
    "latitude": 47.01198,
    "name": "Bed & Breakfast",
    "city": "21 Beaune Sud (2)",
    "description": "+33 8 92 70 75 13"
  },
  {
    "longitude": 4.11889,
    "latitude": 46.46856,
    "name": "Bed & Breakfast",
    "city": "71 Paray-Le-Monial",
    "description": "+33 8 92 70 75 71"
  },
  {
    "longitude": 7.38011,
    "latitude": 47.771,
    "name": "Bed & Breakfast",
    "city": "68 Mulhouse Ile Napol�on",
    "description": "+33 8 92 70 75 41"
  },
  {
    "longitude": 2.61526,
    "latitude": 48.78334,
    "name": "Bed & Breakfast",
    "city": "77 Pontault-Combault",
    "description": "+33 8 92 78 80 83"
  },
  {
    "longitude": 3.36278,
    "latitude": 46.50191,
    "name": "Bed & Breakfast",
    "city": "3 Moulins",
    "description": "+33 8 92 78 80 66"
  },
  {
    "longitude": -4.4595,
    "latitude": 48.4325,
    "name": "Bed & Breakfast",
    "city": "29 Brest Kergaradec",
    "description": "+33 8 92 78 80 20"
  },
  {
    "longitude": 2.98404,
    "latitude": 43.16834,
    "name": "Bed & Breakfast",
    "city": "11 Narbonne (1)",
    "description": "+33 8 92 78 80 73"
  },
  {
    "longitude": 1.38009,
    "latitude": 43.57677,
    "name": "Bed & Breakfast",
    "city": "31 Toulouse Basso Cambo",
    "description": "+33 8 92 78 81 20"
  },
  {
    "longitude": -0.6281,
    "latitude": 47.46744,
    "name": "Bed & Breakfast",
    "city": "49 Angers (1)",
    "description": "+33 8 92 78 80 04"
  },
  {
    "longitude": -3.85489,
    "latitude": 48.57846,
    "name": "Bed & Breakfast",
    "city": "29 Morlaix",
    "description": "+33 8 92 78 80 65"
  },
  {
    "longitude": 0.09935,
    "latitude": 48.45137,
    "name": "Bed & Breakfast",
    "city": "61 Alencon",
    "description": "+33 8 92 78 80 02"
  },
  {
    "longitude": 4.85508,
    "latitude": 45.75121,
    "name": "Bed & Breakfast",
    "city": "69 Lyon Gambetta",
    "description": "+33 8 92 70 75 34"
  },
  {
    "longitude": 5.87497,
    "latitude": 43.12459,
    "name": "Bed & Breakfast",
    "city": "83 Toulon (Ollioules)",
    "description": "+33 8 92 70 75 90"
  },
  {
    "longitude": 2.11041,
    "latitude": 49.40806,
    "name": "Bed & Breakfast",
    "city": "60 Beauvais",
    "description": "+33 8 92 78 80 10"
  },
  {
    "longitude": 2.34734,
    "latitude": 48.75678,
    "name": "Bed & Breakfast",
    "city": "94 Orly Rungis",
    "description": "+33 8 92 78 80 76"
  },
  {
    "longitude": 1.2909,
    "latitude": 45.88883,
    "name": "Bed & Breakfast",
    "city": "87 Limoges (2)",
    "description": "+33 8 92 78 80 55"
  },
  {
    "longitude": 5.95553,
    "latitude": 47.21999,
    "name": "Bed & Breakfast",
    "city": "25 Besancon",
    "description": "+33 8 92 78 80 11"
  },
  {
    "longitude": 3.14152,
    "latitude": 45.78657,
    "name": "Bed & Breakfast",
    "city": "63 Clermont-Ferrand Le Brezet",
    "description": "+33 8 92 78 80 25"
  },
  {
    "longitude": 7.69186,
    "latitude": 48.53243,
    "name": "Bed & Breakfast",
    "city": "67 Strasbourg Sud Geipolsheim",
    "description": "+33 8 92 78 80 99"
  },
  {
    "longitude": 6.13104,
    "latitude": 48.69323,
    "name": "Bed & Breakfast",
    "city": "54 Nancy Laxou",
    "description": "+33 8 92 70 75 46"
  },
  {
    "longitude": 6.06289,
    "latitude": 43.41243,
    "name": "Bed & Breakfast",
    "city": "83 Brignoles",
    "description": "+33 8 92 70 75 33"
  },
  {
    "longitude": 0.70611,
    "latitude": 47.43052,
    "name": "Bed & Breakfast",
    "city": "37 Tours Nord (1)",
    "description": "+33 8 92 78 81 04"
  },
  {
    "longitude": 0.26103,
    "latitude": 49.41098,
    "name": "Bed & Breakfast",
    "city": "14 Honfleur",
    "description": "+33 8 92 78 80 44"
  },
  {
    "longitude": 7.7214,
    "latitude": 48.6623,
    "name": "Bed & Breakfast",
    "city": "67 Strasbourg Nord Artisans",
    "description": "+33 8 92 70 75 63"
  },
  {
    "longitude": 1.80459,
    "latitude": 50.9423,
    "name": "Bed & Breakfast",
    "city": "62 Calais Coquelles",
    "description": "+33 8 92 78 80 24"
  },
  {
    "longitude": 2.47306,
    "latitude": 49.24444,
    "name": "Bed & Breakfast",
    "city": "60 Creil",
    "description": "+33 8 92 78 81 15"
  },
  {
    "longitude": 2.98694,
    "latitude": 50.41222,
    "name": "Bed & Breakfast",
    "city": "62 Lens Noyelles-Godault",
    "description": "+33 8 92 78 80 53"
  },
  {
    "longitude": -0.33617,
    "latitude": 49.14007,
    "name": "Bed & Breakfast",
    "city": "14 Caen",
    "description": "+33 8 92 78 80 23"
  },
  {
    "longitude": -3.33781,
    "latitude": 47.78515,
    "name": "Bed & Breakfast",
    "city": "56 Lorient Caudan",
    "description": "+33 8 92 70 75 32"
  },
  {
    "longitude": -3.34192,
    "latitude": 47.7799,
    "name": "Bed & Breakfast",
    "city": "56 Lorient Lanester",
    "description": "+33 8 92 78 80 57"
  },
  {
    "longitude": 2.3704,
    "latitude": 49.87126,
    "name": "Bed & Breakfast",
    "city": "80 Amiens",
    "description": "+33 8 92 78 80 03"
  },
  {
    "longitude": 2.54894,
    "latitude": 48.83567,
    "name": "Bed & Breakfast",
    "city": "93 Noisy Le Grand",
    "description": "+33 8 92 70 75 54"
  },
  {
    "longitude": 4.88556,
    "latitude": 44.95963,
    "name": "Bed & Breakfast",
    "city": "26 Valence Nord",
    "description": "+33 8 92 78 81 07"
  },
  {
    "longitude": 2.43981,
    "latitude": 48.59413,
    "name": "Bed & Breakfast",
    "city": "91 Evry Lisses (1)",
    "description": "+33 8 92 70 75 51"
  },
  {
    "longitude": 1.4935,
    "latitude": 43.5837,
    "name": "Bed & Breakfast",
    "city": "31 Toulouse Cit� De L'espace",
    "description": "+33 8 92 78 81 01"
  },
  {
    "longitude": 4.79524,
    "latitude": 44.66754,
    "name": "Bed & Breakfast",
    "city": "26 Montelimar",
    "description": "+33 8 92 70 75 39"
  },
  {
    "longitude": 0.1963,
    "latitude": 49.5032,
    "name": "Bed & Breakfast",
    "city": "76 Le Havre (1)",
    "description": "+33 8 92 78 80 50"
  },
  {
    "longitude": 4.87226,
    "latitude": 43.97728,
    "name": "Bed & Breakfast",
    "city": "84 Avignon (2)",
    "description": "+33 8 92 70 75 11"
  },
  {
    "longitude": -1.99045,
    "latitude": 48.63708,
    "name": "Bed & Breakfast",
    "city": "35 Saint-Malo",
    "description": "+33 8 92 78 80 95"
  },
  {
    "longitude": 3.55227,
    "latitude": 47.84808,
    "name": "Bed & Breakfast",
    "city": "89 Auxerre (2)",
    "description": "+33 8 92 70 75 89"
  },
  {
    "longitude": 6.12992,
    "latitude": 45.9436,
    "name": "Bed & Breakfast",
    "city": "74 Annecy",
    "description": "+33 8 92 70 75 08"
  },
  {
    "longitude": 5.06939,
    "latitude": 47.35111,
    "name": "Bed & Breakfast",
    "city": "21 Dijon Nord",
    "description": "+33 8 92 70 75 24"
  },
  {
    "longitude": 2.46122,
    "latitude": 49.01881,
    "name": "Bed & Breakfast",
    "city": "95 Goussainville A�roport Roissy Cdg",
    "description": "+33 8 92 70 75 52"
  },
  {
    "longitude": 4.8418,
    "latitude": 46.7602,
    "name": "Bed & Breakfast",
    "city": "71 Chalon Sur Saone Sud",
    "description": "+33 8 92 70 75 19"
  },
  {
    "longitude": 4.86989,
    "latitude": 45.74309,
    "name": "Bed & Breakfast",
    "city": "69 Lyon Monplaisir",
    "description": "+33 8 92 78 80 60"
  },
  {
    "longitude": 4.1353,
    "latitude": 48.29719,
    "name": "Bed & Breakfast",
    "city": "10 Troyes St Parres",
    "description": "+33 8 92 70 75 69"
  },
  {
    "longitude": -1.5998,
    "latitude": 49.608,
    "name": "Bed & Breakfast",
    "city": "50 Cherbourg",
    "description": "+33 8 92 78 80 32"
  },
  {
    "longitude": -1.35365,
    "latitude": 48.65497,
    "name": "Bed & Breakfast",
    "city": "50 Avranches",
    "description": "+33 8 92 78 80 07"
  },
  {
    "longitude": 4.36832,
    "latitude": 45.46851,
    "name": "Bed & Breakfast",
    "city": "42 Saint-Etienne",
    "description": "+33 8 92 78 80 94"
  },
  {
    "longitude": 1.36389,
    "latitude": 48.73504,
    "name": "Bed & Breakfast",
    "city": "28 Dreux",
    "description": "+33 8 92 78 80 40"
  },
  {
    "longitude": 4.8838,
    "latitude": 44.8981,
    "name": "Bed & Breakfast",
    "city": "26 Valence Sud",
    "description": "+33 8 92 70 75 73"
  },
  {
    "longitude": -2.7197,
    "latitude": 48.4911,
    "name": "Bed & Breakfast",
    "city": "22 Saint-Brieuc",
    "description": "+33 8 92 78 80 93"
  },
  {
    "longitude": 0.76675,
    "latitude": 45.18502,
    "name": "Bed & Breakfast",
    "city": "24 Perigueux",
    "description": "+33 8 92 78 80 78"
  },
  {
    "longitude": 2.43842,
    "latitude": 48.59442,
    "name": "Bed & Breakfast",
    "city": "91 Evry-Lisses (2)",
    "description": "+33 8 92 78 80 56"
  },
  {
    "longitude": -2.20967,
    "latitude": 47.29175,
    "name": "Bed & Breakfast",
    "city": "44 Saint-Nazaire / La Baule",
    "description": "+33 8 92 78 80 96"
  },
  {
    "longitude": 3.12099,
    "latitude": 50.61481,
    "name": "Bed & Breakfast",
    "city": "59 Lille L�zennes",
    "description": "+33 8 92 70 75 28"
  },
  {
    "longitude": 1.38555,
    "latitude": 44.03972,
    "name": "Bed & Breakfast",
    "city": "82 Montauban",
    "description": "+33 8 92 78 81 16"
  },
  {
    "longitude": -1.69944,
    "latitude": 48.15592,
    "name": "Bed & Breakfast",
    "city": "35 Rennes Nord St-Gr�goire",
    "description": "+33 8 92 78 80 87"
  },
  {
    "longitude": 2.36761,
    "latitude": 48.77089,
    "name": "Bed & Breakfast",
    "city": "94 Orly Chevilly-Larue",
    "description": "+33 8 92 78 80 33"
  },
  {
    "longitude": 7.72322,
    "latitude": 48.66044,
    "name": "Bed & Breakfast",
    "city": "67 Strasbourg Nord Industrie",
    "description": "+33 8 92 78 80 98"
  },
  {
    "longitude": 6.15066,
    "latitude": 48.74314,
    "name": "Bed & Breakfast",
    "city": "54 Nancy Frouard (2)",
    "description": "+33 8 92 70 75 45"
  },
  {
    "longitude": -1.56234,
    "latitude": 47.22034,
    "name": "Bed & Breakfast",
    "city": "44 Nantes Centre",
    "description": "+33 8 92 78 80 72"
  },
  {
    "longitude": 1.5124,
    "latitude": 48.4287,
    "name": "Bed & Breakfast",
    "city": "28 Chartres (2)",
    "description": "+33 8 92 70 75 21"
  },
  {
    "longitude": -0.51404,
    "latitude": 44.87966,
    "name": "Bed & Breakfast",
    "city": "33 Bordeaux Lormont",
    "description": "+33 8 92 78 80 16"
  },
  {
    "longitude": 6.15048,
    "latitude": 48.74378,
    "name": "Bed & Breakfast",
    "city": "54 Nancy Frouard (1)",
    "description": "+33 8 92 78 80 67"
  },
  {
    "longitude": 0.61529,
    "latitude": 44.18571,
    "name": "Bed & Breakfast",
    "city": "47 Agen",
    "description": "+33 8 92 78 80 01"
  },
  {
    "longitude": 7.33772,
    "latitude": 47.75244,
    "name": "Bed & Breakfast",
    "city": "68 Mulhouse Centre",
    "description": "+33 8 92 70 22 15"
  },
  {
    "longitude": 6.71335,
    "latitude": 43.43881,
    "name": "Bed & Breakfast",
    "city": "83 Frejus",
    "description": "+33 8 92 78 80 41"
  },
  {
    "longitude": 0.16527,
    "latitude": 48.05267,
    "name": "Bed & Breakfast",
    "city": "72 Le Mans Nord (1)",
    "description": "+33 8 92 70 75 27"
  },
  {
    "longitude": 3.55169,
    "latitude": 47.84859,
    "name": "Bed & Breakfast",
    "city": "89 Auxerre (1)",
    "description": "+33 8 92 78 80 05"
  },
  {
    "longitude": -0.33371,
    "latitude": 49.19553,
    "name": "Ibis",
    "city": "14 Caen H�rouville Saint-Clair",
    "description": "+33 231956000"
  },
  {
    "longitude": -3.36364,
    "latitude": 47.75507,
    "name": "Ibis",
    "city": "56 Lorient Centre Gare",
    "description": "+33 297352020"
  },
  {
    "longitude": 5.69137,
    "latitude": 45.75934,
    "name": "Ibis",
    "city": "01 Belley Centre",
    "description": "+33 479810120"
  },
  {
    "longitude": 2.29502,
    "latitude": 48.83588,
    "name": "Ibis",
    "city": "75 Paris Convention",
    "description": "+33 148286314"
  },
  {
    "longitude": 2.33488,
    "latitude": 48.69221,
    "name": "Ibis",
    "city": "91 Savigny sur Orge",
    "description": "+33 169050505"
  },
  {
    "longitude": -0.20765,
    "latitude": 48.90559,
    "name": "Ibis",
    "city": "14 Falaise Coeur de Normandie",
    "description": "+33 231901100"
  },
  {
    "longitude": 0.69933,
    "latitude": 47.33519,
    "name": "Ibis",
    "city": "37 Tours Sud",
    "description": "+33 247282528"
  },
  {
    "longitude": 2.362,
    "latitude": 48.881,
    "name": "Ibis",
    "city": "75 Paris Gare du Nord",
    "description": "+33 144657000"
  },
  {
    "longitude": 2.35906,
    "latitude": 48.83275,
    "name": "Ibis",
    "city": "75 Paris Place d'Italie",
    "description": "+33 144249485"
  },
  {
    "longitude": 0.1913,
    "latitude": 48.0071,
    "name": "Ibis",
    "city": "72 Le Mans Centre",
    "description": "+33 243231823"
  },
  {
    "longitude": 2.28989,
    "latitude": 48.89112,
    "name": "Ibis",
    "city": "92 Levallois-Perret",
    "description": "+33 145574399"
  },
  {
    "longitude": 0.33875,
    "latitude": 46.57847,
    "name": "Ibis",
    "city": "86 Poitiers Centre",
    "description": "+33 549883042"
  },
  {
    "longitude": 1.40601,
    "latitude": 43.57494,
    "name": "Ibis",
    "city": "31 Toulouse Universit�",
    "description": "+33 561408686"
  },
  {
    "longitude": -1.62253,
    "latitude": 48.11437,
    "name": "Ibis",
    "city": "35 Rennes Beaulieu",
    "description": "+33 223456363"
  },
  {
    "longitude": 6.62935,
    "latitude": 45.95152,
    "name": "Ibis",
    "city": "74 Sallanches",
    "description": "+33 450581442"
  },
  {
    "longitude": 2.40567,
    "latitude": 48.83501,
    "name": "Ibis",
    "city": "75 Paris Porte Dor�e",
    "description": "+33 143433038"
  },
  {
    "longitude": 0.24913,
    "latitude": 49.41319,
    "name": "Ibis",
    "city": "14 Honfleur",
    "description": "+33 231140120"
  },
  {
    "longitude": -0.68046,
    "latitude": 44.83511,
    "name": "Ibis",
    "city": "33 Bordeaux A�roport",
    "description": "+33 556341019"
  },
  {
    "longitude": 4.6325,
    "latitude": 43.6664,
    "name": "Ibis",
    "city": "13 Arles",
    "description": "+33 490931674"
  },
  {
    "longitude": 2.36717,
    "latitude": 48.77608,
    "name": "Ibis",
    "city": "94 Chevilly Larue Villejuif",
    "description": "+33 145129220"
  },
  {
    "longitude": 0.048,
    "latitude": 43.21083,
    "name": "Ibis",
    "city": "65 Tarbes Odos",
    "description": "+33 562935118"
  },
  {
    "longitude": -3.08135,
    "latitude": 47.57181,
    "name": "Ibis",
    "city": "56 Carnac",
    "description": "+33 297525354"
  },
  {
    "longitude": 4.90468,
    "latitude": 45.74657,
    "name": "Ibis",
    "city": "69 Lyon Est Bron",
    "description": "+33 472133300"
  },
  {
    "longitude": 4.84971,
    "latitude": 43.92569,
    "name": "Ibis",
    "city": "84 Avignon Sud",
    "description": "+33 490871100"
  },
  {
    "longitude": 2.60483,
    "latitude": 49.20842,
    "name": "Ibis",
    "city": "60 Senlis",
    "description": "+33 344537050"
  },
  {
    "longitude": 2.11268,
    "latitude": 49.43737,
    "name": "Ibis",
    "city": "60 Beauvais A�roport",
    "description": "+33 344034949"
  },
  {
    "longitude": 2.56043,
    "latitude": 49.01055,
    "name": "Ibis",
    "city": "95 CDG Terminal",
    "description": "+33 149191919"
  },
  {
    "longitude": 6.44899,
    "latitude": 48.17679,
    "name": "Ibis",
    "city": "88 Epinal Centre Ville",
    "description": "+33 329642828"
  },
  {
    "longitude": 1.38375,
    "latitude": 44.00537,
    "name": "Ibis",
    "city": "82 Montauban",
    "description": "+33 563202088"
  },
  {
    "longitude": -1.60045,
    "latitude": 48.83499,
    "name": "Ibis",
    "city": "50 Granville",
    "description": "+33 233904808"
  },
  {
    "longitude": 4.87073,
    "latitude": 45.52164,
    "name": "Ibis",
    "city": "38 Lyon Sud Vienne",
    "description": "+33 474784111"
  },
  {
    "longitude": 2.51393,
    "latitude": 48.98883,
    "name": "Ibis",
    "city": "95 CDG Nord 2",
    "description": "+33 148175650"
  },
  {
    "longitude": 2.06942,
    "latitude": 49.03103,
    "name": "Ibis",
    "city": "95 Cergy-Pontoise",
    "description": "+33 134221144"
  },
  {
    "longitude": 1.3321,
    "latitude": 47.58743,
    "name": "Ibis",
    "city": "41 Blois Centre",
    "description": "+33 254740117"
  },
  {
    "longitude": 0.52769,
    "latitude": 46.7979,
    "name": "Ibis",
    "city": "86 Chatellereault",
    "description": "+33 549021818"
  },
  {
    "longitude": 4.38181,
    "latitude": 48.98166,
    "name": "Ibis",
    "city": "51 Chalons en Champagne",
    "description": "+33 326651665"
  },
  {
    "longitude": -1.07386,
    "latitude": 49.10148,
    "name": "Ibis",
    "city": "50 Saint L� La Chevalerie",
    "description": "+33 233577838"
  },
  {
    "longitude": 1.10401,
    "latitude": 49.42557,
    "name": "Ibis",
    "city": "76 Rouen Champs de Mars",
    "description": "+33 235081211"
  },
  {
    "longitude": 7.75891,
    "latitude": 48.60497,
    "name": "Ibis",
    "city": "67 Strasbourg Palais des Congr�s",
    "description": "+33 388812444"
  },
  {
    "longitude": 0.0806,
    "latitude": 49.3605,
    "name": "Ibis",
    "city": "14 Deauville",
    "description": "+33 231145000"
  },
  {
    "longitude": -0.9604,
    "latitude": 45.94274,
    "name": "Ibis",
    "city": "17 Rochefort",
    "description": "+33 546993131"
  },
  {
    "longitude": 0.96534,
    "latitude": 49.53393,
    "name": "Ibis",
    "city": "76 Rouen Nord Barentin",
    "description": "+33 235910123"
  },
  {
    "longitude": 7.3458,
    "latitude": 47.74735,
    "name": "Ibis",
    "city": "68 Mulhouse Gare Centrale",
    "description": "+33 389464141"
  },
  {
    "longitude": 3.79623,
    "latitude": 43.54601,
    "name": "Ibis",
    "city": "34 Montpellier Fabr�gues via A9 Aire Nord",
    "description": "+33 467851676"
  },
  {
    "longitude": 6.62988,
    "latitude": 44.90448,
    "name": "Ibis",
    "city": "05 Briancon Serre Chevalier",
    "description": "+33 492206820"
  },
  {
    "longitude": -0.56499,
    "latitude": 44.8906,
    "name": "Ibis",
    "city": "33 Bordeaux Le Lac",
    "description": "+33 556509650"
  },
  {
    "longitude": -0.64542,
    "latitude": 44.78844,
    "name": "Ibis",
    "city": "33 Bordeaux Pessac",
    "description": "+33 556072784"
  },
  {
    "longitude": 7.02444,
    "latitude": 43.55305,
    "name": "Ibis",
    "city": "06 Cannes Centre",
    "description": "+33 492989696"
  },
  {
    "longitude": 3.16041,
    "latitude": 46.98161,
    "name": "Ibis",
    "city": "58 Nevers",
    "description": "+33 386375600"
  },
  {
    "longitude": -0.74722,
    "latitude": 48.09083,
    "name": "Ibis",
    "city": "53 Laval Le relais d'Armor",
    "description": "+33 243538182"
  },
  {
    "longitude": -0.5555,
    "latitude": 44.8295,
    "name": "Ibis",
    "city": "33 Bordeaux Saint-Jean",
    "description": "+33 556942525"
  },
  {
    "longitude": 1.60501,
    "latitude": 50.71908,
    "name": "Ibis",
    "city": "62 Boulogne sur Mer Centre-Les Ports",
    "description": "+33 321301240"
  },
  {
    "longitude": 6.12976,
    "latitude": 43.11345,
    "name": "Ibis",
    "city": "83 Hy�res Centre",
    "description": "+33 474005050"
  },
  {
    "longitude": 3.38092,
    "latitude": 49.03519,
    "name": "Ibis",
    "city": "02 Chateau-Thierry",
    "description": "+33 323831010"
  },
  {
    "longitude": -0.36756,
    "latitude": 43.29852,
    "name": "Ibis",
    "city": "64 Pau Centre",
    "description": "+33 559837183"
  },
  {
    "longitude": 5.78029,
    "latitude": 45.1869,
    "name": "Ibis",
    "city": "38 Grenoble Universite",
    "description": "+33 476440044"
  },
  {
    "longitude": 6.9829,
    "latitude": 43.5493,
    "name": "Ibis",
    "city": "06 Cannes Plage La Bocca",
    "description": "+33 493471846"
  },
  {
    "longitude": 3.1188,
    "latitude": 45.79235,
    "name": "Ibis",
    "city": "63 Clermont-Ferrand Montferrand",
    "description": "+33 473230004"
  },
  {
    "longitude": 2.88679,
    "latitude": 42.69976,
    "name": "Ibis",
    "city": "66 Perpignan Centre",
    "description": "+33 468356262"
  },
  {
    "longitude": 1.90403,
    "latitude": 47.90893,
    "name": "Ibis",
    "city": "45 Orl�ans Centre Gare",
    "description": "+33 238624040"
  },
  {
    "longitude": -1.05719,
    "latitude": 43.7108,
    "name": "Ibis",
    "city": "40 Dax Miradour",
    "description": "+33 558567777"
  },
  {
    "longitude": 3.9533,
    "latitude": 49.0422,
    "name": "Ibis",
    "city": "51 Epernay Centre ville",
    "description": "+33 326511451"
  },
  {
    "longitude": 5.0388,
    "latitude": 43.81897,
    "name": "Ibis",
    "city": "84 Cavaillon",
    "description": "+33 490061888"
  },
  {
    "longitude": 2.32269,
    "latitude": 48.8337,
    "name": "Ibis",
    "city": "75 Paris Maine Monparnasse",
    "description": "+33 143220009"
  },
  {
    "longitude": 5.40137,
    "latitude": 43.29237,
    "name": "Ibis",
    "city": "13 Marseille Timone",
    "description": "+33 491420915"
  },
  {
    "longitude": 0.69773,
    "latitude": 47.38756,
    "name": "Ibis",
    "city": "37 Tours Centre",
    "description": "+33 247703535"
  },
  {
    "longitude": 2.2921,
    "latitude": 49.8923,
    "name": "Ibis",
    "city": "80 Amiens Centre Cath�drale",
    "description": "+33 322925733"
  },
  {
    "longitude": -0.3656,
    "latitude": 49.182,
    "name": "Ibis",
    "city": "14 Caen Centre Paul Doumer",
    "description": "+33 231500000"
  },
  {
    "longitude": 2.26229,
    "latitude": 48.8956,
    "name": "Ibis",
    "city": "92 La D�fense Courbevoie",
    "description": "+33 149970550"
  },
  {
    "longitude": 0.1956,
    "latitude": 49.5037,
    "name": "Ibis",
    "city": "76 Le Havre Sud-Harfleur",
    "description": "+33 235455400"
  },
  {
    "longitude": 5.11462,
    "latitude": 43.62801,
    "name": "Ibis",
    "city": "13 Salon de Provence Sud",
    "description": "+33 490422357"
  },
  {
    "longitude": 6.11171,
    "latitude": 49.53229,
    "name": "Ibis",
    "city": "LU Luxembourg Sud - Livange >+352265201",
    "description": ""
  },
  {
    "longitude": 2.30201,
    "latitude": 48.8306,
    "name": "Ibis",
    "city": "75 Paris Brancion",
    "description": "+33 156566230"
  },
  {
    "longitude": -4.0781,
    "latitude": 48.00072,
    "name": "Ibis",
    "city": "29 Quimper Nord",
    "description": "+33 298905380"
  },
  {
    "longitude": 3.98426,
    "latitude": 47.50191,
    "name": "Ibis",
    "city": "89 Avallon",
    "description": "+33 386330133"
  },
  {
    "longitude": -1.1382,
    "latitude": 44.6179,
    "name": "Ibis",
    "city": "33 Arcachon La Teste",
    "description": "+33 557152000"
  },
  {
    "longitude": 7.36398,
    "latitude": 48.07927,
    "name": "Ibis",
    "city": "68 Colmar Centre",
    "description": "+33 389413014"
  },
  {
    "longitude": 1.05902,
    "latitude": 49.39187,
    "name": "Ibis",
    "city": "76 Rouen Sud Z�nith",
    "description": "+33 235660363"
  },
  {
    "longitude": 3.16027,
    "latitude": 50.72063,
    "name": "Ibis",
    "city": "59 Lille Tourcoing Centre",
    "description": "+33 320248458"
  },
  {
    "longitude": 2.3854,
    "latitude": 48.86211,
    "name": "Ibis",
    "city": "75 Paris M�nilmontant P�re Lachaise",
    "description": "+33 153368292"
  },
  {
    "longitude": 4.761,
    "latitude": 45.81996,
    "name": "Ibis",
    "city": "69 Lyon Nord dardilly",
    "description": "+33 478660220"
  },
  {
    "longitude": 1.21551,
    "latitude": 44.88127,
    "name": "Ibis",
    "city": "24 Sarlat",
    "description": "+33 553303333"
  },
  {
    "longitude": 2.41369,
    "latitude": 48.89363,
    "name": "Ibis",
    "city": "93 Pantin Eglise",
    "description": "+33 148106700"
  },
  {
    "longitude": 2.79013,
    "latitude": 49.39691,
    "name": "Ibis",
    "city": "60 Compi�gne",
    "description": "+33 344231627"
  },
  {
    "longitude": 3.42082,
    "latitude": 46.12781,
    "name": "Ibis",
    "city": "03 Vichy",
    "description": "+33 470305353"
  },
  {
    "longitude": 4.85111,
    "latitude": 45.76189,
    "name": "Ibis",
    "city": "69 Lyon La Pardieu Centre Halles",
    "description": "+33 478625620"
  },
  {
    "longitude": -1.14841,
    "latitude": 46.15589,
    "name": "Ibis",
    "city": "17 La Rochelle Vieux Port",
    "description": "+33 546416022"
  },
  {
    "longitude": -3.46103,
    "latitude": 48.72824,
    "name": "Ibis",
    "city": "22 Lannion Centre",
    "description": "+33 296370367"
  },
  {
    "longitude": 3.28917,
    "latitude": 49.84717,
    "name": "Ibis",
    "city": "02 Saint Quentin Basilique",
    "description": "+33 323674040"
  },
  {
    "longitude": 4.87399,
    "latitude": 45.52867,
    "name": "Ibis",
    "city": "38 Vienne",
    "description": ""
  },
  {
    "longitude": 6.52943,
    "latitude": 45.47964,
    "name": "Ibis",
    "city": "73 Moutiers Tarentaise",
    "description": "+33 479242711"
  },
  {
    "longitude": 3.5787,
    "latitude": 47.7964,
    "name": "Ibis",
    "city": "89 Auxerre Centre",
    "description": "+33 386483055"
  },
  {
    "longitude": -3.10665,
    "latitude": 47.47567,
    "name": "Ibis",
    "city": "56 Quiberon Plage",
    "description": "+33 297304772"
  },
  {
    "longitude": 6.17536,
    "latitude": 48.68935,
    "name": "Ibis",
    "city": "54 Nancy Centre Gare",
    "description": "+33 383329016"
  },
  {
    "longitude": 0.72382,
    "latitude": 45.18312,
    "name": "Ibis",
    "city": "24 Perigueux",
    "description": "+33 553536458"
  },
  {
    "longitude": 4.82339,
    "latitude": 45.7328,
    "name": "Ibis",
    "city": "69 Lyon Gerland Pont Pasteur",
    "description": "+33 478583070"
  },
  {
    "longitude": 7.73652,
    "latitude": 48.58443,
    "name": "Ibis",
    "city": "67 Strasbourg Centre Gare",
    "description": "+33 388239898"
  },
  {
    "longitude": 3.89297,
    "latitude": 43.58847,
    "name": "Ibis",
    "city": "34 Montpellier Sud",
    "description": "+33 467588230"
  },
  {
    "longitude": 4.02564,
    "latitude": 49.25903,
    "name": "Ibis",
    "city": "51 Reims Centre Gare",
    "description": "+33 326400324"
  },
  {
    "longitude": 3.17746,
    "latitude": 50.69055,
    "name": "Ibis",
    "city": "59 Lille Roubaix",
    "description": "+33 320450000"
  },
  {
    "longitude": 6.00877,
    "latitude": 43.14195,
    "name": "Ibis",
    "city": "83 Toulon La Valette",
    "description": "+33 494141414"
  },
  {
    "longitude": 3.07112,
    "latitude": 50.6345,
    "name": "Ibis",
    "city": "59 Lille Gares",
    "description": "+33 328363040"
  },
  {
    "longitude": 7.22461,
    "latitude": 43.67159,
    "name": "Ibis",
    "city": "06 Nice A�roport",
    "description": "+33 489883035"
  },
  {
    "longitude": -2.66435,
    "latitude": 48.48025,
    "name": "Ibis",
    "city": "22 Saint Brieux Yffiniac",
    "description": "+33 296726410"
  },
  {
    "longitude": -1.15243,
    "latitude": 46.15804,
    "name": "Ibis",
    "city": "17 La Rochelle Centre",
    "description": "+33 546506868"
  },
  {
    "longitude": 5.05123,
    "latitude": 47.32894,
    "name": "Ibis",
    "city": "21 Dijon Centre Clemenceau",
    "description": "+33 380746730"
  },
  {
    "longitude": 1.82602,
    "latitude": 48.62156,
    "name": "Ibis",
    "city": "78 Rambouillet",
    "description": "+33 130417850"
  },
  {
    "longitude": 2.36825,
    "latitude": 48.87942,
    "name": "Ibis",
    "city": "75 Paris Canal St Martin Jemmapes",
    "description": "+33 142012121"
  },
  {
    "longitude": 3.52608,
    "latitude": 50.35037,
    "name": "Ibis",
    "city": "59 Valenciennes",
    "description": "+33 327228080"
  },
  {
    "longitude": 1.45218,
    "latitude": 43.61157,
    "name": "Ibis",
    "city": "31 Toulouse Gare Matabiau",
    "description": "+33 561625090"
  },
  {
    "longitude": 2.35666,
    "latitude": 48.82935,
    "name": "Ibis",
    "city": "75 Paris Avenue Italie",
    "description": "+33 153796000"
  },
  {
    "longitude": 2.4689,
    "latitude": 48.98164,
    "name": "Ibis",
    "city": "95 Gonesse",
    "description": "+33 139872222"
  },
  {
    "longitude": 4.3207,
    "latitude": 46.9535,
    "name": "Ibis",
    "city": "71 Autun",
    "description": "+33 385520000"
  },
  {
    "longitude": 4.82334,
    "latitude": 45.27632,
    "name": "Ibis",
    "city": "26 Lyon Sud St Rambert",
    "description": "+33 475030400"
  },
  {
    "longitude": 6.8175,
    "latitude": 47.49924,
    "name": "Ibis",
    "city": "25 Montb�liard",
    "description": "+33 381902158"
  },
  {
    "longitude": 2.18545,
    "latitude": 48.87966,
    "name": "Ibis",
    "city": "92 Rueil-Malmaison",
    "description": "+33 147329696"
  },
  {
    "longitude": -1.21,
    "latitude": 48.119,
    "name": "Ibis",
    "city": "35 Vitr� Centre",
    "description": "+33 299755170"
  },
  {
    "longitude": 0.30228,
    "latitude": 46.55019,
    "name": "Ibis",
    "city": "86 Poitiers Sud",
    "description": "+33 549531313"
  },
  {
    "longitude": 0.62239,
    "latitude": 44.204,
    "name": "Ibis",
    "city": "47 Agen Centre",
    "description": "+33 553474343"
  },
  {
    "longitude": 1.4896,
    "latitude": 48.4529,
    "name": "Ibis",
    "city": "28 Chartres Centre",
    "description": "+33 237360636"
  },
  {
    "longitude": 2.77016,
    "latitude": 48.85473,
    "name": "Ibis",
    "city": "77 Marne la Vall�e (Mont�vrain)",
    "description": "+33 160362006"
  },
  {
    "longitude": 3.18811,
    "latitude": 50.17337,
    "name": "Ibis",
    "city": "59 Cambrai",
    "description": "+33 327829988"
  },
  {
    "longitude": 0.119,
    "latitude": 49.491,
    "name": "Ibis",
    "city": "76 Le Havre Centre",
    "description": "+33 235222929"
  },
  {
    "longitude": 4.09771,
    "latitude": 46.01023,
    "name": "Ibis",
    "city": "42 Roanne",
    "description": "+33 477683622"
  },
  {
    "longitude": 2.32053,
    "latitude": 48.84333,
    "name": "Ibis",
    "city": "75 Paris Tour Montparnasse",
    "description": "+33 145489552"
  },
  {
    "longitude": 0.3616,
    "latitude": 46.66868,
    "name": "Ibis",
    "city": "86 Poitiers Futuroscope",
    "description": "+33 549499000"
  },
  {
    "longitude": 2.14764,
    "latitude": 43.92375,
    "name": "Ibis",
    "city": "81 Albi",
    "description": "+33 563430303"
  },
  {
    "longitude": -1.41379,
    "latitude": 50.9054,
    "name": "Ibis",
    "city": "GB Southampton",
    "description": ""
  },
  {
    "longitude": 4.0819,
    "latitude": 44.1236,
    "name": "Ibis",
    "city": "30 Ales Centr'ales",
    "description": "+33 466522707"
  },
  {
    "longitude": 2.3414,
    "latitude": 48.88255,
    "name": "Ibis",
    "city": "75 Paris Sacr� Coeur",
    "description": "+33 146069917"
  },
  {
    "longitude": 2.3877,
    "latitude": 47.0815,
    "name": "Ibis",
    "city": "18 Bourges",
    "description": "+33 248658999"
  },
  {
    "longitude": 2.15438,
    "latitude": 48.94475,
    "name": "Ibis",
    "city": "78 Maisons-Laffitte",
    "description": "+33 139122020"
  },
  {
    "longitude": 2.30159,
    "latitude": 48.84733,
    "name": "Ibis",
    "city": "75 Paris Tour Eiffel",
    "description": "+33 140612222"
  },
  {
    "longitude": 1.81,
    "latitude": 43.6993,
    "name": "Ibis",
    "city": "81 Toulouse Lavaur",
    "description": "+33 563830808"
  },
  {
    "longitude": 4.87931,
    "latitude": 44.90906,
    "name": "Ibis",
    "city": "26 Valence Sud",
    "description": "+33 475444254"
  },
  {
    "longitude": 4.95804,
    "latitude": 48.65003,
    "name": "Ibis",
    "city": "52 Saint Dizier",
    "description": "+33 325073220"
  },
  {
    "longitude": -0.42421,
    "latitude": 49.16431,
    "name": "Ibis",
    "city": "14 Caen Porte de Bretagne",
    "description": "+33 231299900"
  },
  {
    "longitude": 5.00279,
    "latitude": 47.2723,
    "name": "Ibis",
    "city": "21 Dijon Sud",
    "description": "+33 380528645"
  },
  {
    "longitude": 4.85989,
    "latitude": 45.78934,
    "name": "Ibis",
    "city": "69 Caluire (Cit� Congr�s)",
    "description": "+33 472277500"
  },
  {
    "longitude": 7.38701,
    "latitude": 47.78162,
    "name": "Ibis",
    "city": "68 Mulhouse Ile Napol�on",
    "description": "+33 389618383"
  },
  {
    "longitude": 2.32041,
    "latitude": 48.82701,
    "name": "Ibis",
    "city": "75 Paris Alesia-Montparnasse",
    "description": "+33 153904010"
  },
  {
    "longitude": 3.8797,
    "latitude": 45.0474,
    "name": "Ibis",
    "city": "43 Le Puy en Velay St Laurent",
    "description": "+33 471022222"
  },
  {
    "longitude": -3.33023,
    "latitude": 47.78731,
    "name": "Ibis",
    "city": "56 Lorient Caudan",
    "description": "+33 297764022"
  },
  {
    "longitude": 2.21282,
    "latitude": 48.88792,
    "name": "Ibis",
    "city": "92 Nanterre",
    "description": "+33 147241991"
  },
  {
    "longitude": 2.73232,
    "latitude": 47.99511,
    "name": "Ibis",
    "city": "45 Montargis",
    "description": "+33 238980068"
  },
  {
    "longitude": 2.21993,
    "latitude": 48.79346,
    "name": "Ibis",
    "city": "92 Meudon-la-For�t V�lizy",
    "description": "+33 145370909"
  },
  {
    "longitude": 1.44967,
    "latitude": 48.43703,
    "name": "Ibis",
    "city": "28 Chartes Ouest Luc",
    "description": "+33 237357600"
  },
  {
    "longitude": 3.27813,
    "latitude": 43.33477,
    "name": "Ibis",
    "city": "34 Beziers Est",
    "description": "+33 467625514"
  },
  {
    "longitude": 3.0753,
    "latitude": 50.3686,
    "name": "Ibis",
    "city": "59 Douai Centre",
    "description": "+33 327872727"
  },
  {
    "longitude": 6.01509,
    "latitude": 47.23538,
    "name": "Ibis",
    "city": "25 Besan�on La City Pr�fecture",
    "description": "+33 381851170"
  },
  {
    "longitude": 3.8881,
    "latitude": 45.0427,
    "name": "Ibis",
    "city": "43 Le Puy en Velay Centre",
    "description": "+33 471093236"
  },
  {
    "longitude": 2.27491,
    "latitude": 48.82336,
    "name": "Ibis",
    "city": "92 Porte de Versailles",
    "description": "+33 146383000"
  },
  {
    "longitude": 2.12889,
    "latitude": 48.80159,
    "name": "Ibis",
    "city": "78 Versailles Ch�teau",
    "description": "+33 139530330"
  },
  {
    "longitude": -1.15126,
    "latitude": 46.16132,
    "name": "Ibis",
    "city": "17 La Rochelle Vieille Ville",
    "description": "+33 546505255"
  },
  {
    "longitude": 4.74751,
    "latitude": 45.98277,
    "name": "Ibis",
    "city": "69 Lyon Villefranche s/s Saone",
    "description": "+33 474682223"
  },
  {
    "longitude": 2.32971,
    "latitude": 48.8849,
    "name": "Ibis",
    "city": "75 Paris Montmartre St Lazare",
    "description": "+33 155301800"
  },
  {
    "longitude": 4.79458,
    "latitude": 52.32454,
    "name": "Ibis",
    "city": "NL Amsterdam Airport",
    "description": ""
  },
  {
    "longitude": 2.51988,
    "latitude": 49.00676,
    "name": "Ibis",
    "city": "95 Roissy Charles De Gaule",
    "description": "+33 134293402"
  },
  {
    "longitude": -1.731,
    "latitude": 52.45283,
    "name": "Ibis",
    "city": "GB Birmingham Airport",
    "description": ""
  },
  {
    "longitude": 2.25175,
    "latitude": 50.74819,
    "name": "Ibis",
    "city": "62 Saint Omer Centre",
    "description": "+33 321931111"
  },
  {
    "longitude": 0.2195,
    "latitude": 47.98107,
    "name": "Ibis",
    "city": "72 Le Mans Est-Pontlieue",
    "description": "+33 243861414"
  },
  {
    "longitude": 1.25552,
    "latitude": 45.83279,
    "name": "Ibis",
    "city": "87 Limoges Centre",
    "description": "+33 555790330"
  },
  {
    "longitude": -4.47539,
    "latitude": 48.4272,
    "name": "Ibis",
    "city": "29 Brest Kergaradec",
    "description": "+33 298475050"
  },
  {
    "longitude": 2.238,
    "latitude": 48.831,
    "name": "Ibis",
    "city": "92 Boulogne Billancourt",
    "description": "+33 146210808"
  },
  {
    "longitude": 2.41679,
    "latitude": 48.86642,
    "name": "Ibis",
    "city": "93 Porte de Bagnolet",
    "description": "+33 143602627"
  },
  {
    "longitude": -1.54694,
    "latitude": 47.215,
    "name": "Ibis",
    "city": "44 Nantes Centre Gare Sud",
    "description": "+33 240202120"
  },
  {
    "longitude": 3.88232,
    "latitude": 43.60914,
    "name": "Ibis",
    "city": "34 Montpellier Com�die",
    "description": "+33 499132999"
  },
  {
    "longitude": 2.57643,
    "latitude": 44.35441,
    "name": "Ibis",
    "city": "12 Rodez Centre Cath�rale",
    "description": "+33 565761030"
  },
  {
    "longitude": 6.17772,
    "latitude": 49.15005,
    "name": "Ibis",
    "city": "57 Metz Nord",
    "description": "+33 387342000"
  },
  {
    "longitude": 1.08242,
    "latitude": 49.4319,
    "name": "Ibis",
    "city": "76 Rouen Centre Rive Gauche",
    "description": "+33 235632727"
  },
  {
    "longitude": 2.58481,
    "latitude": 48.84272,
    "name": "Ibis",
    "city": "77 Marne la Vall�e Champs sur Marne",
    "description": "+33 164680083"
  },
  {
    "longitude": 4.83833,
    "latitude": 46.79647,
    "name": "Ibis",
    "city": "71 Chalons sur Saone Nord",
    "description": "+33 385466462"
  },
  {
    "longitude": 2.317,
    "latitude": 48.892,
    "name": "Ibis",
    "city": "75 Paris Berthier",
    "description": "+33 140252020"
  },
  {
    "longitude": -0.356,
    "latitude": 49.18439,
    "name": "Ibis",
    "city": "14 Caen Centre",
    "description": "+33 231958888"
  },
  {
    "longitude": 6.3357,
    "latitude": 46.9099,
    "name": "Ibis",
    "city": "25 Pontarlier",
    "description": "+33 381467178"
  },
  {
    "longitude": -1.7805,
    "latitude": 46.4994,
    "name": "Ibis",
    "city": "85 Les Sables d'Olonne",
    "description": "+33 251219130"
  },
  {
    "longitude": 1.07759,
    "latitude": 49.905,
    "name": "Ibis",
    "city": "76 Dieppe Val Druel",
    "description": "+33 235826530"
  },
  {
    "longitude": 1.6171,
    "latitude": 50.7267,
    "name": "Ibis",
    "city": "62 Boulogne sur Mer Centre Vieille Ville",
    "description": "+33 321312101"
  },
  {
    "longitude": 2.7796,
    "latitude": 50.2905,
    "name": "Ibis",
    "city": "62 Arras Centre les Places",
    "description": "+33 321236161"
  },
  {
    "longitude": 4.84964,
    "latitude": 44.11225,
    "name": "Ibis",
    "city": "84 Orange Sud",
    "description": "+33 490514040"
  },
  {
    "longitude": 3.8858,
    "latitude": 43.60942,
    "name": "Ibis",
    "city": "34 Montpellier Centre",
    "description": "+33 467640664"
  },
  {
    "longitude": 7.75659,
    "latitude": 48.82788,
    "name": "Ibis",
    "city": "67 Haguenau Strasbourg Nord",
    "description": "+33 388730666"
  },
  {
    "longitude": 3.27745,
    "latitude": 48.55915,
    "name": "Ibis",
    "city": "77 Provins",
    "description": "+33 160676667"
  },
  {
    "longitude": 7.69148,
    "latitude": 48.534,
    "name": "Ibis",
    "city": "67 Strasbourg La Vigie",
    "description": "+33 388555300"
  },
  {
    "longitude": 2.90389,
    "latitude": 42.78333,
    "name": "Ibis",
    "city": "66 Perpignan Nord",
    "description": "+33 468648900"
  },
  {
    "longitude": 6.87657,
    "latitude": 48.0039,
    "name": "Ibis",
    "city": "88 La Bresse Gerardmer",
    "description": "+33 329286868"
  },
  {
    "longitude": 4.75642,
    "latitude": 44.75668,
    "name": "Ibis",
    "city": "07 Loriol - Le Pouzin",
    "description": "+33 475600000"
  },
  {
    "longitude": 4.83005,
    "latitude": 45.72917,
    "name": "Ibis",
    "city": "69 Lyon Gerland Rue M�rieux",
    "description": "+33 472726363"
  },
  {
    "longitude": 2.66668,
    "latitude": 48.55101,
    "name": "Ibis",
    "city": "77 Melun",
    "description": "+33 160684245"
  },
  {
    "longitude": 3.11743,
    "latitude": 45.7791,
    "name": "Ibis",
    "city": "63 Clermont-Ferrand Sud carrefour Herbet",
    "description": "+33 473904646"
  },
  {
    "longitude": 1.07873,
    "latitude": 49.44288,
    "name": "Ibis",
    "city": "76 Rouen Centre Rive Droite",
    "description": "+33 235704818"
  },
  {
    "longitude": 2.30198,
    "latitude": 48.7295,
    "name": "Ibis",
    "city": "91 Massy",
    "description": "+33 160112030"
  },
  {
    "longitude": 5.0231,
    "latitude": 47.3223,
    "name": "Ibis",
    "city": "21 Dijon Arquebuse",
    "description": "+33 380430112"
  },
  {
    "longitude": 2.36324,
    "latitude": 48.881,
    "name": "Ibis",
    "city": "75 Paris Gare de l'Est",
    "description": "+33 140380505"
  },
  {
    "longitude": 1.29104,
    "latitude": 45.88597,
    "name": "Ibis",
    "city": "87 Limoges Nord",
    "description": "+33 555375014"
  },
  {
    "longitude": 4.79828,
    "latitude": 43.94369,
    "name": "Ibis",
    "city": "84 Avignon Centre Pont de l'Europe",
    "description": "+33 490820000"
  },
  {
    "longitude": 5.21314,
    "latitude": 45.61094,
    "name": "Ibis",
    "city": "38 Lyon L'Isle d'Abeau",
    "description": "+33 474272791"
  },
  {
    "longitude": 2.04204,
    "latitude": 48.93279,
    "name": "Ibis",
    "city": "78 Poissy",
    "description": "+33 139655610"
  },
  {
    "longitude": 4.8581,
    "latitude": 45.75722,
    "name": "Ibis",
    "city": "69 Lyon Gare La Pardieu",
    "description": "+33 478954211"
  },
  {
    "longitude": 2.49248,
    "latitude": 48.83321,
    "name": "Ibis",
    "city": "94 Nogent sur Marne",
    "description": "+33 143243737"
  },
  {
    "longitude": 7.34961,
    "latitude": 47.75479,
    "name": "Ibis",
    "city": "68 Mulhouse Centre Filature",
    "description": "+33 389560956"
  },
  {
    "longitude": 0.00899,
    "latitude": 49.33,
    "name": "Ibis",
    "city": "14 Deauville Villers Plage",
    "description": "+33 473411402"
  },
  {
    "longitude": 0.0888,
    "latitude": 48.4324,
    "name": "Ibis",
    "city": "61 Alencon",
    "description": "+33 233806767"
  },
  {
    "longitude": 4.34394,
    "latitude": 43.81433,
    "name": "Ibis",
    "city": "30 Nimes Ouest",
    "description": "+33 466388393"
  },
  {
    "longitude": 2.37977,
    "latitude": 51.04058,
    "name": "Ibis",
    "city": "59 Dunkerque Centre",
    "description": "+33 328662907"
  },
  {
    "longitude": 2.35329,
    "latitude": 48.92572,
    "name": "Ibis",
    "city": "93 Saint-Denis Stade Ouest",
    "description": "+33 148094810"
  },
  {
    "longitude": 2.60167,
    "latitude": 46.34333,
    "name": "Ibis",
    "city": "03 Montlu�on",
    "description": "+33 470284842"
  },
  {
    "longitude": 7.74311,
    "latitude": 48.5859,
    "name": "Ibis",
    "city": "67 Strasbourg Centre Halles",
    "description": "+33 390224646"
  },
  {
    "longitude": 6.09968,
    "latitude": 45.90073,
    "name": "Ibis",
    "city": "74 Annecy Sud",
    "description": "+33 450674234"
  },
  {
    "longitude": 4.99566,
    "latitude": 45.82352,
    "name": "Ibis",
    "city": "01 Lyon Est Beynost A42",
    "description": "+33 472880680"
  },
  {
    "longitude": -1.55917,
    "latitude": 47.22,
    "name": "Ibis",
    "city": "44 Nantes Centre Tour Bretagne",
    "description": "+33 240353900"
  },
  {
    "longitude": 1.87966,
    "latitude": 50.94689,
    "name": "Ibis",
    "city": "62 Calais Car Ferry",
    "description": "+33 321966969"
  },
  {
    "longitude": 4.82772,
    "latitude": 45.74874,
    "name": "Ibis",
    "city": "69 Lyon Centre Perrache",
    "description": "+33 478375655"
  },
  {
    "longitude": -2.048,
    "latitude": 48.454,
    "name": "Ibis",
    "city": "22 Dinan",
    "description": "+33 296394615"
  },
  {
    "longitude": -1.43058,
    "latitude": 46.71087,
    "name": "Ibis",
    "city": "85 La Roche-sur-Yon",
    "description": "+33 251378282"
  },
  {
    "longitude": -1.67389,
    "latitude": 48.10222,
    "name": "Ibis",
    "city": "35 Rennes Centre Gare Sud",
    "description": "+33 223360136"
  },
  {
    "longitude": 2.8526,
    "latitude": 42.681,
    "name": "Ibis",
    "city": "66 Perpignan Sud St Charles",
    "description": "+33 468853939"
  },
  {
    "longitude": 5.79,
    "latitude": 49.501,
    "name": "Ibis",
    "city": "54 Longwy Mexy",
    "description": "+33 382231419"
  },
  {
    "longitude": 2.51622,
    "latitude": 48.96727,
    "name": "Ibis",
    "city": "95 Villepinte Parc Expo",
    "description": "+33 148638950"
  },
  {
    "longitude": 1.44615,
    "latitude": 43.6102,
    "name": "Ibis",
    "city": "31 Toulouse Centre",
    "description": "+33 561636163"
  },
  {
    "longitude": 6.1224,
    "latitude": 45.8982,
    "name": "Ibis",
    "city": "74 Annecy Centre Vieille Ville",
    "description": "+33 450454321"
  },
  {
    "longitude": 3.66979,
    "latitude": 47.7916,
    "name": "Ibis",
    "city": "89 Auxerre Sud",
    "description": "+33 386403131"
  },
  {
    "longitude": 0.70211,
    "latitude": 47.42809,
    "name": "Ibis",
    "city": "37 Tours Nord",
    "description": "+33 247543220"
  },
  {
    "longitude": -1.51722,
    "latitude": 47.25472,
    "name": "Ibis",
    "city": "44 Nantes Beaujoire",
    "description": "+33 240932222"
  },
  {
    "longitude": 1.8598,
    "latitude": 50.0979,
    "name": "Ibis",
    "city": "80 Abbeville",
    "description": "+33 322248080"
  },
  {
    "longitude": 1.41992,
    "latitude": 43.61097,
    "name": "Ibis",
    "city": "31 Toulouse Ponts Jumeaux",
    "description": "+33 562272828"
  },
  {
    "longitude": 5.03878,
    "latitude": 47.3233,
    "name": "Ibis",
    "city": "21 Dijon Central",
    "description": "+33 380304400"
  },
  {
    "longitude": -3.58907,
    "latitude": 47.86893,
    "name": "Ibis",
    "city": "29 Quimperl� Mellac",
    "description": "+33 298391800"
  },
  {
    "longitude": 7.5622,
    "latitude": 47.5852,
    "name": "Ibis",
    "city": "68 Saint Louis Centre",
    "description": "+33 389690658"
  },
  {
    "longitude": -2.34395,
    "latitude": 47.26564,
    "name": "Ibis",
    "city": "44 La Baule Pornichet Plage",
    "description": "+33 251731313"
  },
  {
    "longitude": 2.315,
    "latitude": 48.84,
    "name": "Ibis",
    "city": "75 Paris Gare Montparnasse",
    "description": "+33 143208912"
  },
  {
    "longitude": -2.76871,
    "latitude": 47.67054,
    "name": "Ibis",
    "city": "56 Vannes",
    "description": "+33 297636111"
  },
  {
    "longitude": -0.9,
    "latitude": 47.04167,
    "name": "Ibis",
    "city": "49 Cholet",
    "description": "+33 241624545"
  },
  {
    "longitude": -1.63806,
    "latitude": 47.22472,
    "name": "Ibis",
    "city": "44 Nantes St Herblain",
    "description": "+33 240920450"
  },
  {
    "longitude": 2.32893,
    "latitude": 48.81731,
    "name": "Ibis",
    "city": "92 Porte d'Orleans",
    "description": "+33 142316715"
  },
  {
    "longitude": 2.38472,
    "latitude": 48.89126,
    "name": "Ibis",
    "city": "75 Paris La Villette Cit�e des Sciences",
    "description": "+33 140385800"
  },
  {
    "longitude": 2.69811,
    "latitude": 48.40429,
    "name": "Ibis",
    "city": "77 Fontainebleau",
    "description": "+33 164234525"
  },
  {
    "longitude": 6.4833,
    "latitude": 46.37458,
    "name": "Ibis",
    "city": "74 Thonon les Bains",
    "description": "+33 450712424"
  },
  {
    "longitude": -0.42395,
    "latitude": 43.31843,
    "name": "Ibis",
    "city": "64 Pau Lescar",
    "description": "+33 559629090"
  },
  {
    "longitude": 2.5,
    "latitude": 49.289,
    "name": "Ibis",
    "city": "60 Creil Villiers St Paul",
    "description": "+33 344745656"
  },
  {
    "longitude": 3.6181,
    "latitude": 49.5493,
    "name": "Ibis",
    "city": "02 Laon",
    "description": "+33 323201811"
  },
  {
    "longitude": 6.17871,
    "latitude": 49.11105,
    "name": "Ibis",
    "city": "57 Metz Centre Gare",
    "description": "+33 387219090"
  },
  {
    "longitude": 7.267,
    "latitude": 43.705,
    "name": "Ibis",
    "city": "06 Nice Centre Notre Dame",
    "description": "+33 493621443"
  },
  {
    "longitude": 2.29081,
    "latitude": 48.92581,
    "name": "Ibis",
    "city": "92 Gennevilliers",
    "description": "+33 140851919"
  },
  {
    "longitude": -0.55918,
    "latitude": 44.8432,
    "name": "Ibis",
    "city": "33 Bordeaux Bastide",
    "description": "+33 557300090"
  },
  {
    "longitude": 6.97436,
    "latitude": 43.62119,
    "name": "Ibis",
    "city": "06 Mouans-Sartoux",
    "description": "+33 492283202"
  },
  {
    "longitude": 2.62103,
    "latitude": 48.81561,
    "name": "Ibis",
    "city": "77 Marne la Vall�e Emerainville",
    "description": "+33 160178839"
  },
  {
    "longitude": -2.94344,
    "latitude": 48.0705,
    "name": "Ibis",
    "city": "56 Pontivy",
    "description": "+33 297070740"
  },
  {
    "longitude": 0.07206,
    "latitude": 51.534,
    "name": "Ibis",
    "city": "GB London Barking",
    "description": ""
  },
  {
    "longitude": 2.37622,
    "latitude": 48.84624,
    "name": "Ibis",
    "city": "75 Paris Gare de Lyon-Diderot",
    "description": "+33 143461272"
  },
  {
    "longitude": 7.73501,
    "latitude": 48.57887,
    "name": "Ibis",
    "city": "67 Strasbourg Centre Ponts Couverts",
    "description": "+33 390224850"
  },
  {
    "longitude": 7.40318,
    "latitude": 48.07749,
    "name": "Ibis",
    "city": "68 Colmar Horbourg Wihr",
    "description": "+33 389234646"
  },
  {
    "longitude": 2.37405,
    "latitude": 48.85768,
    "name": "Ibis",
    "city": "75 Paris Bastille Op�ra",
    "description": "+33 149292035"
  },
  {
    "longitude": 2.22737,
    "latitude": 48.86846,
    "name": "Ibis",
    "city": "92 Pont de Suresnes Longchamp",
    "description": "+33 145064488"
  },
  {
    "longitude": 6.12565,
    "latitude": 47.32718,
    "name": "Ibis",
    "city": "25 Besan�on Marchaux",
    "description": "+33 381579246"
  },
  {
    "longitude": 1.57862,
    "latitude": 50.51536,
    "name": "Ibis",
    "city": "62 Le Touquet",
    "description": "+33 321098530"
  },
  {
    "longitude": 6.94033,
    "latitude": 43.54571,
    "name": "Ibis",
    "city": "06 Cannes Mandelieu",
    "description": "+33 493904346"
  },
  {
    "longitude": 5.38256,
    "latitude": 43.30265,
    "name": "Ibis",
    "city": "13 Marseille Gare St Charles",
    "description": "+33 491956209"
  },
  {
    "longitude": 3.13332,
    "latitude": 50.6207,
    "name": "Ibis",
    "city": "59 Lille Villeneuve d'Asq",
    "description": "+33 320918150"
  },
  {
    "longitude": 4.06409,
    "latitude": 50.00825,
    "name": "Ibis",
    "city": "59 Fourmies",
    "description": "+33 327602154"
  },
  {
    "longitude": 2.17721,
    "latitude": 48.77756,
    "name": "Ibis",
    "city": "78 Jouy-en-Josas",
    "description": "+33 139465544"
  },
  {
    "longitude": 3.79687,
    "latitude": 43.54614,
    "name": "Ibis",
    "city": "34 Montpellier Fabr�gues via D185",
    "description": "+33 467851676"
  },
  {
    "longitude": 2.06206,
    "latitude": 45.41852,
    "name": "Ibis",
    "city": "19 Egletons",
    "description": "+33 555932516"
  },
  {
    "longitude": 5.91377,
    "latitude": 44.22587,
    "name": "Ibis",
    "city": "04 Sisteron",
    "description": "+33 492626200"
  },
  {
    "longitude": 2.5424,
    "latitude": 48.83806,
    "name": "Ibis",
    "city": "93 Marne la Vall�e Noisy",
    "description": "+33 143052020"
  },
  {
    "longitude": 1.8681,
    "latitude": 47.94981,
    "name": "Ibis",
    "city": "45 Orl�ans Nord Saran",
    "description": "+33 238650140"
  },
  {
    "longitude": -1.089,
    "latitude": 46.0599,
    "name": "Ibis",
    "city": "17 Chatelaillon Plage",
    "description": "+33 546563535"
  },
  {
    "longitude": 0.17916,
    "latitude": 45.69314,
    "name": "Ibis",
    "city": "16 Angoul�me Nord",
    "description": "+33 545691616"
  },
  {
    "longitude": 3.34258,
    "latitude": 46.54259,
    "name": "Ibis",
    "city": "03 Moulins Sud",
    "description": "+33 470467112"
  },
  {
    "longitude": 2.442,
    "latitude": 48.77441,
    "name": "Ibis",
    "city": "94 Cr�teil",
    "description": "+33 149801222"
  },
  {
    "longitude": -3.98592,
    "latitude": 48.72678,
    "name": "Ibis",
    "city": "29 Roscoff",
    "description": "+33 298612261"
  },
  {
    "longitude": 7.745,
    "latitude": 48.554,
    "name": "Ibis",
    "city": "67 Strasbourg La Meinau",
    "description": "+33 388678167"
  },
  {
    "longitude": 0.37984,
    "latitude": 46.57686,
    "name": "Ibis",
    "city": "86 Poitiers Beaulieu",
    "description": "+33 549611102"
  },
  {
    "longitude": -1.66527,
    "latitude": 48.10486,
    "name": "Ibis",
    "city": "35 Rennes Solf�rine Centre Gare",
    "description": "+33 299673112"
  },
  {
    "longitude": 5.85066,
    "latitude": 43.1208,
    "name": "Ibis",
    "city": "83 Toulon La Seyne",
    "description": "+33 494632121"
  },
  {
    "longitude": 1.0186,
    "latitude": 47.4145,
    "name": "Ibis",
    "city": "37 Amboise",
    "description": "+33 247231023"
  },
  {
    "longitude": 4.5514,
    "latitude": 52.16083,
    "name": "Ibis",
    "city": "NL Leiderdorp",
    "description": ""
  },
  {
    "longitude": 2.38637,
    "latitude": 43.20974,
    "name": "Ibis",
    "city": "11 Carcassonne Berriac",
    "description": "+33 468476600"
  },
  {
    "longitude": 5.39019,
    "latitude": 43.24736,
    "name": "Ibis",
    "city": "13 Marseille Bonneveine",
    "description": "+33 491723434"
  },
  {
    "longitude": 2.29399,
    "latitude": 48.82211,
    "name": "Ibis",
    "city": "92 Porte de Vanves",
    "description": "+33 140958000"
  },
  {
    "longitude": 2.31007,
    "latitude": 48.89745,
    "name": "Ibis",
    "city": "92 Porte de Clichy Centre",
    "description": "+33 141401890"
  },
  {
    "longitude": -1.59689,
    "latitude": 49.60113,
    "name": "Ibis",
    "city": "50 Cherbourg",
    "description": "+33 233443155"
  },
  {
    "longitude": 3.0794,
    "latitude": 44.1005,
    "name": "Ibis",
    "city": "12 Millau",
    "description": "+33 565592909"
  },
  {
    "longitude": 1.3335,
    "latitude": 47.6101,
    "name": "Ibis",
    "city": "41 Blois Vall�e-Maillard",
    "description": "+33 254746060"
  },
  {
    "longitude": -0.66975,
    "latitude": 45.74657,
    "name": "Ibis",
    "city": "17 Saintes",
    "description": "+33 546743634"
  },
  {
    "longitude": -1.46567,
    "latitude": 43.49264,
    "name": "Ibis",
    "city": "64 Bayonne Centre",
    "description": "+33 559503838"
  },
  {
    "longitude": -0.13552,
    "latitude": 51.52803,
    "name": "Ibis",
    "city": "GB London Euston St Pancras >+442073887777",
    "description": ""
  },
  {
    "longitude": 2.37088,
    "latitude": 48.73173,
    "name": "Ibis",
    "city": "94 Orly A�roport",
    "description": "+33 156705060"
  },
  {
    "longitude": 4.80707,
    "latitude": 43.94231,
    "name": "Ibis",
    "city": "84 Avignon Centre Gare",
    "description": "+33 490853838"
  },
  {
    "longitude": 5.04708,
    "latitude": 43.40581,
    "name": "Ibis",
    "city": "13 Martigues",
    "description": "+33 442420511"
  },
  {
    "longitude": 3.97682,
    "latitude": 49.25159,
    "name": "Ibis",
    "city": "51 Reims Tinqueux",
    "description": "+33 326046070"
  },
  {
    "longitude": 2.34815,
    "latitude": 48.75638,
    "name": "Ibis",
    "city": "94 Rungis",
    "description": "+33 146872245"
  },
  {
    "longitude": 5.72567,
    "latitude": 45.19055,
    "name": "Ibis",
    "city": "38 Grenoble Centre",
    "description": "+33 476474849"
  },
  {
    "longitude": 6.222,
    "latitude": 46.192,
    "name": "Ibis",
    "city": "74 Annemasse",
    "description": "+33 450387066"
  },
  {
    "longitude": 7.05838,
    "latitude": 43.62015,
    "name": "Ibis",
    "city": "06 Antibes Sophia-Antipolis",
    "description": "+33 493653060"
  },
  {
    "longitude": 6.08441,
    "latitude": 44.55963,
    "name": "Ibis",
    "city": "05 Gap",
    "description": "+33 492535757"
  },
  {
    "longitude": -0.5565,
    "latitude": 47.4727,
    "name": "Ibis",
    "city": "49 Angers Centre",
    "description": "+33 241861515"
  },
  {
    "longitude": 4.94841,
    "latitude": 47.1316,
    "name": "Ibis",
    "city": "21 Nuits St-Georges",
    "description": "+33 380611717"
  },
  {
    "longitude": 2.35241,
    "latitude": 48.82578,
    "name": "Ibis",
    "city": "75 Paris Italie Tolbiac",
    "description": "+33 145801660"
  },
  {
    "longitude": 2.36482,
    "latitude": 48.92141,
    "name": "Ibis",
    "city": "93 Saint-Denis Stade Sud",
    "description": "+33 155933600"
  },
  {
    "longitude": -0.0452,
    "latitude": 43.09902,
    "name": "Ibis",
    "city": "65 Lourdes",
    "description": "+33 562943838"
  },
  {
    "longitude": 6.14733,
    "latitude": 43.05745,
    "name": "Ibis",
    "city": "83 Hy�res Plage Thalassa (La Capte)",
    "description": "+33 494580094"
  },
  {
    "longitude": 2.98723,
    "latitude": 43.16776,
    "name": "Ibis",
    "city": "11 Narbonne",
    "description": "+33 468411441"
  },
  {
    "longitude": 2.11864,
    "latitude": 48.82652,
    "name": "Ibis",
    "city": "78 Versailles Parly 2",
    "description": "+33 139633793"
  },
  {
    "longitude": 2.42098,
    "latitude": 48.6197,
    "name": "Ibis",
    "city": "91 Evry",
    "description": "+33 160777475"
  },
  {
    "longitude": 5.38919,
    "latitude": 43.27942,
    "name": "Ibis",
    "city": "13 Marseille Centre Prado",
    "description": "+33 491257373"
  },
  {
    "longitude": 2.34211,
    "latitude": 48.87425,
    "name": "Ibis",
    "city": "75 Paris Grds Boulevards Op�ra",
    "description": "+33 145230127"
  },
  {
    "longitude": 6.19134,
    "latitude": 48.69347,
    "name": "Ibis",
    "city": "54 Nancy Ste Catherine",
    "description": "+33 383371010"
  },
  {
    "longitude": 6.17934,
    "latitude": 49.12428,
    "name": "Ibis",
    "city": "57 Metz Centre Cath�drale",
    "description": "+33 387310173"
  },
  {
    "longitude": 5.23949,
    "latitude": 46.2002,
    "name": "Ibis",
    "city": "01 Bourg en Bresse",
    "description": "+33 474225266"
  },
  {
    "longitude": 7.69332,
    "latitude": 48.56078,
    "name": "Ibis",
    "city": "67 Strasbourg A�roport",
    "description": "+33 388771818"
  },
  {
    "longitude": 2.41535,
    "latitude": 48.8545,
    "name": "Ibis",
    "city": "75 Paris Porte de Montreuil",
    "description": "+33 143632222"
  },
  {
    "longitude": -0.58277,
    "latitude": 44.8363,
    "name": "Ibis",
    "city": "33 Bordeaux Centre Meriadeck",
    "description": "+33 556962496"
  },
  {
    "longitude": -1.99023,
    "latitude": 48.62441,
    "name": "Ibis",
    "city": "35 Saint Malo La Madeleine",
    "description": "+33 299821010"
  },
  {
    "longitude": 2.48461,
    "latitude": 48.95309,
    "name": "Ibis",
    "city": "93 Aulnay sous Bois",
    "description": "+33 148791910"
  },
  {
    "longitude": -3.0134,
    "latitude": 47.6624,
    "name": "Ibis",
    "city": "56 Auray",
    "description": "+33 297562222"
  },
  {
    "longitude": 5.22539,
    "latitude": 43.4453,
    "name": "Ibis",
    "city": "13 Marseille A�roport",
    "description": "+33 442796161"
  },
  {
    "longitude": 4.84295,
    "latitude": 45.7487,
    "name": "Ibis",
    "city": "69 Lyon Centre Universit�",
    "description": "+33 478727842"
  },
  {
    "longitude": 4.79146,
    "latitude": 44.6762,
    "name": "Ibis",
    "city": "26 Mont�limar Nord",
    "description": "+33 475630960"
  },
  {
    "longitude": 7.01639,
    "latitude": 43.57038,
    "name": "Ibis",
    "city": "06 Cannes Le Cannet",
    "description": "+33 493457976"
  },
  {
    "longitude": 5.45387,
    "latitude": 47.06821,
    "name": "Ibis",
    "city": "39 Dole Sud Choissey",
    "description": "+33 384821800"
  },
  {
    "longitude": 5.71731,
    "latitude": 45.19284,
    "name": "Ibis",
    "city": "38 Grenoble Gare",
    "description": "+33 476866868"
  },
  {
    "longitude": 6.86124,
    "latitude": 47.61627,
    "name": "Ibis",
    "city": "90 Belfort Danjoutin",
    "description": "+33 384578888"
  },
  {
    "longitude": 6.0261,
    "latitude": 47.2405,
    "name": "Ibis",
    "city": "25 Besancon Centre Ville",
    "description": "+33 381810202"
  },
  {
    "longitude": 2.35659,
    "latitude": 43.2118,
    "name": "Ibis",
    "city": "11 Carcassonne Centre",
    "description": "+33 468723737"
  },
  {
    "longitude": 4.08068,
    "latitude": 48.29294,
    "name": "Ibis",
    "city": "10 Troyes Centre",
    "description": "+33 325759999"
  },
  {
    "longitude": -1.34775,
    "latitude": 48.64947,
    "name": "Ibis",
    "city": "50 Avranches",
    "description": "+33 233896489"
  },
  {
    "longitude": 2.28588,
    "latitude": 48.96403,
    "name": "Ibis",
    "city": "95 Saint Gratien",
    "description": "+33 130108800"
  },
  {
    "longitude": 6.0668,
    "latitude": 43.4205,
    "name": "Ibis",
    "city": "83 Brignoles",
    "description": "+33 494691929"
  },
  {
    "longitude": 4.79032,
    "latitude": 46.25456,
    "name": "Ibis",
    "city": "71 Macon Sud",
    "description": "+33 385365160"
  },
  {
    "longitude": 2.3529,
    "latitude": 48.87815,
    "name": "Ibis",
    "city": "75 Paris La Fayette",
    "description": "+33 145232727"
  },
  {
    "longitude": -1.59495,
    "latitude": 47.27777,
    "name": "Ibis",
    "city": "44 Nantes Treilli�res",
    "description": "+33 240728788"
  },
  {
    "longitude": 4.92697,
    "latitude": 45.7267,
    "name": "Ibis",
    "city": "69 Lyon Bron Eurexpo",
    "description": "+33 472370146"
  },
  {
    "longitude": 1.5291,
    "latitude": 45.1647,
    "name": "Ibis",
    "city": "19 Brive la Gaillarde",
    "description": "+33 555174242"
  },
  {
    "longitude": 3.06306,
    "latitude": 50.63823,
    "name": "Ibis",
    "city": "59 Lille Op�ra",
    "description": "+33 320062195"
  },
  {
    "longitude": 1.89783,
    "latitude": 47.9063,
    "name": "Ibis",
    "city": "45 Orl�ans Centre Foch",
    "description": "+33 238542311"
  },
  {
    "longitude": -2.20898,
    "latitude": 47.29987,
    "name": "Ibis",
    "city": "44 Saint Nazaire Trignac",
    "description": "+33 240903939"
  },
  {
    "longitude": -1.5249,
    "latitude": 43.4777,
    "name": "Ibis",
    "city": "64 Biarritz Anglet A�roport",
    "description": "+33 559585000"
  },
  {
    "longitude": -4.49289,
    "latitude": 48.385,
    "name": "Ibis",
    "city": "29 Brest Centre",
    "description": "+33 298462021"
  },
  {
    "longitude": 4.37846,
    "latitude": 45.46556,
    "name": "Ibis",
    "city": "42 Saint Etienne Nord Terrasse",
    "description": "+33 477933187"
  },
  {
    "longitude": 7.26048,
    "latitude": 43.7036,
    "name": "Ibis",
    "city": "06 Nice Centre Gare",
    "description": "+33 493888555"
  },
  {
    "longitude": 2.25158,
    "latitude": 48.8888,
    "name": "Ibis",
    "city": "92 La D�fense Centre",
    "description": "+33 141974000"
  },
  {
    "longitude": 3.2667,
    "latitude": 45.5479,
    "name": "Ibis",
    "city": "63 Issoire",
    "description": "+33 473896076"
  },
  {
    "longitude": 4.83735,
    "latitude": 46.7946,
    "name": "Ibis",
    "city": "71 Chalon sur Saone Europe",
    "description": "+33 385410410"
  },
  {
    "longitude": 1.69402,
    "latitude": 46.8117,
    "name": "Ibis",
    "city": "36 Chateauroux",
    "description": "+33 254346161"
  },
  {
    "longitude": -0.3294,
    "latitude": 45.6916,
    "name": "Ibis",
    "city": "16 Cognac",
    "description": "+33 545821953"
  },
  {
    "longitude": 6.1392,
    "latitude": 47.63024,
    "name": "Ibis",
    "city": "70 Vesoul",
    "description": "+33 384760000"
  },
  {
    "longitude": 5.36755,
    "latitude": 43.30873,
    "name": "Ibis",
    "city": "13 Marseille Euromediterran�e",
    "description": "+33 491992520"
  },
  {
    "longitude": 4.39889,
    "latitude": 45.44254,
    "name": "Ibis",
    "city": "42 Saint Etienne Gare Ch�teaucreux",
    "description": "+33 477379090"
  },
  {
    "longitude": -0.48375,
    "latitude": 46.30875,
    "name": "Ibis",
    "city": "79 Niort Marais Poitevin",
    "description": "+33 549173000"
  },
  {
    "longitude": 2.67257,
    "latitude": 50.00953,
    "name": "Ibis",
    "city": "80 Albert",
    "description": "+33 322755252"
  },
  {
    "longitude": 6.1211,
    "latitude": 46.1366,
    "name": "Ibis",
    "city": "74 Archamps Porte de Gen�ve",
    "description": "+33 450953818"
  },
  {
    "longitude": 5.60218,
    "latitude": 43.20602,
    "name": "Ibis",
    "city": "13 La Ciotat",
    "description": "+33 442713400"
  },
  {
    "longitude": 4.4038,
    "latitude": 44.615,
    "name": "Ibis",
    "city": "07 Aubenas",
    "description": "+33 475354445"
  },
  {
    "longitude": 5.37277,
    "latitude": 43.2994,
    "name": "Ibis",
    "city": "13 Marseille Centre Bourse",
    "description": "+33 491911763"
  },
  {
    "longitude": 7.73752,
    "latitude": 48.5826,
    "name": "Ibis",
    "city": "67 Strasbourg Centre Petite France",
    "description": "+33 388751010"
  },
  {
    "longitude": 2.37103,
    "latitude": 48.84775,
    "name": "Ibis",
    "city": "75 Paris Gare de Lyon Ledru-Rollin",
    "description": "+33 153023030"
  },
  {
    "longitude": 1.80534,
    "latitude": 50.92499,
    "name": "Ibis",
    "city": "62 Calais Coquelles Tunnel s/s la Manche",
    "description": "+33 321463700"
  },
  {
    "longitude": 4.8436,
    "latitude": 47.0113,
    "name": "Ibis",
    "city": "21 Beaune La Ferme aux Vins",
    "description": "+33 380224675"
  },
  {
    "longitude": 4.78721,
    "latitude": 45.58711,
    "name": "Ibis",
    "city": "38 Lyon Sud Chasse Sur Rhone",
    "description": "+33 472243212"
  },
  {
    "longitude": 3.68564,
    "latitude": 43.44714,
    "name": "Ibis",
    "city": "34 Sete Ballaruc les Bains",
    "description": "+33 467802800"
  },
  {
    "longitude": 5.81556,
    "latitude": 43.80861,
    "name": "Ibis",
    "city": "04 Manosque",
    "description": "+33 492711800"
  },
  {
    "longitude": 1.38489,
    "latitude": 43.62717,
    "name": "Ibis",
    "city": "31 Toulouse Blagnac A�roport",
    "description": "+33 534550455"
  },
  {
    "longitude": 2.37742,
    "latitude": 48.97672,
    "name": "Ibis",
    "city": "95 Nord Sarcelles",
    "description": "+33 139905475"
  },
  {
    "longitude": 2.34533,
    "latitude": 48.89669,
    "name": "Ibis",
    "city": "75 Paris Ornano Montmartre",
    "description": "+33 146060660"
  },
  {
    "longitude": 4.83488,
    "latitude": 47.01977,
    "name": "Ibis",
    "city": "21 Beaune Centre",
    "description": "+33 380227567"
  },
  {
    "longitude": 5.4643,
    "latitude": 43.5115,
    "name": "Ibis",
    "city": "13 Aix en Provence",
    "description": "+33 442279820"
  },
  {
    "longitude": 2.40937,
    "latitude": 48.93242,
    "name": "Ibis",
    "city": "93 Le Bourget",
    "description": "+33 148383333"
  },
  {
    "longitude": 2.71939,
    "latitude": 48.26522,
    "name": "Ibis",
    "city": "77 Nemours",
    "description": "+33 164288800"
  },
  {
    "longitude": 6.17876,
    "latitude": 49.34724,
    "name": "Ibis",
    "city": "57 Thionville Yutz",
    "description": "+33 382866666"
  },
  {
    "longitude": 6.14566,
    "latitude": 48.65051,
    "name": "Ibis",
    "city": "54 Nancy Brabois",
    "description": "+33 383445577"
  },
  {
    "longitude": -0.75233,
    "latitude": 49.34617,
    "name": "Ibis",
    "city": "14 Bayeux - Port en Bessin",
    "description": "+33 231220404"
  },
  {
    "longitude": 4.79549,
    "latitude": 44.13655,
    "name": "Ibis",
    "city": "84 Orange Centre",
    "description": "+33 490343535"
  },
  {
    "longitude": 2.37865,
    "latitude": 48.85111,
    "name": "Ibis",
    "city": "75 Paris Bastille Fg St Antoine",
    "description": "+33 148055555"
  },
  {
    "longitude": 5.49516,
    "latitude": 43.29055,
    "name": "Ibis",
    "city": "13 Marseille La Valentine Porte d Aubagne",
    "description": "+33 491271227"
  },
  {
    "longitude": 6.95127,
    "latitude": 48.28533,
    "name": "Ibis",
    "city": "88 Saint Di� des Vosges",
    "description": "+33 329422422"
  },
  {
    "longitude": 2.30813,
    "latitude": 48.95426,
    "name": "Ibis",
    "city": "93 Epinay sur Seine",
    "description": "+33 148298341"
  },
  {
    "longitude": 5.8962,
    "latitude": 45.5957,
    "name": "Ibis",
    "city": "73 Chambery",
    "description": "+33 479692836"
  },
  {
    "longitude": -2.01235,
    "latitude": 48.65314,
    "name": "Ibis",
    "city": "35 Saint Malo Plage",
    "description": "+33 299405777"
  },
  {
    "longitude": 2.35032,
    "latitude": 48.81754,
    "name": "Ibis",
    "city": "94 Gentilly Porte d'Italie",
    "description": "+33 149692210"
  },
  {
    "longitude": 0.5978,
    "latitude": 43.6641,
    "name": "Ibis",
    "city": "32 Auch",
    "description": "+33 562635544"
  },
  {
    "longitude": 2.387,
    "latitude": 48.832,
    "name": "Ibis",
    "city": "75 Paris Bercy Village",
    "description": "+33 149280630"
  },
  {
    "longitude": 5.29576,
    "latitude": 46.20109,
    "name": "Ibis",
    "city": "01 Bourg en Bresse Jasseron A40",
    "description": "+33 474223080"
  }
]