[
  {
    "longitude": 2.68722,
    "latitude": 45.53306,
    "name": "Lac",
    "city": "Plan d'eau de La Tour d'Auvergne",
    "description": ""
  },
  {
    "longitude": 0.77198,
    "latitude": 47.15362,
    "name": "Lac",
    "city": "Etang de Beaulieu (Le Louroux)",
    "description": ""
  },
  {
    "longitude": -2.2093,
    "latitude": 47.37535,
    "name": "Lac",
    "city": "Marais de Briere",
    "description": ""
  },
  {
    "longitude": 0.7068,
    "latitude": 45.80387,
    "name": "Lac",
    "city": "Lac-Barrage de Lavaud",
    "description": ""
  },
  {
    "longitude": 0.3741,
    "latitude": 42.75212,
    "name": "Lac",
    "city": "Lac des Miarres",
    "description": ""
  },
  {
    "longitude": 8.99067,
    "latitude": 42.39633,
    "name": "Lac",
    "city": "Lac de Ghiarghe Rosse (2175 m)",
    "description": ""
  },
  {
    "longitude": 0.49249,
    "latitude": 42.74052,
    "name": "Lac",
    "city": "Lac d'Oo",
    "description": ""
  },
  {
    "longitude": 1.86277,
    "latitude": 45.79251,
    "name": "Lac",
    "city": "Lac-Barrage de Vassiviere (Beaumont du Lac)",
    "description": ""
  },
  {
    "longitude": 9.00883,
    "latitude": 42.22141,
    "name": "Lac",
    "city": "Lac de Goria (1852 m) (Pozzane)",
    "description": ""
  },
  {
    "longitude": 8.68262,
    "latitude": 42.47425,
    "name": "Lac",
    "city": "Etang de Crovani (Calenzana Camporeto)",
    "description": ""
  },
  {
    "longitude": 1.8572,
    "latitude": 46.16566,
    "name": "Lac",
    "city": "Etang de Courtilles (Gueret)",
    "description": ""
  },
  {
    "longitude": -0.08555,
    "latitude": 43.10833,
    "name": "Lac",
    "city": "Lac de Lourdes (422 m)",
    "description": ""
  },
  {
    "longitude": 8.94253,
    "latitude": 42.38187,
    "name": "Lac",
    "city": "Lac d'Argentu (2300 m)",
    "description": ""
  },
  {
    "longitude": 0.20224,
    "latitude": 42.83114,
    "name": "Lac",
    "city": "Lac de l'Oule (1819 m)",
    "description": ""
  },
  {
    "longitude": 6.94315,
    "latitude": 45.17563,
    "name": "Lac",
    "city": "Lac de La Vecchia (2674 m)",
    "description": ""
  },
  {
    "longitude": -0.12595,
    "latitude": 42.79902,
    "name": "Lac",
    "city": "Laquets d'Estibe Aute",
    "description": ""
  },
  {
    "longitude": 7.02507,
    "latitude": 45.46678,
    "name": "Lac",
    "city": "Lac de La Bailletta (2800 m)",
    "description": ""
  },
  {
    "longitude": 3.08524,
    "latitude": 47.61446,
    "name": "Lac",
    "city": "Lac-Reservoir du Bourdon (Saint Fargeau)",
    "description": ""
  },
  {
    "longitude": 1.24574,
    "latitude": 46.70232,
    "name": "Lac",
    "city": "Parc Naturel Regional de La Brenne",
    "description": ""
  },
  {
    "longitude": -0.20309,
    "latitude": 42.84326,
    "name": "Lac",
    "city": "Lac du Pourtet",
    "description": ""
  },
  {
    "longitude": 6.55536,
    "latitude": 44.61317,
    "name": "Lac",
    "city": "Lac de Siguret",
    "description": ""
  },
  {
    "longitude": 6.92659,
    "latitude": 45.48231,
    "name": "Lac",
    "city": "Lac-Barrage du Chevril (Tignes)",
    "description": ""
  },
  {
    "longitude": 6.97509,
    "latitude": 48.01907,
    "name": "Lac",
    "city": "Lac de Blanchemer (La Bresse)",
    "description": ""
  },
  {
    "longitude": 9.5161,
    "latitude": 42.12857,
    "name": "Lac",
    "city": "Etang de Diane (Pietrone)",
    "description": ""
  },
  {
    "longitude": 9.46334,
    "latitude": 42.05494,
    "name": "Lac",
    "city": "Etang d'Urbino (Ghisonaccia)",
    "description": ""
  },
  {
    "longitude": -1.18117,
    "latitude": 44.38716,
    "name": "Lac",
    "city": "Etang de Bicarrosse et Parentis",
    "description": ""
  },
  {
    "longitude": 2.50194,
    "latitude": 45.4275,
    "name": "Lac",
    "city": "Lac-Barrage de Bort les Orgues (Chateau de Val)",
    "description": ""
  },
  {
    "longitude": 0.78029,
    "latitude": 47.1725,
    "name": "Lac",
    "city": "Etang de Daumoin (Le Louroux)",
    "description": ""
  },
  {
    "longitude": 6.8263,
    "latitude": 46.12065,
    "name": "Lac",
    "city": "Lac de La Vogealle (Sixt Fer a Cheval)",
    "description": ""
  },
  {
    "longitude": -0.11748,
    "latitude": 42.81485,
    "name": "Lac",
    "city": "Lac d'Estibe Aute",
    "description": ""
  },
  {
    "longitude": -2.84339,
    "latitude": 47.88699,
    "name": "Lac",
    "city": "Etang du Bois d'Amour (Plumelin)",
    "description": ""
  },
  {
    "longitude": 2.57167,
    "latitude": 42.74031,
    "name": "Lac",
    "city": "Lac-Barrage de Caramany",
    "description": ""
  },
  {
    "longitude": 6.2507,
    "latitude": 44.77138,
    "name": "Lac",
    "city": "Lac Superieur de Crupillouse (2666 m)",
    "description": ""
  },
  {
    "longitude": 9.04759,
    "latitude": 42.21382,
    "name": "Lac",
    "city": "Lac de Scapuccioli (2442 m)",
    "description": ""
  },
  {
    "longitude": 3.20304,
    "latitude": 47.14694,
    "name": "Lac",
    "city": "Reservoir de Saint Aubin les Forges",
    "description": ""
  },
  {
    "longitude": 0.50008,
    "latitude": 42.7228,
    "name": "Lac",
    "city": "Lac Saussat",
    "description": ""
  },
  {
    "longitude": -0.31345,
    "latitude": 42.9218,
    "name": "Lac",
    "city": "Lac du Lavedan",
    "description": ""
  },
  {
    "longitude": 6.13983,
    "latitude": 43.73607,
    "name": "Lac",
    "city": "Lac de Sainte Croix (477 m)",
    "description": ""
  },
  {
    "longitude": -1.29887,
    "latitude": 44.19168,
    "name": "Lac",
    "city": "Etang Petit de la Malloueyre",
    "description": ""
  },
  {
    "longitude": 5.18138,
    "latitude": 47.28059,
    "name": "Lac",
    "city": "Lac de Magny Tille",
    "description": ""
  },
  {
    "longitude": 8.13493,
    "latitude": 48.89052,
    "name": "Lac",
    "city": "Reserve Naturelle du Delta de la Sauer",
    "description": ""
  },
  {
    "longitude": 2.63056,
    "latitude": 45.95778,
    "name": "Lac",
    "city": "Etang de Chancelade (Charensat)",
    "description": ""
  },
  {
    "longitude": 2.9701,
    "latitude": 45.42355,
    "name": "Lac",
    "city": "Lac des Bordes (Compains)",
    "description": ""
  },
  {
    "longitude": 6.1264,
    "latitude": 45.16461,
    "name": "Lac",
    "city": "Lac de la Jasse",
    "description": ""
  },
  {
    "longitude": -1.63747,
    "latitude": 48.33936,
    "name": "Lac",
    "city": "Etang du Boulet (Feins)",
    "description": ""
  },
  {
    "longitude": 7.07927,
    "latitude": 48.10268,
    "name": "Lac",
    "city": "Lac des Truites ou du Forlet",
    "description": ""
  },
  {
    "longitude": 2.04829,
    "latitude": 44.82754,
    "name": "Lac",
    "city": "Lac de Tolerme",
    "description": ""
  },
  {
    "longitude": 9.0575,
    "latitude": 42.18027,
    "name": "Lac",
    "city": "Lac de Gialicatapiano (1523 m)",
    "description": ""
  },
  {
    "longitude": 5.37234,
    "latitude": 47.86851,
    "name": "Lac",
    "city": "Lac de La Liez (Peigney)",
    "description": ""
  },
  {
    "longitude": -0.31654,
    "latitude": 42.92541,
    "name": "Lac",
    "city": "Lac d'Uzious",
    "description": ""
  },
  {
    "longitude": 5.93474,
    "latitude": 45.05324,
    "name": "Lac",
    "city": "Lac de l'Agneau",
    "description": ""
  },
  {
    "longitude": 5.80763,
    "latitude": 46.64393,
    "name": "Lac",
    "city": "Lac de Chambly",
    "description": ""
  },
  {
    "longitude": 2.69699,
    "latitude": 45.40235,
    "name": "Lac",
    "city": "Lac du Tauron (Tremouille)",
    "description": ""
  },
  {
    "longitude": 2.65476,
    "latitude": 45.30646,
    "name": "Lac",
    "city": "Etang de Majonenc",
    "description": ""
  },
  {
    "longitude": 7.15646,
    "latitude": 47.53277,
    "name": "Lac",
    "city": "Lac de Neuweiher (grand) (Seppois le Bas)",
    "description": ""
  },
  {
    "longitude": -0.10152,
    "latitude": 42.77493,
    "name": "Lac",
    "city": "Lac des Gentianes",
    "description": ""
  },
  {
    "longitude": 5.7443,
    "latitude": 46.5665,
    "name": "Lac",
    "city": "Lac de Clairvaux",
    "description": ""
  },
  {
    "longitude": 3.151,
    "latitude": 50.26261,
    "name": "Lac",
    "city": "Plan d'eau d'Aubigny (Cambrai)",
    "description": ""
  },
  {
    "longitude": 2.28619,
    "latitude": 48.61648,
    "name": "Lac",
    "city": "Etang du Petit Paris",
    "description": ""
  },
  {
    "longitude": 5.77332,
    "latitude": 44.98686,
    "name": "Lac",
    "city": "Lac du Petichet",
    "description": ""
  },
  {
    "longitude": -0.10214,
    "latitude": 42.73719,
    "name": "Lac",
    "city": "Lac du Cardal",
    "description": ""
  },
  {
    "longitude": 6.32954,
    "latitude": 46.25767,
    "name": "Lac",
    "city": "Etang de Machilly",
    "description": ""
  },
  {
    "longitude": -0.22254,
    "latitude": 42.813,
    "name": "Lac",
    "city": "Lac de La Fache",
    "description": ""
  },
  {
    "longitude": 0.15056,
    "latitude": 42.83917,
    "name": "Lac",
    "city": "Lac d'Aumar",
    "description": ""
  },
  {
    "longitude": 3.29883,
    "latitude": 43.55805,
    "name": "Lac",
    "city": "Lac-Barrage des Olivettes",
    "description": ""
  },
  {
    "longitude": 2.44916,
    "latitude": 48.81972,
    "name": "Lac",
    "city": "Lac de Gravelle",
    "description": ""
  },
  {
    "longitude": 3.08247,
    "latitude": 44.61582,
    "name": "Lac",
    "city": "Lac de Saint Andeol",
    "description": ""
  },
  {
    "longitude": 5.00501,
    "latitude": 47.32736,
    "name": "Lac",
    "city": "Lac Kir (Dijon)",
    "description": ""
  },
  {
    "longitude": 6.50384,
    "latitude": 44.7014,
    "name": "Lac",
    "city": "Lac Etoile",
    "description": ""
  },
  {
    "longitude": 0.91182,
    "latitude": 48.45456,
    "name": "Lac",
    "city": "Etang de Pontpierre",
    "description": ""
  },
  {
    "longitude": -0.09269,
    "latitude": 42.78863,
    "name": "Lac",
    "city": "Lac des Houlettes",
    "description": ""
  },
  {
    "longitude": 2.78843,
    "latitude": 42.68261,
    "name": "Lac",
    "city": "Etang de Soler",
    "description": ""
  },
  {
    "longitude": 2.76111,
    "latitude": 45.41861,
    "name": "Lac",
    "city": "Lac de La Landie",
    "description": ""
  },
  {
    "longitude": -3.01796,
    "latitude": 48.1947,
    "name": "Lac",
    "city": "Lac-Barrage de Guerledan",
    "description": ""
  },
  {
    "longitude": -0.30298,
    "latitude": 42.88489,
    "name": "Lac",
    "city": "Lac de Migouelou (2278 m)",
    "description": ""
  },
  {
    "longitude": 2.88694,
    "latitude": 45.50056,
    "name": "Lac",
    "city": "Lac Pavin",
    "description": ""
  },
  {
    "longitude": 6.34117,
    "latitude": 44.71949,
    "name": "Lac",
    "city": "Lac des Sirenes",
    "description": ""
  },
  {
    "longitude": 6.30378,
    "latitude": 46.81224,
    "name": "Lac",
    "city": "Lac de Saint Point (Malbuisson)",
    "description": ""
  },
  {
    "longitude": 5.96746,
    "latitude": 45.8469,
    "name": "Lac",
    "city": "Plan d'eau des Perouses (Rumilly)",
    "description": ""
  },
  {
    "longitude": 6.63047,
    "latitude": 45.69161,
    "name": "Lac",
    "city": "Lac-Barrage de Roselend (Beaufort)",
    "description": ""
  },
  {
    "longitude": 2.41557,
    "latitude": 48.56729,
    "name": "Lac",
    "city": "Etang de l'Isle Rouge (Marais d'Echarcon)",
    "description": ""
  },
  {
    "longitude": 4.14326,
    "latitude": 47.2712,
    "name": "Lac",
    "city": "Etang de Champeau en Morvan",
    "description": ""
  },
  {
    "longitude": -2.42269,
    "latitude": 47.46263,
    "name": "Lac",
    "city": "Etang du Pont de Fer",
    "description": ""
  },
  {
    "longitude": 2.62757,
    "latitude": 45.46086,
    "name": "Lac",
    "city": "Etangs du Livourneix (Cros)",
    "description": ""
  },
  {
    "longitude": 4.54527,
    "latitude": 43.57226,
    "name": "Lac",
    "city": "Etang de Vaccares",
    "description": ""
  },
  {
    "longitude": 6.21466,
    "latitude": 43.45324,
    "name": "Lac",
    "city": "Lac-Barrage de Carces (171 m)",
    "description": ""
  },
  {
    "longitude": 6.92542,
    "latitude": 48.44059,
    "name": "Lac",
    "city": "Lac de La Plaine",
    "description": ""
  },
  {
    "longitude": 5.3387,
    "latitude": 45.68061,
    "name": "Lac",
    "city": "Les Trois Lacs de Liandras",
    "description": ""
  },
  {
    "longitude": 9.04769,
    "latitude": 42.2138,
    "name": "Lac",
    "city": "Lac de Scapuccioli (2338 m)",
    "description": ""
  },
  {
    "longitude": 6.85194,
    "latitude": 45.96388,
    "name": "Lac",
    "city": "Lac Noir des Aiguilles Rouges (2494 m)",
    "description": ""
  },
  {
    "longitude": 6.16528,
    "latitude": 44.84336,
    "name": "Lac",
    "city": "Lac du Lautier",
    "description": ""
  },
  {
    "longitude": 1.65283,
    "latitude": 43.69278,
    "name": "Lac",
    "city": "Lac du Laragou",
    "description": ""
  },
  {
    "longitude": 2.9111,
    "latitude": 42.62778,
    "name": "Lac",
    "city": "Lac de Villeneuve de La Raho",
    "description": ""
  },
  {
    "longitude": 6.78504,
    "latitude": 44.62734,
    "name": "Lac",
    "city": "Lac de Rouites (1885 m)",
    "description": ""
  },
  {
    "longitude": -2.46566,
    "latitude": 47.66123,
    "name": "Lac",
    "city": "Etang de Celac (Questembert)",
    "description": ""
  },
  {
    "longitude": 5.7721,
    "latitude": 45.00199,
    "name": "Lac",
    "city": "Lac de Laffrey (911 m)",
    "description": ""
  },
  {
    "longitude": 5.92621,
    "latitude": 44.81043,
    "name": "Lac",
    "city": "Lac-Barrage du Sautet (Ambel)",
    "description": ""
  },
  {
    "longitude": 6.61596,
    "latitude": 46.30042,
    "name": "Lac",
    "city": "Lac de Jotty (645 m)",
    "description": ""
  },
  {
    "longitude": 2.21646,
    "latitude": 44.93555,
    "name": "Lac",
    "city": "Lac-Barrage de Saint Etienne de Cantales",
    "description": ""
  },
  {
    "longitude": 0.57667,
    "latitude": 42.71235,
    "name": "Lac",
    "city": "Lac des Graues",
    "description": ""
  },
  {
    "longitude": 5.89632,
    "latitude": 45.1304,
    "name": "Lac",
    "city": "Lac Levetel",
    "description": ""
  },
  {
    "longitude": 4.11489,
    "latitude": 50.12053,
    "name": "Lac",
    "city": "Lac-Barrage du Val Joli (Petite Suisse du Nord)",
    "description": ""
  },
  {
    "longitude": 6.69046,
    "latitude": 47.06752,
    "name": "Lac",
    "city": "Lac de Chaillexon",
    "description": ""
  },
  {
    "longitude": 2.50531,
    "latitude": 48.64733,
    "name": "Lac",
    "city": "Lac de Tigery",
    "description": ""
  },
  {
    "longitude": 6.78929,
    "latitude": 44.84531,
    "name": "Lac",
    "city": "Lac des Cordes (2446 m)",
    "description": ""
  },
  {
    "longitude": 5.8137,
    "latitude": 46.6638,
    "name": "Lac",
    "city": "Lac de Chalain (Doucier)",
    "description": ""
  },
  {
    "longitude": -0.16811,
    "latitude": 48.53907,
    "name": "Lac",
    "city": "Etang de Noes Le Chatelet (Saint Martin des Landes)",
    "description": ""
  },
  {
    "longitude": 3.56116,
    "latitude": 44.62603,
    "name": "Lac",
    "city": "Lac de Charpal (Rieutort de Randon)",
    "description": ""
  },
  {
    "longitude": 6.74757,
    "latitude": 46.32258,
    "name": "Lac",
    "city": "Lac de Fontaine (Vacheresse) (1330 m)",
    "description": ""
  },
  {
    "longitude": 2.78183,
    "latitude": 45.46663,
    "name": "Lac",
    "city": "Lac de Gaime (Picherande)",
    "description": ""
  },
  {
    "longitude": 2.98361,
    "latitude": 45.6675,
    "name": "Lac",
    "city": "Lac d'Aydat",
    "description": ""
  },
  {
    "longitude": 2.68469,
    "latitude": 45.27842,
    "name": "Lac",
    "city": "Les Bondes a Riom es Montagnes",
    "description": ""
  },
  {
    "longitude": 2.77456,
    "latitude": 44.85867,
    "name": "Lac",
    "city": "Lac-Barrage de Sarrans (Paulhenc)",
    "description": ""
  },
  {
    "longitude": 1.20643,
    "latitude": 44.33407,
    "name": "Lac",
    "city": "Etang de Montcuq",
    "description": ""
  },
  {
    "longitude": 2.57418,
    "latitude": 44.65461,
    "name": "Lac",
    "city": "Lac-Barrage de Cambeyrac",
    "description": ""
  },
  {
    "longitude": 6.84568,
    "latitude": 45.4613,
    "name": "Lac",
    "city": "Lac Verdet (Tignes)",
    "description": ""
  },
  {
    "longitude": 5.90035,
    "latitude": 46.62349,
    "name": "Lac",
    "city": "Lacs Illay et Grand Machu",
    "description": ""
  },
  {
    "longitude": -0.43164,
    "latitude": 48.19904,
    "name": "Lac",
    "city": "Etang du Gue de Selle (Mezangers)",
    "description": ""
  },
  {
    "longitude": 2.38547,
    "latitude": 48.66693,
    "name": "Lac",
    "city": "Lac de Viry Chatillon",
    "description": ""
  },
  {
    "longitude": 0.64349,
    "latitude": 42.96111,
    "name": "Lac",
    "city": "Reservoir de Salechan",
    "description": ""
  },
  {
    "longitude": 0.78908,
    "latitude": 48.61051,
    "name": "Lac",
    "city": "Etang du Belloy",
    "description": ""
  },
  {
    "longitude": -2.49805,
    "latitude": 47.57374,
    "name": "Lac",
    "city": "Etang de Pen Mur (Muzillac)",
    "description": ""
  },
  {
    "longitude": -0.22865,
    "latitude": 42.86251,
    "name": "Lac",
    "city": "Lac du Plaa de Prat (1656 m)",
    "description": ""
  },
  {
    "longitude": 0.5212,
    "latitude": 42.71887,
    "name": "Lac",
    "city": "Lac des Grabioules",
    "description": ""
  },
  {
    "longitude": 1.99882,
    "latitude": 42.55974,
    "name": "Lac",
    "city": "Lac des Bouillouses",
    "description": ""
  },
  {
    "longitude": -0.39892,
    "latitude": 42.88109,
    "name": "Lac",
    "city": "Lac-Barrage de Fabreges",
    "description": ""
  },
  {
    "longitude": 2.97976,
    "latitude": 43.109,
    "name": "Lac",
    "city": "Etang de Gruissan",
    "description": ""
  },
  {
    "longitude": 6.79818,
    "latitude": 45.99112,
    "name": "Lac",
    "city": "Lac d'Anterne",
    "description": ""
  },
  {
    "longitude": 2.68431,
    "latitude": 45.29039,
    "name": "Lac",
    "city": "Lac du Roussillou",
    "description": ""
  },
  {
    "longitude": 2.86524,
    "latitude": 50.69624,
    "name": "Lac",
    "city": "Plan d'eau d'Armentieres",
    "description": ""
  },
  {
    "longitude": -0.33207,
    "latitude": 42.85885,
    "name": "Lac",
    "city": "Lac d'Artouste",
    "description": ""
  },
  {
    "longitude": -0.06072,
    "latitude": 42.71432,
    "name": "Lac",
    "city": "Lac des Especieres ou Luhos",
    "description": ""
  },
  {
    "longitude": 6.78178,
    "latitude": 46.18641,
    "name": "Lac",
    "city": "Lac d'Avoriaz (1735 m)",
    "description": ""
  },
  {
    "longitude": 0.37769,
    "latitude": 42.75596,
    "name": "Lac",
    "city": "Lac des Sarrouges",
    "description": ""
  },
  {
    "longitude": 6.74785,
    "latitude": 46.34371,
    "name": "Lac",
    "city": "Lac de Darbon (1813 m)",
    "description": ""
  },
  {
    "longitude": 9.06306,
    "latitude": 42.21488,
    "name": "Lac",
    "city": "Lac de Pozzolo (2348 m)",
    "description": ""
  },
  {
    "longitude": 7.04242,
    "latitude": 48.11905,
    "name": "Lac",
    "city": "Etang des Dames (Pfainfaing)",
    "description": ""
  },
  {
    "longitude": 4.79981,
    "latitude": 46.23662,
    "name": "Lac",
    "city": "Lac-Reservoir de Creche Saone",
    "description": ""
  },
  {
    "longitude": -0.09806,
    "latitude": 42.78796,
    "name": "Lac",
    "city": "Lac de Labas",
    "description": ""
  },
  {
    "longitude": 3.3716,
    "latitude": 49.74314,
    "name": "Lac",
    "city": "Etangs de Brissy Hamegicourt",
    "description": ""
  },
  {
    "longitude": 2.64425,
    "latitude": 45.34078,
    "name": "Lac",
    "city": "Lac du Mont du Belier",
    "description": ""
  },
  {
    "longitude": 0.62594,
    "latitude": 42.70021,
    "name": "Lac",
    "city": "Lac de La Montagnette",
    "description": ""
  },
  {
    "longitude": 2.69996,
    "latitude": 44.09146,
    "name": "Lac",
    "city": "Lac de Villefranche de Panat",
    "description": ""
  },
  {
    "longitude": 2.27126,
    "latitude": 48.69985,
    "name": "Lac",
    "city": "Lac de Saulx les Chartreux",
    "description": ""
  },
  {
    "longitude": 2.58449,
    "latitude": 45.30319,
    "name": "Lac",
    "city": "Lac de Menet",
    "description": ""
  },
  {
    "longitude": -0.48335,
    "latitude": 42.84856,
    "name": "Lac",
    "city": "Lacs d'Ayous",
    "description": ""
  },
  {
    "longitude": 6.71988,
    "latitude": 46.2087,
    "name": "Lac",
    "city": "Lac de Montriond (1055 m)",
    "description": ""
  },
  {
    "longitude": 1.8628,
    "latitude": 45.7926,
    "name": "Lac",
    "city": "Lac-Barrage de Vassiviere",
    "description": ""
  },
  {
    "longitude": 6.8064,
    "latitude": 47.68161,
    "name": "Lac",
    "city": "Lac de Malsaucy",
    "description": ""
  },
  {
    "longitude": 0.22115,
    "latitude": 47.46222,
    "name": "Lac",
    "city": "Etang et Reservoir de Pincemaille (Rille)",
    "description": ""
  },
  {
    "longitude": 8.91888,
    "latitude": 42.38083,
    "name": "Lac",
    "city": "Lac d'Altore (2050 m)",
    "description": ""
  },
  {
    "longitude": 4.65597,
    "latitude": 48.49381,
    "name": "Lac",
    "city": "Etang de La Horre (Puellemontier)",
    "description": ""
  },
  {
    "longitude": 7.10021,
    "latitude": 48.11267,
    "name": "Lac",
    "city": "Lac Noir (Orbey)",
    "description": ""
  },
  {
    "longitude": 4.36615,
    "latitude": 46.00559,
    "name": "Lac",
    "city": "Lac des Sapins",
    "description": ""
  },
  {
    "longitude": 6.3795,
    "latitude": 44.72256,
    "name": "Lac",
    "city": "Lac des Pisses",
    "description": ""
  },
  {
    "longitude": 7.12999,
    "latitude": 47.7592,
    "name": "Lac",
    "city": "Lac-Barrage de Michelbach (Aspach le Bas)",
    "description": ""
  },
  {
    "longitude": 7.39457,
    "latitude": 44.11482,
    "name": "Lac",
    "city": "Lac Long (2566 m)",
    "description": ""
  },
  {
    "longitude": 0.6395,
    "latitude": 42.6983,
    "name": "Lac",
    "city": "Lac des Boums du Port",
    "description": ""
  },
  {
    "longitude": 0.84856,
    "latitude": 47.12199,
    "name": "Lac",
    "city": "Etang de la Cauchoise et Viel Etang (Monthelan)",
    "description": ""
  },
  {
    "longitude": -1.3711,
    "latitude": 43.69411,
    "name": "Lac",
    "city": "Etang Noir",
    "description": ""
  },
  {
    "longitude": 6.80961,
    "latitude": 46.31435,
    "name": "Lac",
    "city": "Lac d'Arvoin (1670 m)",
    "description": ""
  },
  {
    "longitude": 2.20745,
    "latitude": 48.58451,
    "name": "Lac",
    "city": "Bassin de retenue de l'Orge",
    "description": ""
  },
  {
    "longitude": 2.11272,
    "latitude": 42.57476,
    "name": "Lac",
    "city": "Lac-Barrage de Matemale",
    "description": ""
  },
  {
    "longitude": 1.17435,
    "latitude": 42.72204,
    "name": "Lac",
    "city": "Laquet du Mail",
    "description": ""
  },
  {
    "longitude": -1.36136,
    "latitude": 43.72376,
    "name": "Lac",
    "city": "Etang d'Hardy",
    "description": ""
  },
  {
    "longitude": -0.59213,
    "latitude": 47.4814,
    "name": "Lac",
    "city": "Etang Saint Nicolas (Angers)",
    "description": ""
  },
  {
    "longitude": 5.81225,
    "latitude": 46.05281,
    "name": "Lac",
    "city": "Lac-Barrage de Genissiat",
    "description": ""
  },
  {
    "longitude": 0.71804,
    "latitude": 49.18606,
    "name": "Lac",
    "city": "Etang de Brionne",
    "description": ""
  },
  {
    "longitude": 0.41752,
    "latitude": 42.72189,
    "name": "Lac",
    "city": "Lac de La Soula",
    "description": ""
  },
  {
    "longitude": -0.14067,
    "latitude": 42.83553,
    "name": "Lac",
    "city": "Lac de Gaube",
    "description": ""
  },
  {
    "longitude": 6.51694,
    "latitude": 45.92472,
    "name": "Lac",
    "city": "Lac de Tardevant (2110 m)",
    "description": ""
  },
  {
    "longitude": 6.7538,
    "latitude": 45.94882,
    "name": "Lac",
    "city": "Lac Vert (Passy) (1266 m)",
    "description": ""
  },
  {
    "longitude": 0.69703,
    "latitude": 45.00873,
    "name": "Lac",
    "city": "Lac de Neufont (Saint Amand de Vergt)",
    "description": ""
  },
  {
    "longitude": -3.87685,
    "latitude": 48.35453,
    "name": "Lac",
    "city": "Lac-Barrage de Nestavel (Brennilis)",
    "description": ""
  },
  {
    "longitude": 4.61069,
    "latitude": 49.87154,
    "name": "Lac",
    "city": "Lac des Vieilles Forges (Les Mazures)",
    "description": ""
  },
  {
    "longitude": 1.07296,
    "latitude": 42.79585,
    "name": "Lac",
    "city": "Etang des Estagnous",
    "description": ""
  },
  {
    "longitude": 1.29626,
    "latitude": 46.03231,
    "name": "Lac",
    "city": "Lac de Saint Pardoux",
    "description": ""
  },
  {
    "longitude": 2.38697,
    "latitude": 43.64586,
    "name": "Lac",
    "city": "Lac du Merle (Lacrouzette)",
    "description": ""
  },
  {
    "longitude": 1.99656,
    "latitude": 45.24786,
    "name": "Lac",
    "city": "Lac-Barrage de La Valette (Marcillac la Croisille)",
    "description": ""
  },
  {
    "longitude": 0.78457,
    "latitude": 47.15867,
    "name": "Lac",
    "city": "Etang du Louroux",
    "description": ""
  },
  {
    "longitude": -0.32347,
    "latitude": 42.86531,
    "name": "Lac",
    "city": "Lacs de Batboucou",
    "description": ""
  },
  {
    "longitude": 6.75194,
    "latitude": 46.24555,
    "name": "Lac",
    "city": "Lac des Plagnes (Abondance) (1181 m)",
    "description": ""
  },
  {
    "longitude": 2.16257,
    "latitude": 48.85457,
    "name": "Lac",
    "city": "Etang de Saint Cucufa (Rueil Malmaison)",
    "description": ""
  },
  {
    "longitude": 6.79086,
    "latitude": 46.10113,
    "name": "Lac",
    "city": "Lac des Chambres (2094 m)",
    "description": ""
  },
  {
    "longitude": 6.55722,
    "latitude": 43.86317,
    "name": "Lac",
    "city": "Lac-Barrage de Chaudanne",
    "description": ""
  },
  {
    "longitude": 6.08466,
    "latitude": 45.11778,
    "name": "Lac",
    "city": "Lac Noir",
    "description": ""
  },
  {
    "longitude": 1.97135,
    "latitude": 42.9766,
    "name": "Lac",
    "city": "Reservoir de Campcairole (Chalabre)",
    "description": ""
  },
  {
    "longitude": 3.10091,
    "latitude": 44.61215,
    "name": "Lac",
    "city": "Lac de Born",
    "description": ""
  },
  {
    "longitude": -0.2029,
    "latitude": 42.83508,
    "name": "Lac",
    "city": "Lac Nere",
    "description": ""
  },
  {
    "longitude": 2.18322,
    "latitude": 48.32748,
    "name": "Lac",
    "city": "Sources de l'Eclimont (Abbeville la Riviere)",
    "description": ""
  },
  {
    "longitude": 2.43031,
    "latitude": 45.85395,
    "name": "Lac",
    "city": "Etang Neuf a Giat",
    "description": ""
  },
  {
    "longitude": 9.27113,
    "latitude": 41.52619,
    "name": "Lac",
    "city": "Etang de Santa Giulia (Porto Vecchio)",
    "description": ""
  },
  {
    "longitude": 5.46476,
    "latitude": 46.21057,
    "name": "Lac",
    "city": "Lac-Barrage de Cize Bolozon",
    "description": ""
  },
  {
    "longitude": 0.105,
    "latitude": 42.71889,
    "name": "Lac",
    "city": "Lac d'Esbarris",
    "description": ""
  },
  {
    "longitude": 6.9461,
    "latitude": 45.24292,
    "name": "Lac",
    "city": "Lac-Barrage du Mont Cenis (1974 m)",
    "description": ""
  },
  {
    "longitude": 4.25638,
    "latitude": 45.44823,
    "name": "Lac",
    "city": "Lac-Barrage de Grangent",
    "description": ""
  },
  {
    "longitude": 6.91327,
    "latitude": 45.17536,
    "name": "Lac",
    "city": "Lac de Savines (2447 m)",
    "description": ""
  },
  {
    "longitude": 5.38023,
    "latitude": 47.91362,
    "name": "Lac",
    "city": "Lac-Reservoir de Charmes",
    "description": ""
  },
  {
    "longitude": 2.55334,
    "latitude": 49.13012,
    "name": "Lac",
    "city": "Etangs de La Chapelle en Serval",
    "description": ""
  },
  {
    "longitude": 6.91666,
    "latitude": 48.46666,
    "name": "Lac",
    "city": "Lac-Barrage de Vieux Pre - La Pierre Percee",
    "description": ""
  },
  {
    "longitude": 2.22485,
    "latitude": 45.24373,
    "name": "Lac",
    "city": "Lac-Barrage de l'Aigle",
    "description": ""
  },
  {
    "longitude": -0.26738,
    "latitude": 42.87646,
    "name": "Lac",
    "city": "Lac de Suyen (1536 m)",
    "description": ""
  },
  {
    "longitude": 0.58605,
    "latitude": 42.70407,
    "name": "Lac",
    "city": "Lac Celinda",
    "description": ""
  },
  {
    "longitude": 5.9327,
    "latitude": 45.05125,
    "name": "Lac",
    "city": "Lac Culasson",
    "description": ""
  },
  {
    "longitude": 0.77907,
    "latitude": 47.16917,
    "name": "Lac",
    "city": "Etang de Gousset (Le Louroux)",
    "description": ""
  },
  {
    "longitude": 2.65361,
    "latitude": 45.82333,
    "name": "Lac",
    "city": "Etang des Persats (Charensat)",
    "description": ""
  },
  {
    "longitude": -0.26764,
    "latitude": 42.87681,
    "name": "Lac",
    "city": "Lac de Suyen",
    "description": ""
  },
  {
    "longitude": 5.64276,
    "latitude": 45.82885,
    "name": "Lac",
    "city": "Lac de Virieu le Grand",
    "description": ""
  },
  {
    "longitude": 6.73092,
    "latitude": 46.02684,
    "name": "Lac",
    "city": "Lac de Gers (Samoens) (1805 m)",
    "description": ""
  },
  {
    "longitude": 5.51035,
    "latitude": 46.26495,
    "name": "Lac",
    "city": "Lac de Conflans",
    "description": ""
  },
  {
    "longitude": 6.61529,
    "latitude": 45.07973,
    "name": "Lac",
    "city": "Lac Vert",
    "description": ""
  },
  {
    "longitude": -0.08096,
    "latitude": 42.78118,
    "name": "Lac",
    "city": "Lac d'Aspe",
    "description": ""
  },
  {
    "longitude": 6.7633,
    "latitude": 46.32924,
    "name": "Lac",
    "city": "Lac de Bise (1495 m)",
    "description": ""
  },
  {
    "longitude": 2.82556,
    "latitude": 45.46306,
    "name": "Lac",
    "city": "Lac Chauvet",
    "description": ""
  },
  {
    "longitude": 6.04346,
    "latitude": 45.13333,
    "name": "Lac",
    "city": "Lac-Barrage du Verney",
    "description": ""
  },
  {
    "longitude": 2.45943,
    "latitude": 48.83608,
    "name": "Lac",
    "city": "Lac des Minimes",
    "description": ""
  },
  {
    "longitude": 5.11814,
    "latitude": 43.40292,
    "name": "Lac",
    "city": "Etang de Berre (Chateauneuf les Martigues)",
    "description": ""
  },
  {
    "longitude": 6.41728,
    "latitude": 44.72864,
    "name": "Lac",
    "city": "Lac Palluel",
    "description": ""
  },
  {
    "longitude": 5.58926,
    "latitude": 45.69406,
    "name": "Lac",
    "city": "Lac du Bourget (Aix les Bains)",
    "description": ""
  },
  {
    "longitude": 6.55839,
    "latitude": 46.21896,
    "name": "Lac",
    "city": "Lac de Vallon (Bellevaux) (1080 m)",
    "description": ""
  },
  {
    "longitude": -0.08977,
    "latitude": 42.77725,
    "name": "Lac",
    "city": "Lac Glace",
    "description": ""
  },
  {
    "longitude": 3.22855,
    "latitude": 45.74286,
    "name": "Lac",
    "city": "Etang des Plan�ons (Mezel)",
    "description": ""
  },
  {
    "longitude": 2.88301,
    "latitude": 45.18438,
    "name": "Lac",
    "city": "Lac du Pecher",
    "description": ""
  },
  {
    "longitude": 9.05454,
    "latitude": 42.21112,
    "name": "Lac",
    "city": "Lac de Bettaniella ou Rotondo (Porto Vecchio) (2321m)",
    "description": ""
  },
  {
    "longitude": -1.42676,
    "latitude": 43.67692,
    "name": "Lac",
    "city": "Lac Marin d'Hossegor",
    "description": ""
  },
  {
    "longitude": 0.87135,
    "latitude": 42.83141,
    "name": "Lac",
    "city": "Etang d'Arain",
    "description": ""
  },
  {
    "longitude": 6.47759,
    "latitude": 44.93223,
    "name": "Lac",
    "city": "Lac de l'Eychauda (2514 m)",
    "description": ""
  },
  {
    "longitude": 0.76983,
    "latitude": 48.76324,
    "name": "Lac",
    "city": "Etangs de La Chaise Dieu du Theil",
    "description": ""
  },
  {
    "longitude": 9.0317,
    "latitude": 42.21017,
    "name": "Lac",
    "city": "Lac Petit de Rinoso (2082 m)",
    "description": ""
  },
  {
    "longitude": 6.93269,
    "latitude": 47.77718,
    "name": "Lac",
    "city": "Lac du Lachtelweiher (Dolleren)",
    "description": ""
  },
  {
    "longitude": 2.74195,
    "latitude": 44.82852,
    "name": "Lac",
    "city": "Lac-Barrage de Sarrans (Sainte Genevieve Argence)",
    "description": ""
  },
  {
    "longitude": 0.57266,
    "latitude": 42.70659,
    "name": "Lac",
    "city": "Lac Charles",
    "description": ""
  },
  {
    "longitude": 2.01666,
    "latitude": 48.78751,
    "name": "Lac",
    "city": "Etang de Saint Quentin en Yvelines",
    "description": ""
  },
  {
    "longitude": 6.8634,
    "latitude": 44.53971,
    "name": "Lac",
    "city": "Lac des Neuf Couleurs (2841 m)",
    "description": ""
  },
  {
    "longitude": -0.8135,
    "latitude": 47.06706,
    "name": "Lac",
    "city": "Etang des Noues",
    "description": ""
  },
  {
    "longitude": 7.07534,
    "latitude": 48.47643,
    "name": "Lac",
    "city": "Lac de La Maix",
    "description": ""
  },
  {
    "longitude": 5.1011,
    "latitude": 45.344,
    "name": "Lac",
    "city": "Parcours des Fontaines (Beaufort)",
    "description": ""
  },
  {
    "longitude": 0,
    "latitude": 42.42194,
    "name": "Lac",
    "city": "lac du Ceppu (1793 m)",
    "description": ""
  },
  {
    "longitude": 3.92451,
    "latitude": 44.45028,
    "name": "Lac",
    "city": "Lac de Villefort",
    "description": ""
  },
  {
    "longitude": 3.1152,
    "latitude": 44.92316,
    "name": "Lac",
    "city": "Lac-Barrage de Grandval (Faverolles)",
    "description": ""
  },
  {
    "longitude": -0.09352,
    "latitude": 42.75707,
    "name": "Lac",
    "city": "Lac-Barrage d'Ossoue",
    "description": ""
  },
  {
    "longitude": 7.43864,
    "latitude": 44.09248,
    "name": "Lac",
    "city": "Lac du Bastio",
    "description": ""
  },
  {
    "longitude": 3.77522,
    "latitude": 43.78295,
    "name": "Lac",
    "city": "Lac-Barrage de La Jasse (Mas de Londres)",
    "description": ""
  },
  {
    "longitude": 6.112,
    "latitude": 45.13213,
    "name": "Lac",
    "city": "Lac du Milieu",
    "description": ""
  },
  {
    "longitude": 4.76669,
    "latitude": 45.55395,
    "name": "Lac",
    "city": "Lac du Der-Chantecoq (Giffaumont Champaubert)",
    "description": ""
  },
  {
    "longitude": -0.53555,
    "latitude": 48.2891,
    "name": "Lac",
    "city": "Etang de Beaucoudray (Aron)",
    "description": ""
  },
  {
    "longitude": 2.55799,
    "latitude": 43.56131,
    "name": "Lac",
    "city": "Etang du Roussinas (Angles)",
    "description": ""
  },
  {
    "longitude": 9.23333,
    "latitude": 41.46421,
    "name": "Lac",
    "city": "Lac Padule Maggiore",
    "description": ""
  },
  {
    "longitude": 8.99043,
    "latitude": 42.39489,
    "name": "Lac",
    "city": "Lac d'Occhi Neri (2165 m)",
    "description": ""
  },
  {
    "longitude": 7.40658,
    "latitude": 44.11361,
    "name": "Lac",
    "city": "Lac du Mont Clapier",
    "description": ""
  },
  {
    "longitude": -1.35462,
    "latitude": 43.70785,
    "name": "Lac",
    "city": "Etang Blanc",
    "description": ""
  },
  {
    "longitude": 6.08012,
    "latitude": 48.88592,
    "name": "Lac",
    "city": "Etang Federal a Atton",
    "description": ""
  },
  {
    "longitude": -1.18533,
    "latitude": 44.3978,
    "name": "Lac",
    "city": "Etang Petit de Biscarosse",
    "description": ""
  },
  {
    "longitude": 0.35325,
    "latitude": 42.74436,
    "name": "Lac",
    "city": "Lac de Lustou",
    "description": ""
  },
  {
    "longitude": -0.29233,
    "latitude": 42.88508,
    "name": "Lac",
    "city": "Lac de Lassiedouat",
    "description": ""
  },
  {
    "longitude": 2.08435,
    "latitude": 48.78294,
    "name": "Lac",
    "city": "Etang du Moulin a Renard a Guyancourt",
    "description": ""
  },
  {
    "longitude": 7.10619,
    "latitude": 48.06517,
    "name": "Lac",
    "city": "Etang de Soultzeren (petit)",
    "description": ""
  },
  {
    "longitude": 7.04393,
    "latitude": 47.93635,
    "name": "Lac",
    "city": "Lac de La Lauch (Linthal)",
    "description": ""
  },
  {
    "longitude": 6.80498,
    "latitude": 43.58174,
    "name": "Lac",
    "city": "Lac-Barrage de Saint Cassien (147 m)",
    "description": ""
  },
  {
    "longitude": 5.96298,
    "latitude": 43.7342,
    "name": "Lac",
    "city": "Lac-Barrage de l'Esparron (359 m)",
    "description": ""
  },
  {
    "longitude": 2.78183,
    "latitude": 45.39431,
    "name": "Lac",
    "city": "Lac de l'Esclauze (Egliseneuve)",
    "description": ""
  },
  {
    "longitude": 0.69785,
    "latitude": 47.36635,
    "name": "Lac",
    "city": "Lac de La Bergeonnerie (Tours)",
    "description": ""
  },
  {
    "longitude": 6.11878,
    "latitude": 45.14115,
    "name": "Lac",
    "city": "Lac de La Fare",
    "description": ""
  },
  {
    "longitude": 4.33526,
    "latitude": 48.30175,
    "name": "Lac",
    "city": "Lac d'Orient (Geraudot)",
    "description": ""
  },
  {
    "longitude": -0.29989,
    "latitude": 42.85089,
    "name": "Lac",
    "city": "Lac de Batgrabere Superieur",
    "description": ""
  },
  {
    "longitude": 0.26579,
    "latitude": 47.81687,
    "name": "Lac",
    "city": "Reservoir de Genetay (Ecommoy)",
    "description": ""
  },
  {
    "longitude": 6.84824,
    "latitude": 45.9149,
    "name": "Lac",
    "city": "Lac des Gaillands",
    "description": ""
  },
  {
    "longitude": -1.63805,
    "latitude": 47.09705,
    "name": "Lac",
    "city": "Lac de Grand Lieu",
    "description": ""
  },
  {
    "longitude": 5.59333,
    "latitude": 46.16321,
    "name": "Lac",
    "city": "Lac de Nantua (475 m)",
    "description": ""
  },
  {
    "longitude": 8.95722,
    "latitude": 42.26805,
    "name": "Lac",
    "city": "Lac de Lavigliolu (1834 m)",
    "description": ""
  },
  {
    "longitude": 2.91696,
    "latitude": 45.38724,
    "name": "Lac",
    "city": "Lac d'en Haut (La Godivelle)",
    "description": ""
  },
  {
    "longitude": 9.09416,
    "latitude": 42.14083,
    "name": "Lac",
    "city": "Lac Grand d'Oro (1970 m)",
    "description": ""
  },
  {
    "longitude": 6.79083,
    "latitude": 45.39664,
    "name": "Lac",
    "city": "Lac Long (2522 m)",
    "description": ""
  },
  {
    "longitude": 6.61049,
    "latitude": 44.98578,
    "name": "Lac",
    "city": "Lac (Grand) de l'Oule (2425 m)",
    "description": ""
  },
  {
    "longitude": 5.63749,
    "latitude": 46.33484,
    "name": "Lac",
    "city": "Lac de Coiselet",
    "description": ""
  },
  {
    "longitude": 3.90867,
    "latitude": 47.38759,
    "name": "Lac",
    "city": "Lac-Barrage du Crescent",
    "description": ""
  },
  {
    "longitude": 6.34391,
    "latitude": 44.73252,
    "name": "Lac",
    "city": "Lac des Estaris (2560 m)",
    "description": ""
  },
  {
    "longitude": 4.19093,
    "latitude": 47.2523,
    "name": "Lac",
    "city": "Lac de Chamboux",
    "description": ""
  },
  {
    "longitude": 0.49333,
    "latitude": 42.70449,
    "name": "Lac",
    "city": "Lac du Port dOo ou Lac Glace",
    "description": ""
  },
  {
    "longitude": 0.66652,
    "latitude": 42.69614,
    "name": "Lac",
    "city": "Etang de La Freche",
    "description": ""
  },
  {
    "longitude": -1.44059,
    "latitude": 47.52321,
    "name": "Lac",
    "city": "Reservoir de Vioreau",
    "description": ""
  },
  {
    "longitude": -3.04622,
    "latitude": 48.20605,
    "name": "Lac",
    "city": "Lac de Guerledan (Caurel)",
    "description": ""
  },
  {
    "longitude": 9.14111,
    "latitude": 42.06166,
    "name": "Lac",
    "city": "Lac de Nielluccio (1919 m)",
    "description": ""
  },
  {
    "longitude": 6.96053,
    "latitude": 47.95399,
    "name": "Lac",
    "city": "Lac-Barrage de Kruth Wildenstein",
    "description": ""
  },
  {
    "longitude": 2.6562,
    "latitude": 45.99182,
    "name": "Lac",
    "city": "Etang de Charensat",
    "description": ""
  },
  {
    "longitude": 1.61719,
    "latitude": 46.45514,
    "name": "Lac",
    "city": "Lac-Barrage d'Eguzon Le Chambon",
    "description": ""
  },
  {
    "longitude": -0.30203,
    "latitude": 42.9343,
    "name": "Lac",
    "city": "Lac de Louesque",
    "description": ""
  },
  {
    "longitude": 5.7492,
    "latitude": 48.92903,
    "name": "Lac",
    "city": "Lac de Madine (Nonsard Lamarche)",
    "description": ""
  },
  {
    "longitude": 6.87373,
    "latitude": 47.81531,
    "name": "Lac",
    "city": "Lac d'Alfeld (Sewen)",
    "description": ""
  },
  {
    "longitude": 6.09514,
    "latitude": 45.13448,
    "name": "Lac",
    "city": "Lac Lamat",
    "description": ""
  },
  {
    "longitude": -1.26015,
    "latitude": 48.60588,
    "name": "Lac",
    "city": "Lac-Barrage de La Roche Qui Boit",
    "description": ""
  },
  {
    "longitude": 1.24583,
    "latitude": 46.70237,
    "name": "Lac",
    "city": "Marais de Brenne",
    "description": ""
  },
  {
    "longitude": 2.69358,
    "latitude": 45.41715,
    "name": "Lac",
    "city": "Lac de Laspialade (Saint Genes)",
    "description": ""
  },
  {
    "longitude": 8.93426,
    "latitude": 42.3708,
    "name": "Lac",
    "city": "Lac du Cinto (2289 m)",
    "description": ""
  },
  {
    "longitude": 6.84059,
    "latitude": 46.25788,
    "name": "Lac",
    "city": "Lac de Vonnes (1240 m)",
    "description": ""
  },
  {
    "longitude": 5.80578,
    "latitude": 46.50427,
    "name": "Lac",
    "city": "Lac d'Etival (grand)",
    "description": ""
  },
  {
    "longitude": 6.07844,
    "latitude": 46.50018,
    "name": "Lac",
    "city": "Lac des Rousses",
    "description": ""
  },
  {
    "longitude": 4.52706,
    "latitude": 48.34727,
    "name": "Lac",
    "city": "Lac d'Amance (Dienville)",
    "description": ""
  },
  {
    "longitude": 3.36688,
    "latitude": 49.71726,
    "name": "Lac",
    "city": "Domaine de la Vallee a Brissay-Choigny",
    "description": ""
  },
  {
    "longitude": 4.93483,
    "latitude": 45.80271,
    "name": "Lac",
    "city": "Lac des Eaux Bleues",
    "description": ""
  },
  {
    "longitude": 3.81138,
    "latitude": 43.77861,
    "name": "Lac",
    "city": "Lac de Vesoles",
    "description": ""
  },
  {
    "longitude": 2.3637,
    "latitude": 45.39049,
    "name": "Lac",
    "city": "Lac-Barrage de Mareges",
    "description": ""
  },
  {
    "longitude": -0.28246,
    "latitude": 42.8798,
    "name": "Lac",
    "city": "Lac des Touest",
    "description": ""
  },
  {
    "longitude": 5.42269,
    "latitude": 46.11005,
    "name": "Lac",
    "city": "Lac-Barrage d'Allement (Poncin)",
    "description": ""
  },
  {
    "longitude": -2.41312,
    "latitude": 47.9417,
    "name": "Lac",
    "city": "Etang du Duc (Plo�rmel)",
    "description": ""
  },
  {
    "longitude": 2.82333,
    "latitude": 45.61917,
    "name": "Lac",
    "city": "Lac de Guery",
    "description": ""
  },
  {
    "longitude": 4.37333,
    "latitude": 46.49893,
    "name": "Lac",
    "city": "Etang des Grandes Landes (Mornay)",
    "description": ""
  },
  {
    "longitude": 6.79938,
    "latitude": 45.97164,
    "name": "Lac",
    "city": "Lacs des Laouchets",
    "description": ""
  },
  {
    "longitude": 6.86583,
    "latitude": 44.56416,
    "name": "Lac",
    "city": "Lacs de Marinet (2500 m)",
    "description": ""
  },
  {
    "longitude": 4.60941,
    "latitude": 49.92359,
    "name": "Lac",
    "city": "Bassin de Whitaker (Les Mazures)",
    "description": ""
  },
  {
    "longitude": -0.14286,
    "latitude": 42.84266,
    "name": "Lac",
    "city": "Lac des Huats",
    "description": ""
  },
  {
    "longitude": 5.93143,
    "latitude": 45.06145,
    "name": "Lac",
    "city": "Lac Canard",
    "description": ""
  },
  {
    "longitude": 7.40954,
    "latitude": 44.10034,
    "name": "Lac",
    "city": "Lac Nire",
    "description": ""
  },
  {
    "longitude": 0.83307,
    "latitude": 46.84159,
    "name": "Lac",
    "city": "Etang de la Forge (Chambon)",
    "description": ""
  },
  {
    "longitude": 2.50514,
    "latitude": 45.85605,
    "name": "Lac",
    "city": "Etang de Tyx a Saint Avit",
    "description": ""
  },
  {
    "longitude": 5.8136,
    "latitude": 46.05343,
    "name": "Lac",
    "city": "Lac-Barrage de Genissiat (Franclens)",
    "description": ""
  },
  {
    "longitude": 6.71039,
    "latitude": 46.07931,
    "name": "Lac",
    "city": "Lac aux Dames",
    "description": ""
  },
  {
    "longitude": 5.2679,
    "latitude": 45.67959,
    "name": "Lac",
    "city": "Lac de Moras",
    "description": ""
  },
  {
    "longitude": 6.13654,
    "latitude": 45.04494,
    "name": "Lac",
    "city": "Lac-Barrage du Chambon (1040 m)",
    "description": ""
  },
  {
    "longitude": 6.98273,
    "latitude": 48.03361,
    "name": "Lac",
    "city": "Lac de La Lande (La Bresse)",
    "description": ""
  },
  {
    "longitude": 5.3531,
    "latitude": 46.17376,
    "name": "Lac",
    "city": "Lac-Barrage de Coiselet",
    "description": ""
  },
  {
    "longitude": 6.99792,
    "latitude": 48.01075,
    "name": "Lac",
    "city": "Lac d'Altenweiher (La Bresse)",
    "description": ""
  },
  {
    "longitude": 1.06361,
    "latitude": 42.79329,
    "name": "Lac",
    "city": "Etang Rond",
    "description": ""
  },
  {
    "longitude": 5.90017,
    "latitude": 45.05175,
    "name": "Lac",
    "city": "Lac du Poursollet (1649 m)",
    "description": ""
  },
  {
    "longitude": 5.67093,
    "latitude": 44.90997,
    "name": "Lac",
    "city": "Lac-Barrage de Monteynard Avignonet",
    "description": ""
  },
  {
    "longitude": -0.08261,
    "latitude": 42.7862,
    "name": "Lac",
    "city": "Lac de Malh Arrouy",
    "description": ""
  },
  {
    "longitude": -1.93176,
    "latitude": 47.6759,
    "name": "Lac",
    "city": "Lac de Murin (Masserac)",
    "description": ""
  },
  {
    "longitude": 0.16799,
    "latitude": 42.8251,
    "name": "Lac",
    "city": "Lac d'Oredon (1849 m)",
    "description": ""
  },
  {
    "longitude": -1.19764,
    "latitude": 44.46414,
    "name": "Lac",
    "city": "Etang de Cazaux et Sanguinet",
    "description": ""
  },
  {
    "longitude": 5.78996,
    "latitude": 45.03143,
    "name": "Lac",
    "city": "Lac Mort",
    "description": ""
  },
  {
    "longitude": 6.26982,
    "latitude": 45.55734,
    "name": "Lac",
    "city": "Plan d'eau du Barouchat",
    "description": ""
  },
  {
    "longitude": -0.20983,
    "latitude": 42.90525,
    "name": "Lac",
    "city": "Lac d'Estaing",
    "description": ""
  },
  {
    "longitude": -3.99996,
    "latitude": 48.39054,
    "name": "Lac",
    "city": "Lac-Barrage du Drennec",
    "description": ""
  },
  {
    "longitude": 4.96758,
    "latitude": 45.80976,
    "name": "Lac",
    "city": "Lac des Eaux Bleues",
    "description": ""
  },
  {
    "longitude": 4.16491,
    "latitude": 44.98034,
    "name": "Lac",
    "city": "Lac de Saint Front",
    "description": ""
  },
  {
    "longitude": -2.91573,
    "latitude": 48.07828,
    "name": "Lac",
    "city": "Etang du Valvert (Noyal Pontivy)",
    "description": ""
  },
  {
    "longitude": -2.22427,
    "latitude": 47.93247,
    "name": "Lac",
    "city": "Etang de Passonne (Augan)",
    "description": ""
  },
  {
    "longitude": 0.44726,
    "latitude": 42.72135,
    "name": "Lac",
    "city": "Lac des Caillauas",
    "description": ""
  },
  {
    "longitude": 6.69841,
    "latitude": 46.02382,
    "name": "Lac",
    "city": "Lac du Vernant (Carroz)",
    "description": ""
  },
  {
    "longitude": 9.32339,
    "latitude": 42.62608,
    "name": "Lac",
    "city": "Lac de Paluda (60 m) (Mergano Oleta)",
    "description": ""
  },
  {
    "longitude": -3.87666,
    "latitude": 48.35901,
    "name": "Lac",
    "city": "Lac-Reservoir de Nestavel Saint Michel (Brennilis)",
    "description": ""
  },
  {
    "longitude": 3.98334,
    "latitude": 47.01687,
    "name": "Lac",
    "city": "Etang d'Yonne (Arleuf)",
    "description": ""
  },
  {
    "longitude": 5.58538,
    "latitude": 45.75332,
    "name": "Lac",
    "city": "Lac d'Ambleon (712 m)",
    "description": ""
  },
  {
    "longitude": -0.1705,
    "latitude": 42.86818,
    "name": "Lac",
    "city": "Lac Noir d'Ilheou",
    "description": ""
  },
  {
    "longitude": 2.67684,
    "latitude": 45.41958,
    "name": "Lac",
    "city": "Lac du Tact a Tremouille",
    "description": ""
  },
  {
    "longitude": -0.17465,
    "latitude": 42.8011,
    "name": "Lac",
    "city": "Lac de La Badete d'Arratille",
    "description": ""
  },
  {
    "longitude": 5.91691,
    "latitude": 46.63088,
    "name": "Lac",
    "city": "Lac Petit Machu",
    "description": ""
  },
  {
    "longitude": 4.31655,
    "latitude": 46.95558,
    "name": "Lac",
    "city": "Plan d'Eau du Vallon (Autun)",
    "description": ""
  },
  {
    "longitude": 6.00565,
    "latitude": 46.60984,
    "name": "Lac",
    "city": "Lac de Rouges Truites",
    "description": ""
  },
  {
    "longitude": 6.36338,
    "latitude": 43.38728,
    "name": "Lac",
    "city": "Etang de Reillanne (Le Cannet des Maures)",
    "description": ""
  },
  {
    "longitude": 0.05278,
    "latitude": 47.75293,
    "name": "Lac",
    "city": "Lac-Barrage des Gloriettes (1622 m)",
    "description": ""
  },
  {
    "longitude": 7.41774,
    "latitude": 44.09008,
    "name": "Lac",
    "city": "Lac Autier (2275 m)",
    "description": ""
  },
  {
    "longitude": 6.87222,
    "latitude": 44.37833,
    "name": "Lac",
    "city": "Lac du Lauzanier (2284 m)",
    "description": ""
  },
  {
    "longitude": 5.35684,
    "latitude": 44.05629,
    "name": "Lac",
    "city": "Reservoir du Grand Valat (Monieux)",
    "description": ""
  },
  {
    "longitude": -0.29936,
    "latitude": 42.84582,
    "name": "Lac",
    "city": "Lacs de Micoulaou (2278 m)",
    "description": ""
  },
  {
    "longitude": 6.79406,
    "latitude": 45.96227,
    "name": "Lac",
    "city": "Lac de Pormenaz (Passy) (1945 m)",
    "description": ""
  },
  {
    "longitude": 2.29387,
    "latitude": 48.61767,
    "name": "Lac",
    "city": "Etang du Carouge a Bretigny sur Orge",
    "description": ""
  },
  {
    "longitude": 5.88366,
    "latitude": 45.05542,
    "name": "Lac",
    "city": "Lac de Boites",
    "description": ""
  },
  {
    "longitude": 6.75672,
    "latitude": 47.95076,
    "name": "Lac",
    "city": "Lac de la Mosselotte (Saulxures sur Moselotte)",
    "description": ""
  },
  {
    "longitude": 5.90919,
    "latitude": 46.64096,
    "name": "Lac",
    "city": "Lac de Narlay",
    "description": ""
  },
  {
    "longitude": 0.3874,
    "latitude": 13.06804,
    "name": "Lac",
    "city": "Etang (petit) de la Barthe de Neste",
    "description": ""
  },
  {
    "longitude": -0.18464,
    "latitude": 42.84115,
    "name": "Lac",
    "city": "Lac de l'Embarrat",
    "description": ""
  },
  {
    "longitude": -0.03137,
    "latitude": 42.80752,
    "name": "Lac",
    "city": "Lac d'Antarrouyes",
    "description": ""
  },
  {
    "longitude": 6.05548,
    "latitude": 45.38252,
    "name": "Lac",
    "city": "Lac du Flumet (430 m)",
    "description": ""
  },
  {
    "longitude": 2.29822,
    "latitude": 45.37695,
    "name": "Lac",
    "city": "Lac-Barrage de Neuvic",
    "description": ""
  },
  {
    "longitude": 6.61284,
    "latitude": 44.98585,
    "name": "Lac",
    "city": "Lac de La Barre (2403 m)",
    "description": ""
  },
  {
    "longitude": 0.35748,
    "latitude": 48.51061,
    "name": "Lac",
    "city": "Lac du Pays Melois",
    "description": ""
  },
  {
    "longitude": -0.32873,
    "latitude": 42.84425,
    "name": "Lac",
    "city": "Lacs d'Arremoulit",
    "description": ""
  },
  {
    "longitude": 0.10028,
    "latitude": 48.50943,
    "name": "Lac",
    "city": "Moulin du Rocher (Radon)",
    "description": ""
  },
  {
    "longitude": 5.51438,
    "latitude": 45.43581,
    "name": "Lac",
    "city": "Lac de Charavines",
    "description": ""
  },
  {
    "longitude": 6.73097,
    "latitude": 43.8437,
    "name": "Lac",
    "city": "Lacs de Saint Auban",
    "description": ""
  },
  {
    "longitude": 7.02406,
    "latitude": 48.02314,
    "name": "Lac",
    "city": "Lac de Fischboedle (Mittlach)",
    "description": ""
  },
  {
    "longitude": 2.6562,
    "latitude": 44.726,
    "name": "Lac",
    "city": "Lac-Barrage de Monnes (Saint Symphorien de Thenieres)",
    "description": ""
  },
  {
    "longitude": 0.39579,
    "latitude": 43.07213,
    "name": "Lac",
    "city": "Lac-Barrage de la Barthe de Neste",
    "description": ""
  },
  {
    "longitude": -0.20277,
    "latitude": 42.835,
    "name": "Lac",
    "city": "Lac de Nere Marcadau",
    "description": ""
  },
  {
    "longitude": 2.27061,
    "latitude": 48.78409,
    "name": "Lac",
    "city": "Etang Colbert (Plessis Robinson)",
    "description": ""
  },
  {
    "longitude": 1.62021,
    "latitude": 43.19495,
    "name": "Lac",
    "city": "Lac et Reservoir de Montaut (Paradis Peche)",
    "description": ""
  },
  {
    "longitude": 5.88021,
    "latitude": 45.04781,
    "name": "Lac",
    "city": "Lac Claret",
    "description": ""
  },
  {
    "longitude": 6.6574,
    "latitude": 45.71144,
    "name": "Lac",
    "city": "Lac-Barrage de La Gittaz (Beaufort)",
    "description": ""
  },
  {
    "longitude": 9.09611,
    "latitude": 42.14777,
    "name": "Lac",
    "city": "Lac Petit d'Oro (1563 m)",
    "description": ""
  },
  {
    "longitude": 6.85885,
    "latitude": 45.46151,
    "name": "Lac",
    "city": "Lac du Grattaleu (Tignes)",
    "description": ""
  },
  {
    "longitude": 1.07327,
    "latitude": 42.81408,
    "name": "Lac",
    "city": "Etang de Milouga",
    "description": ""
  },
  {
    "longitude": -1.30235,
    "latitude": 43.77399,
    "name": "Lac",
    "city": "Etang de Soustons",
    "description": ""
  },
  {
    "longitude": 4.35779,
    "latitude": 43.62265,
    "name": "Lac",
    "city": "Etang de Scamandre",
    "description": ""
  },
  {
    "longitude": 0.46666,
    "latitude": 42.7128,
    "name": "Lac",
    "city": "Lac du Milieu",
    "description": ""
  },
  {
    "longitude": 1.80204,
    "latitude": 48.72816,
    "name": "Lac",
    "city": "Etangs de Hollande (Saint Leger en Yvelines)",
    "description": ""
  },
  {
    "longitude": 6.10608,
    "latitude": 45.11463,
    "name": "Lac",
    "city": "Lac Blanc (Huez)",
    "description": ""
  },
  {
    "longitude": 1.27355,
    "latitude": 48.7616,
    "name": "Lac",
    "city": "Etangs de Marsalin",
    "description": ""
  },
  {
    "longitude": 1.93344,
    "latitude": 47.52207,
    "name": "Lac",
    "city": "Etangs de Sologne (Maison des Etangs)",
    "description": ""
  },
  {
    "longitude": 5.98055,
    "latitude": 46.39369,
    "name": "Lac",
    "city": "Lac de Lamoura",
    "description": ""
  },
  {
    "longitude": 6.85327,
    "latitude": 44.53929,
    "name": "Lac",
    "city": "Lac de l'Etoile (2231 m)",
    "description": ""
  },
  {
    "longitude": 2.08905,
    "latitude": 48.78119,
    "name": "Lac",
    "city": "Etang du Val d'Or a Guyancourt",
    "description": ""
  },
  {
    "longitude": 3.67519,
    "latitude": 43.43675,
    "name": "Lac",
    "city": "Etang de Thau (Balaruc les Bains)",
    "description": ""
  },
  {
    "longitude": 6.55842,
    "latitude": 46.21896,
    "name": "Lac",
    "city": "Lac de Vallon (La Chevrerie) (1080 m)",
    "description": ""
  },
  {
    "longitude": 6.1961,
    "latitude": 45.1727,
    "name": "Lac",
    "city": "Lac Laital",
    "description": ""
  },
  {
    "longitude": 2.67633,
    "latitude": 45.41957,
    "name": "Lac",
    "city": "Lac du Tact (Saint Genes)",
    "description": ""
  },
  {
    "longitude": 1.43091,
    "latitude": 45.09239,
    "name": "Lac",
    "city": "Lac-Barrage du Causse",
    "description": ""
  },
  {
    "longitude": 0.16437,
    "latitude": 42.82467,
    "name": "Lac",
    "city": "Lac d'Oredon (Aragnouet)",
    "description": ""
  },
  {
    "longitude": 3.09449,
    "latitude": 43.76529,
    "name": "Lac",
    "city": "Lac-Barrage d'Avene",
    "description": ""
  },
  {
    "longitude": 9.06306,
    "latitude": 42.25552,
    "name": "Lac",
    "city": "Lac de Nino (1743 m) (Albertacce)",
    "description": ""
  },
  {
    "longitude": 2.17121,
    "latitude": 48.58052,
    "name": "Lac",
    "city": "Etang de la Perruche Marais de Bruyeres le Chatel",
    "description": ""
  },
  {
    "longitude": 1.97414,
    "latitude": 50.86362,
    "name": "Lac",
    "city": "Lac d'Ardres (Calais)",
    "description": ""
  },
  {
    "longitude": 2.94786,
    "latitude": 45.37671,
    "name": "Lac",
    "city": "Lac de Saint Alyre",
    "description": ""
  },
  {
    "longitude": 0.09748,
    "latitude": 42.72165,
    "name": "Lac",
    "city": "Lac de Serre longue",
    "description": ""
  },
  {
    "longitude": 1.61324,
    "latitude": 50.64424,
    "name": "Lac",
    "city": "Lac des Miroirs",
    "description": ""
  },
  {
    "longitude": 6.97539,
    "latitude": 48.01879,
    "name": "Lac",
    "city": "Lac de Blanchemer",
    "description": ""
  },
  {
    "longitude": -2.97414,
    "latitude": 48.38116,
    "name": "Lac",
    "city": "Etang de la Grande Isle (Le Vieux Bourg)",
    "description": ""
  },
  {
    "longitude": 0.81875,
    "latitude": 47.11427,
    "name": "Lac",
    "city": "Etang du Fau (Monthelan)",
    "description": ""
  },
  {
    "longitude": 2.49972,
    "latitude": 45.41444,
    "name": "Lac",
    "city": "Lac-Barrage de Bort les Orgues",
    "description": ""
  },
  {
    "longitude": -0.20111,
    "latitude": 42.87833,
    "name": "Lac",
    "city": "Lac du Barbat",
    "description": ""
  },
  {
    "longitude": -0.32624,
    "latitude": 42.93502,
    "name": "Lac",
    "city": "Lac d'Anglas",
    "description": ""
  },
  {
    "longitude": 4.06367,
    "latitude": 44.81491,
    "name": "Lac",
    "city": "Lac d'Issarles (1000 m)",
    "description": ""
  },
  {
    "longitude": 3.91536,
    "latitude": 47.287,
    "name": "Lac",
    "city": "Lac-Reservoir de Chaume�on (Brassy)",
    "description": ""
  },
  {
    "longitude": 5.92978,
    "latitude": 45.05612,
    "name": "Lac",
    "city": "Lac Fourchu (2050 m)",
    "description": ""
  },
  {
    "longitude": 6.71804,
    "latitude": 43.4888,
    "name": "Lac",
    "city": "Etang de Villepey (lagune)",
    "description": ""
  },
  {
    "longitude": 2.41163,
    "latitude": 48.82949,
    "name": "Lac",
    "city": "Lac Daumesnil",
    "description": ""
  },
  {
    "longitude": 0.14125,
    "latitude": 42.81947,
    "name": "Lac",
    "city": "Lac de Cap de Long",
    "description": ""
  },
  {
    "longitude": 3.02926,
    "latitude": 42.8626,
    "name": "Lac",
    "city": "Etang de Leucate",
    "description": ""
  },
  {
    "longitude": 3.57912,
    "latitude": 45.43706,
    "name": "Lac",
    "city": "Etang de Marchaud (Saint Bonnet le Bourg)",
    "description": ""
  },
  {
    "longitude": -0.16866,
    "latitude": 42.79219,
    "name": "Lac",
    "city": "Lac Meillon",
    "description": ""
  },
  {
    "longitude": 0.56412,
    "latitude": 42.70984,
    "name": "Lac",
    "city": "Lac Bleu",
    "description": ""
  },
  {
    "longitude": 2.11773,
    "latitude": 48.77609,
    "name": "Lac",
    "city": "Etang de la Geneste",
    "description": ""
  },
  {
    "longitude": 6.8002,
    "latitude": 44.63381,
    "name": "Lac",
    "city": "Lac Miroir (2215 m)",
    "description": ""
  },
  {
    "longitude": 1.05964,
    "latitude": 42.78899,
    "name": "Lac",
    "city": "Etang Long",
    "description": ""
  },
  {
    "longitude": 2.99453,
    "latitude": 42.88639,
    "name": "Lac",
    "city": "Etang de Leucate ou de Salses (Fitou)",
    "description": ""
  },
  {
    "longitude": 0.45924,
    "latitude": 42.71304,
    "name": "Lac",
    "city": "Lac des Isclots",
    "description": ""
  },
  {
    "longitude": 6.70833,
    "latitude": 44.23333,
    "name": "Lac",
    "city": "Lac d'Allos (2230 m)",
    "description": ""
  },
  {
    "longitude": 5.293,
    "latitude": 45.99721,
    "name": "Lac",
    "city": "Reservoir de Priay",
    "description": ""
  },
  {
    "longitude": 7.11549,
    "latitude": 45.35523,
    "name": "Lac",
    "city": "Lac des Evettes",
    "description": ""
  },
  {
    "longitude": 5.16502,
    "latitude": 47.34747,
    "name": "Lac",
    "city": "Lac de La Plaine des Tilles (Arc Tille)",
    "description": ""
  },
  {
    "longitude": 5.02925,
    "latitude": 46.00134,
    "name": "Lac",
    "city": "Route des 1000 Etangs des Dombes (Villars les Dombes)",
    "description": ""
  },
  {
    "longitude": -0.09972,
    "latitude": 42.80638,
    "name": "Lac",
    "city": "Lac d'Estom",
    "description": ""
  },
  {
    "longitude": 2.5414,
    "latitude": 44.30588,
    "name": "Lac",
    "city": "Etang de La Brienne",
    "description": ""
  },
  {
    "longitude": 1.9969,
    "latitude": 45.06467,
    "name": "Lac",
    "city": "Lac-Barrage de Hautefage",
    "description": ""
  },
  {
    "longitude": 3.69655,
    "latitude": 49.46286,
    "name": "Lac",
    "city": "Lac de Chamouille",
    "description": ""
  },
  {
    "longitude": 1.90389,
    "latitude": 42.58912,
    "name": "Lac",
    "city": "Etang de Lanoux",
    "description": ""
  },
  {
    "longitude": 5.87618,
    "latitude": 46.58884,
    "name": "Lac",
    "city": "Lac de Bonlieu",
    "description": ""
  },
  {
    "longitude": 4.44348,
    "latitude": 46.5805,
    "name": "Lac",
    "city": "Etang-Reservoir du Rousset",
    "description": ""
  },
  {
    "longitude": 0.1449,
    "latitude": 42.73134,
    "name": "Lac",
    "city": "Lac de Barroude",
    "description": ""
  },
  {
    "longitude": 6.85092,
    "latitude": 48.07247,
    "name": "Lac",
    "city": "Lac de Gerardmer",
    "description": ""
  },
  {
    "longitude": 5.89176,
    "latitude": 45.05093,
    "name": "Lac",
    "city": "Lac Punay",
    "description": ""
  },
  {
    "longitude": 4.39606,
    "latitude": 46.49933,
    "name": "Lac",
    "city": "Etangs de Mornay",
    "description": ""
  },
  {
    "longitude": 9.11491,
    "latitude": 42.04948,
    "name": "Lac",
    "city": "Lac de Bracca (2085 m)",
    "description": ""
  },
  {
    "longitude": 2.85053,
    "latitude": 45.17635,
    "name": "Lac",
    "city": "Lac de Sauvages",
    "description": ""
  },
  {
    "longitude": 6.11711,
    "latitude": 45.2084,
    "name": "Lac",
    "city": "Lac de Grand Maison (Vaujany)",
    "description": ""
  },
  {
    "longitude": 0.85274,
    "latitude": 49.16331,
    "name": "Lac",
    "city": "Les Etangs de Planquery",
    "description": ""
  },
  {
    "longitude": 3.22254,
    "latitude": 45.74025,
    "name": "Lac",
    "city": "Plan d'eau de Cournon d'Auvergne",
    "description": ""
  },
  {
    "longitude": -1.26127,
    "latitude": 47.96411,
    "name": "Lac",
    "city": "Etang de Carcraon (Domalain)",
    "description": ""
  },
  {
    "longitude": 7.74096,
    "latitude": 48.54214,
    "name": "Lac",
    "city": "Lac du Baggersee (Illkirch Graffenstaden)",
    "description": ""
  },
  {
    "longitude": -0.84415,
    "latitude": 47.0231,
    "name": "Lac",
    "city": "Lac-Barrage de Ribou (Cholet)",
    "description": ""
  },
  {
    "longitude": 6.66425,
    "latitude": 44.53998,
    "name": "Lac",
    "city": "Lac du Crachet (2238 m)",
    "description": ""
  },
  {
    "longitude": 6.42125,
    "latitude": 44.71693,
    "name": "Lac",
    "city": "Lac Faravel",
    "description": ""
  },
  {
    "longitude": 4.448,
    "latitude": 46.77402,
    "name": "Lac",
    "city": "Lac-Reservoir et Etang Leduc de Torcy",
    "description": ""
  },
  {
    "longitude": 2.80914,
    "latitude": 44.06975,
    "name": "Lac",
    "city": "Lac de Pinet",
    "description": ""
  },
  {
    "longitude": 7.09435,
    "latitude": 47.91448,
    "name": "Lac",
    "city": "Lac du Ballon (Lautenbachzell)",
    "description": ""
  },
  {
    "longitude": 2.76258,
    "latitude": 48.13241,
    "name": "Lac",
    "city": "Reservoir du Renard (Dordives)",
    "description": ""
  },
  {
    "longitude": 4.39279,
    "latitude": 48.34022,
    "name": "Lac",
    "city": "Lac du Temple (Brevonnes)",
    "description": ""
  },
  {
    "longitude": 9.13416,
    "latitude": 42.06555,
    "name": "Lac",
    "city": "Lac de Bastani (2092 m)",
    "description": ""
  },
  {
    "longitude": -0.31718,
    "latitude": 42.87656,
    "name": "Lac",
    "city": "Lacs de Carnau",
    "description": ""
  },
  {
    "longitude": 5.88558,
    "latitude": 45.12349,
    "name": "Lac",
    "city": "Lac des Vallons",
    "description": ""
  },
  {
    "longitude": 9.02256,
    "latitude": 42.213,
    "name": "Lac",
    "city": "Lac de Melo (1710 m) (Pozzane)",
    "description": ""
  },
  {
    "longitude": 6.53934,
    "latitude": 43.9117,
    "name": "Lac",
    "city": "Lac-Barrage de Castillon (Saint Julien du Verdon)",
    "description": ""
  },
  {
    "longitude": 4.03394,
    "latitude": 45.98401,
    "name": "Lac",
    "city": "Lac de Villerest",
    "description": ""
  },
  {
    "longitude": -1.24356,
    "latitude": 44.13211,
    "name": "Lac",
    "city": "Etang de Bourg le Vieux",
    "description": ""
  },
  {
    "longitude": 2.91317,
    "latitude": 45.89196,
    "name": "Lac",
    "city": "Etang de Pulverieres",
    "description": ""
  },
  {
    "longitude": 6.5875,
    "latitude": 46.19361,
    "name": "Lac",
    "city": "Lac de Petetoz (La Chevriere) (1435 m)",
    "description": ""
  },
  {
    "longitude": 6.09096,
    "latitude": 45.13731,
    "name": "Lac",
    "city": "Lac du Carrelet",
    "description": ""
  },
  {
    "longitude": 0.50837,
    "latitude": 42.70101,
    "name": "Lac",
    "city": "Lac du Portillon",
    "description": ""
  },
  {
    "longitude": 1.32771,
    "latitude": 44.55033,
    "name": "Lac",
    "city": "Lac Vert (Catus)",
    "description": ""
  },
  {
    "longitude": 6.23416,
    "latitude": 45.04775,
    "name": "Lac",
    "city": "Lac Lerie (2450 m)",
    "description": ""
  },
  {
    "longitude": 6.59035,
    "latitude": 44.99404,
    "name": "Lac",
    "city": "Lac de Cristol (2245 m)",
    "description": ""
  },
  {
    "longitude": 6.94571,
    "latitude": 44.63868,
    "name": "Lac",
    "city": "Lac du Longet (2641 m)",
    "description": ""
  },
  {
    "longitude": 0.11112,
    "latitude": 42.72592,
    "name": "Lac",
    "city": "Lac des Aires",
    "description": ""
  },
  {
    "longitude": 2.79764,
    "latitude": 45.97154,
    "name": "Lac",
    "city": "Lac-Barrages des Fades Besserve (Les Ancizes)",
    "description": ""
  },
  {
    "longitude": 6.38315,
    "latitude": 46.08226,
    "name": "Lac",
    "city": "Reservoirs du Bien Noye (Bonneville)",
    "description": ""
  },
  {
    "longitude": 6.01028,
    "latitude": 44.08606,
    "name": "Lac",
    "city": "Lac-Barrage de l'Escale",
    "description": ""
  },
  {
    "longitude": 6.25671,
    "latitude": 48.3929,
    "name": "Lac",
    "city": "Reservoir de la Moyenne Moselle (Socourt)",
    "description": ""
  },
  {
    "longitude": 2.56712,
    "latitude": 49.15669,
    "name": "Lac",
    "city": "Etangs de Saint-Andre (Pontarne)",
    "description": ""
  },
  {
    "longitude": 0.45436,
    "latitude": 42.74045,
    "name": "Lac",
    "city": "Lac de Nere",
    "description": ""
  },
  {
    "longitude": 2.88663,
    "latitude": 45.34852,
    "name": "Lac",
    "city": "lac des Estives a Montgreleix",
    "description": ""
  },
  {
    "longitude": 2.653,
    "latitude": 44.71862,
    "name": "Lac",
    "city": "Lac-Barrage de l'Etang (Montezic)",
    "description": ""
  },
  {
    "longitude": 0.21069,
    "latitude": 42.85719,
    "name": "Lac",
    "city": "Lac Superieur",
    "description": ""
  },
  {
    "longitude": 6.06419,
    "latitude": 44.97008,
    "name": "Lac",
    "city": "Lac de Lauvitel (1530 m)",
    "description": ""
  },
  {
    "longitude": 5.69582,
    "latitude": 46.21951,
    "name": "Lac",
    "city": "Lac Genin (Charix) (850 m)",
    "description": ""
  },
  {
    "longitude": 6.11998,
    "latitude": 45.20847,
    "name": "Lac",
    "city": "Lac-Barrage de Grand Maison (1698 m)",
    "description": ""
  },
  {
    "longitude": 3.96593,
    "latitude": 45.32282,
    "name": "Lac",
    "city": "Plan d'eau des Pichiers (Saint Pal de Chalencon)",
    "description": ""
  },
  {
    "longitude": 6.90573,
    "latitude": 47.99363,
    "name": "Lac",
    "city": "Lac des Corbeaux",
    "description": ""
  },
  {
    "longitude": 4.78384,
    "latitude": 49.52655,
    "name": "Lac",
    "city": "Lac du Bairon (Le Chesne)",
    "description": ""
  },
  {
    "longitude": 1.27969,
    "latitude": 45.07283,
    "name": "Lac",
    "city": "Residence le Domaine (Coly)",
    "description": ""
  },
  {
    "longitude": 2.77615,
    "latitude": 44.20478,
    "name": "Lac",
    "city": "Lac de Pareloup",
    "description": ""
  },
  {
    "longitude": 2.36465,
    "latitude": 45.39189,
    "name": "Lac",
    "city": "Lac-Barrage de Mareges",
    "description": ""
  },
  {
    "longitude": 6.88563,
    "latitude": 45.46544,
    "name": "Lac",
    "city": "Lacs du Chardonnet (Tignes)",
    "description": ""
  },
  {
    "longitude": -0.11933,
    "latitude": 42.75533,
    "name": "Lac",
    "city": "Lac de Montferrat",
    "description": ""
  },
  {
    "longitude": -1.29947,
    "latitude": 44.18458,
    "name": "Lac",
    "city": "Etang Grand de La Malloueyre",
    "description": ""
  },
  {
    "longitude": 5.84837,
    "latitude": 47.13552,
    "name": "Lac",
    "city": "Entre Loue et Doubs a Osselle",
    "description": ""
  },
  {
    "longitude": 6.11432,
    "latitude": 47.63231,
    "name": "Lac",
    "city": "Lac de Vesoul Vaivre",
    "description": ""
  },
  {
    "longitude": -2.74835,
    "latitude": 47.66317,
    "name": "Lac",
    "city": "Etang du Duc (Vannes)",
    "description": ""
  },
  {
    "longitude": 9.33076,
    "latitude": 41.56116,
    "name": "Lac",
    "city": "Etangs de Palombaggia",
    "description": ""
  },
  {
    "longitude": 6.84147,
    "latitude": 45.48444,
    "name": "Lac",
    "city": "Lac de La Plagne (Tignes)",
    "description": ""
  },
  {
    "longitude": 1.17358,
    "latitude": 46.72113,
    "name": "Lac",
    "city": "Maison du Parc Naturel Regional de La Brenne",
    "description": ""
  },
  {
    "longitude": 5.38989,
    "latitude": 45.81955,
    "name": "Lac",
    "city": "Etang du Tabouret a Porcieu Amblagnieu",
    "description": ""
  },
  {
    "longitude": -0.96673,
    "latitude": 48.47013,
    "name": "Lac",
    "city": "Etang de Groue",
    "description": ""
  },
  {
    "longitude": 3.82347,
    "latitude": 44.74789,
    "name": "Lac",
    "city": "Lac-Barrage de Naussac",
    "description": ""
  },
  {
    "longitude": 2.01002,
    "latitude": 45.15189,
    "name": "Lac",
    "city": "Lac-Barrage de Chastang",
    "description": ""
  },
  {
    "longitude": 2.50514,
    "latitude": 48.64639,
    "name": "Lac",
    "city": "Lac de Tigery",
    "description": ""
  },
  {
    "longitude": -1.13359,
    "latitude": 45.00271,
    "name": "Lac",
    "city": "Lac de Lacanau",
    "description": ""
  },
  {
    "longitude": 6.52111,
    "latitude": 44.68513,
    "name": "Lac",
    "city": "Lac du Petit Laus",
    "description": ""
  },
  {
    "longitude": 2.91833,
    "latitude": 45.57444,
    "name": "Lac",
    "city": "Lac Chambon (baignade sport nautique)",
    "description": ""
  },
  {
    "longitude": 8.99138,
    "latitude": 42.39416,
    "name": "Lac",
    "city": "Lac de Lancone Sottano (2155 m)",
    "description": ""
  },
  {
    "longitude": 6.438,
    "latitude": 45.98764,
    "name": "Lac",
    "city": "Lac de Lessy (La Forclaz) (1730 m)",
    "description": ""
  },
  {
    "longitude": 0.44747,
    "latitude": 42.70555,
    "name": "Lac",
    "city": "Lac de Pouchergues",
    "description": ""
  },
  {
    "longitude": 6.47764,
    "latitude": 45.91501,
    "name": "Lac",
    "city": "Lac des Confins (La Clusaz) (1358 m)",
    "description": ""
  },
  {
    "longitude": 2.03796,
    "latitude": 48.527,
    "name": "Lac",
    "city": "Etang de Mal Assis a Roinville",
    "description": ""
  },
  {
    "longitude": -0.25534,
    "latitude": 42.84189,
    "name": "Lac",
    "city": "Lacs de Remoulis",
    "description": ""
  },
  {
    "longitude": -1.05691,
    "latitude": 47.86526,
    "name": "Lac",
    "city": "Etang de la Rincerie",
    "description": ""
  },
  {
    "longitude": 2.94946,
    "latitude": 45.9313,
    "name": "Lac",
    "city": "Etang de Lachamp a Manzat",
    "description": ""
  },
  {
    "longitude": 0.33497,
    "latitude": 42.75894,
    "name": "Lac",
    "city": "Lac de Consaterre",
    "description": ""
  },
  {
    "longitude": 5.92792,
    "latitude": 43.75132,
    "name": "Lac",
    "city": "Lac-Barrage de Greoux d'Esparron",
    "description": ""
  },
  {
    "longitude": 2.90278,
    "latitude": 45.46139,
    "name": "Lac",
    "city": "Lac de Montcineyre",
    "description": ""
  },
  {
    "longitude": 6.09732,
    "latitude": 44.95069,
    "name": "Lac",
    "city": "Lac de la Muzelle (2105 m)",
    "description": ""
  },
  {
    "longitude": 5.91736,
    "latitude": 46.53107,
    "name": "Lac",
    "city": "Lac de l'Abbaye",
    "description": ""
  },
  {
    "longitude": 6.89196,
    "latitude": 45.90179,
    "name": "Lac",
    "city": "Lac Bleu",
    "description": ""
  },
  {
    "longitude": 6.17611,
    "latitude": 43.73281,
    "name": "Lac",
    "city": "Lac-Barrage de Sainte Croix (Bauduen)",
    "description": ""
  },
  {
    "longitude": 6.45008,
    "latitude": 44.71615,
    "name": "Lac",
    "city": "Lac de Fangeas",
    "description": ""
  },
  {
    "longitude": 2.72724,
    "latitude": 44.28688,
    "name": "Lac",
    "city": "Lac du Pont de Salars",
    "description": ""
  },
  {
    "longitude": 9.15972,
    "latitude": 42.04527,
    "name": "Lac",
    "city": "Lac de Rina Sottano (1806 m)",
    "description": ""
  },
  {
    "longitude": 7.02043,
    "latitude": 45.47546,
    "name": "Lac",
    "city": "Lac du Santel (Val d'isere)",
    "description": ""
  },
  {
    "longitude": 6.88909,
    "latitude": 45.98263,
    "name": "Lac",
    "city": "Lac Blanc des Aiguilles Rouges (2352 m)",
    "description": ""
  },
  {
    "longitude": 1.07726,
    "latitude": 42.81123,
    "name": "Lac",
    "city": "Etang d'Arauech",
    "description": ""
  },
  {
    "longitude": 6.17265,
    "latitude": 45.17607,
    "name": "Lac",
    "city": "Lac Gris",
    "description": ""
  },
  {
    "longitude": 3.02973,
    "latitude": 42.86405,
    "name": "Lac",
    "city": "Etang de Leucate",
    "description": ""
  },
  {
    "longitude": 7.14193,
    "latitude": 47.54084,
    "name": "Lac",
    "city": "Lac Petit Neuweiher (Ueberstrass)",
    "description": ""
  },
  {
    "longitude": 7.06701,
    "latitude": 45.48557,
    "name": "Lac",
    "city": "Lac-Barrage de la Sassiere (2280 m)",
    "description": ""
  },
  {
    "longitude": 0.62833,
    "latitude": 42.70274,
    "name": "Lac",
    "city": "Lac du Maille",
    "description": ""
  },
  {
    "longitude": 6.57362,
    "latitude": 46.14303,
    "name": "Lac",
    "city": "Lac de Roy (1665 m)",
    "description": ""
  },
  {
    "longitude": 6.90766,
    "latitude": 45.99419,
    "name": "Lac",
    "city": "Lac de La Remuaz",
    "description": ""
  },
  {
    "longitude": 6.72007,
    "latitude": 46.23533,
    "name": "Lac",
    "city": "Lac de Tavaneuse (Abondance) (1805 m)",
    "description": ""
  },
  {
    "longitude": 5.66924,
    "latitude": 46.48206,
    "name": "Lac",
    "city": "Lac-Barrage de Vouglans (Orgelet)",
    "description": ""
  },
  {
    "longitude": 1.95602,
    "latitude": 47.5148,
    "name": "Lac",
    "city": "Etang de Perrault (Saint Viatre)",
    "description": ""
  },
  {
    "longitude": 0.37035,
    "latitude": 43.07033,
    "name": "Lac",
    "city": "Etang de la Lande (La Barthe de Neste)",
    "description": ""
  },
  {
    "longitude": 0.07051,
    "latitude": 44.29473,
    "name": "Lac",
    "city": "Lac de Clarens (Casteljaloux)",
    "description": ""
  },
  {
    "longitude": 5.82157,
    "latitude": 46.6216,
    "name": "Lac",
    "city": "Lac du Val",
    "description": ""
  },
  {
    "longitude": 7.09624,
    "latitude": 48.12529,
    "name": "Lac",
    "city": "Lac Blanc (Orbey)",
    "description": ""
  },
  {
    "longitude": 6.48087,
    "latitude": 46.37847,
    "name": "Lac",
    "city": "La Leman (Thonon le Bains)",
    "description": ""
  },
  {
    "longitude": -1.20906,
    "latitude": 47.65089,
    "name": "Lac",
    "city": "Etang de La Salle",
    "description": ""
  },
  {
    "longitude": -0.23717,
    "latitude": 42.8525,
    "name": "Lac",
    "city": "Lac de Liantran (1824 m)",
    "description": ""
  },
  {
    "longitude": 6.84672,
    "latitude": 45.91297,
    "name": "Lac",
    "city": "Lac des Gaillands (Chamonix)",
    "description": ""
  },
  {
    "longitude": 1.71558,
    "latitude": 45.18572,
    "name": "Lac",
    "city": "Lac de Chastagnol a Aubazines",
    "description": ""
  },
  {
    "longitude": 6.13613,
    "latitude": 45.8931,
    "name": "Lac",
    "city": "Lac d'Annecy",
    "description": ""
  },
  {
    "longitude": 2.30275,
    "latitude": 46.60856,
    "name": "Lac",
    "city": "Etang du Diable (Le Chatelet)",
    "description": ""
  },
  {
    "longitude": -0.20949,
    "latitude": 42.83936,
    "name": "Lac",
    "city": "Lac de Bassia",
    "description": ""
  },
  {
    "longitude": 0.64284,
    "latitude": 47.35698,
    "name": "Lac",
    "city": "Lac des Bretonnieres (Joue les Tours)",
    "description": ""
  },
  {
    "longitude": 2.29974,
    "latitude": 48.97173,
    "name": "Lac",
    "city": "Lac d'Enghien",
    "description": ""
  },
  {
    "longitude": 6.12188,
    "latitude": 45.14925,
    "name": "Lac",
    "city": "Lac de la Balme Rousse",
    "description": ""
  },
  {
    "longitude": 5.90167,
    "latitude": 45.11392,
    "name": "Lac",
    "city": "Lac Achard (1917 m)",
    "description": ""
  },
  {
    "longitude": -0.03824,
    "latitude": 42.80571,
    "name": "Lac",
    "city": "Lac de Cestrede",
    "description": ""
  },
  {
    "longitude": 3.30543,
    "latitude": 49.16112,
    "name": "Lac",
    "city": "Etang de la Vignette",
    "description": ""
  },
  {
    "longitude": 2.05368,
    "latitude": 49.45684,
    "name": "Lac",
    "city": "Plan d'eau du Canada",
    "description": ""
  },
  {
    "longitude": 0.46159,
    "latitude": 42.69669,
    "name": "Lac",
    "city": "Lac de Clarabide",
    "description": ""
  },
  {
    "longitude": 2.09385,
    "latitude": 43.40771,
    "name": "Lac",
    "city": "Lac-Barrage de Gravette",
    "description": ""
  },
  {
    "longitude": 0.58265,
    "latitude": 42.70051,
    "name": "Lac",
    "city": "Lac du Port Vieil",
    "description": ""
  },
  {
    "longitude": 1.71054,
    "latitude": 45.1829,
    "name": "Lac",
    "city": "Lac de Coiroux (Base de loisirs)",
    "description": ""
  },
  {
    "longitude": 9.00558,
    "latitude": 42.32766,
    "name": "Lac",
    "city": "Lac-Barrage de Calacuccia (793 m) (Sidossi)",
    "description": ""
  },
  {
    "longitude": 9.02194,
    "latitude": 42.20833,
    "name": "Lac",
    "city": "Lac de Soglia (1870 m)",
    "description": ""
  },
  {
    "longitude": 6.99228,
    "latitude": 45.42905,
    "name": "Lac",
    "city": "Lac de l'Ouillette",
    "description": ""
  },
  {
    "longitude": 0.85251,
    "latitude": 47.11337,
    "name": "Lac",
    "city": "Etang de Bois (Vou)",
    "description": ""
  },
  {
    "longitude": 5.73027,
    "latitude": 44.39966,
    "name": "Lac",
    "city": "Etang de Bersac",
    "description": ""
  },
  {
    "longitude": 9.03171,
    "latitude": 42.21019,
    "name": "Lac",
    "city": "Lac Grand de Rinoso (2065 m)",
    "description": ""
  },
  {
    "longitude": 2.21771,
    "latitude": 48.58159,
    "name": "Lac",
    "city": "Etang de Trevoix",
    "description": ""
  },
  {
    "longitude": -0.32322,
    "latitude": 42.84703,
    "name": "Lac",
    "city": "Lac de Palas",
    "description": ""
  },
  {
    "longitude": -0.08261,
    "latitude": 42.78494,
    "name": "Lac",
    "city": "Lac Couy",
    "description": ""
  },
  {
    "longitude": 6.35224,
    "latitude": 48.16651,
    "name": "Lac",
    "city": "Lac-Reservoir de Bouzey",
    "description": ""
  },
  {
    "longitude": -1.31703,
    "latitude": 43.88745,
    "name": "Lac",
    "city": "Etang de Leon",
    "description": ""
  },
  {
    "longitude": -0.34001,
    "latitude": 42.84491,
    "name": "Lac",
    "city": "Lac d'Arrious",
    "description": ""
  },
  {
    "longitude": 0.35579,
    "latitude": 44.67921,
    "name": "Lac",
    "city": "lac-Barrage de l'Escourroux",
    "description": ""
  },
  {
    "longitude": 0.20795,
    "latitude": 42.7561,
    "name": "Lac",
    "city": "Lac du Catchet",
    "description": ""
  },
  {
    "longitude": 5.88942,
    "latitude": 46.64885,
    "name": "Lac",
    "city": "Lac de Vernois",
    "description": ""
  },
  {
    "longitude": 5.91527,
    "latitude": 45.13138,
    "name": "Lac",
    "city": "Lacs Robert (1998 m)",
    "description": ""
  },
  {
    "longitude": 2.58438,
    "latitude": 44.69632,
    "name": "Lac",
    "city": "Lac-Barrage de Couesque (Saint Hippolyte)",
    "description": ""
  },
  {
    "longitude": 2.99166,
    "latitude": 45.98057,
    "name": "Lac",
    "city": "Gour de Tazenat",
    "description": ""
  },
  {
    "longitude": 6.67312,
    "latitude": 46.00137,
    "name": "Lac",
    "city": "Lac de Flaine (1600 m)",
    "description": ""
  },
  {
    "longitude": -0.49813,
    "latitude": 48.30909,
    "name": "Lac",
    "city": "Etang de Marcille La Ville",
    "description": ""
  },
  {
    "longitude": 2.21715,
    "latitude": 48.56902,
    "name": "Lac",
    "city": "Etang de la Garenne Arpajon",
    "description": ""
  },
  {
    "longitude": -0.95199,
    "latitude": 48.8096,
    "name": "Lac",
    "city": "Lac de la Dathee",
    "description": ""
  },
  {
    "longitude": 0.49818,
    "latitude": 42.72894,
    "name": "Lac",
    "city": "Lac d'Espingo",
    "description": ""
  },
  {
    "longitude": 0.04555,
    "latitude": 42.93972,
    "name": "Lac",
    "city": "Lac de Bassias",
    "description": ""
  },
  {
    "longitude": 3.79304,
    "latitude": 44.90413,
    "name": "Lac",
    "city": "Lac du Bouchet (Cayres)",
    "description": ""
  },
  {
    "longitude": 6.90213,
    "latitude": 45.98499,
    "name": "Lac",
    "city": "Lacs de Cheserys",
    "description": ""
  },
  {
    "longitude": 6.84834,
    "latitude": 45.95745,
    "name": "Lac",
    "city": "Lac Cornu (2276 m)",
    "description": ""
  },
  {
    "longitude": -0.02557,
    "latitude": 42.81712,
    "name": "Lac",
    "city": "Lac de Litouese",
    "description": ""
  },
  {
    "longitude": 3.03259,
    "latitude": 42.66371,
    "name": "Lac",
    "city": "Etang de Canet",
    "description": ""
  },
  {
    "longitude": 1.13069,
    "latitude": 42.77581,
    "name": "Lac",
    "city": "Etang d'Areau",
    "description": ""
  },
  {
    "longitude": 5.53443,
    "latitude": 43.54136,
    "name": "Lac",
    "city": "Barrage de Bimont",
    "description": ""
  },
  {
    "longitude": 4.09365,
    "latitude": 47.32879,
    "name": "Lac",
    "city": "Lac-Barrage de Saint Agnan",
    "description": ""
  },
  {
    "longitude": 3.93224,
    "latitude": 43.65471,
    "name": "Lac",
    "city": "Lac du Cres",
    "description": ""
  },
  {
    "longitude": 2.28747,
    "latitude": 46.62053,
    "name": "Lac",
    "city": "Etang de Pitie (Le Chatelet)",
    "description": ""
  },
  {
    "longitude": 2.77219,
    "latitude": 43.64893,
    "name": "Lac",
    "city": "Lac-Barrage de Laouzas (Riou Montagne Nages)",
    "description": ""
  },
  {
    "longitude": -1.23156,
    "latitude": 48.57825,
    "name": "Lac",
    "city": "Lac-Barrage de Vezins",
    "description": ""
  },
  {
    "longitude": 3.8911,
    "latitude": 47.15702,
    "name": "Lac",
    "city": "Lac-Reservoir de Panneciere (Chaumard)",
    "description": ""
  },
  {
    "longitude": 2.73928,
    "latitude": 45.60222,
    "name": "Lac",
    "city": "Plan d'eau de Murat le Quaire",
    "description": ""
  },
  {
    "longitude": -0.55924,
    "latitude": 48.2931,
    "name": "Lac",
    "city": "Etang de La Forge (Aron)",
    "description": ""
  },
  {
    "longitude": -0.06197,
    "latitude": 42.8239,
    "name": "Lac",
    "city": "Lac de Bastampe",
    "description": ""
  },
  {
    "longitude": 6.73253,
    "latitude": 46.34623,
    "name": "Lac",
    "city": "Lac de La Case (1750 m)",
    "description": ""
  },
  {
    "longitude": 3.92422,
    "latitude": 47.262,
    "name": "Lac",
    "city": "Moulin de Tala",
    "description": ""
  },
  {
    "longitude": 3.49466,
    "latitude": 50.3438,
    "name": "Lac",
    "city": "Etang du Vignoble (Valenciennes)",
    "description": ""
  },
  {
    "longitude": 2.3739,
    "latitude": 48.54951,
    "name": "Lac",
    "city": "Etangs de Vert Le Petit",
    "description": ""
  },
  {
    "longitude": -0.21339,
    "latitude": 42.90544,
    "name": "Lac",
    "city": "Lac d'Estaing",
    "description": ""
  },
  {
    "longitude": -1.22716,
    "latitude": 44.21517,
    "name": "Lac",
    "city": "Etang d'Aureilhan",
    "description": ""
  },
  {
    "longitude": 6.1228,
    "latitude": 43.16212,
    "name": "Lac",
    "city": "Etangs de Sauvebonne a Hyeres",
    "description": ""
  },
  {
    "longitude": 3.6072,
    "latitude": 50.44978,
    "name": "Lac",
    "city": "Lac de Chabaud Latour (Valenciennes)",
    "description": ""
  },
  {
    "longitude": 6.89713,
    "latitude": 47.81116,
    "name": "Lac",
    "city": "Lac de Sewen",
    "description": ""
  },
  {
    "longitude": 3.056,
    "latitude": 44.62548,
    "name": "Lac",
    "city": "Lac de Souverols",
    "description": ""
  },
  {
    "longitude": -0.14784,
    "latitude": 42.8033,
    "name": "Lac",
    "city": "Lac de Chabarrou",
    "description": ""
  },
  {
    "longitude": 0.64169,
    "latitude": 45.81239,
    "name": "Lac",
    "city": "Lac-Barrage du Mas Chambon",
    "description": ""
  },
  {
    "longitude": 3.06462,
    "latitude": 44.64233,
    "name": "Lac",
    "city": "Lac de Salhiens",
    "description": ""
  },
  {
    "longitude": 8.94639,
    "latitude": 42.20487,
    "name": "Lac",
    "city": "Lac de Creno (1310 m) (Popaya)",
    "description": ""
  },
  {
    "longitude": 2.92306,
    "latitude": 45.47056,
    "name": "Lac",
    "city": "Lac de Bourdouze",
    "description": ""
  },
  {
    "longitude": -0.0947,
    "latitude": 42.77675,
    "name": "Lac",
    "city": "Lac (petit) du Col",
    "description": ""
  },
  {
    "longitude": 9.46397,
    "latitude": 42.61327,
    "name": "Lac",
    "city": "Etang de Biguglia",
    "description": ""
  },
  {
    "longitude": 6.81166,
    "latitude": 44.61694,
    "name": "Lac",
    "city": "Lac Sainte Anne (2414 m)",
    "description": ""
  },
  {
    "longitude": -0.06197,
    "latitude": 42.82965,
    "name": "Lac",
    "city": "Lac de Badet",
    "description": ""
  },
  {
    "longitude": 5.93751,
    "latitude": 45.05437,
    "name": "Lac",
    "city": "Lac de La Vache",
    "description": ""
  },
  {
    "longitude": 5.98901,
    "latitude": 45.49467,
    "name": "Lac",
    "city": "Lac Saint Andre (Les Marches) (292 m)",
    "description": ""
  },
  {
    "longitude": 5.5303,
    "latitude": 45.45636,
    "name": "Lac",
    "city": "Lac de Paladru (492 m)",
    "description": ""
  },
  {
    "longitude": 2.19448,
    "latitude": 45.08152,
    "name": "Lac",
    "city": "Lac-Barrage d'Enchanet",
    "description": ""
  },
  {
    "longitude": 2.85389,
    "latitude": 45.50806,
    "name": "Lac",
    "city": "Lac des Hermines (Super Besse)",
    "description": ""
  },
  {
    "longitude": 2.44414,
    "latitude": 51.03671,
    "name": "Lac",
    "city": "Lac du Puythouck (Dunkerque)",
    "description": ""
  },
  {
    "longitude": 6.86265,
    "latitude": 46.26489,
    "name": "Lac",
    "city": "Lac des Conches",
    "description": ""
  },
  {
    "longitude": 4.0298,
    "latitude": 43.56034,
    "name": "Lac",
    "city": "Etang de l'Or (Mauguio)",
    "description": ""
  },
  {
    "longitude": 2.99844,
    "latitude": 42.96823,
    "name": "Lac",
    "city": "Etang de La Palme",
    "description": ""
  },
  {
    "longitude": 1.11773,
    "latitude": 42.76897,
    "name": "Lac",
    "city": "Etang de Prat Matou",
    "description": ""
  },
  {
    "longitude": 2.45046,
    "latitude": 48.77672,
    "name": "Lac",
    "city": "Lac de Creteil",
    "description": ""
  },
  {
    "longitude": 9.12111,
    "latitude": 42.04722,
    "name": "Lac",
    "city": "Lac de Vitalaca (1777 m)",
    "description": ""
  },
  {
    "longitude": 6.84349,
    "latitude": 45.96139,
    "name": "Lac",
    "city": "Lac Petit",
    "description": ""
  },
  {
    "longitude": 2.2107,
    "latitude": 48.5493,
    "name": "Lac",
    "city": "Etang du Stade a Boissy sous Saint Yon",
    "description": ""
  },
  {
    "longitude": 4.94782,
    "latitude": 45.79588,
    "name": "Lac",
    "city": "Lac de Miribel Jonage",
    "description": ""
  },
  {
    "longitude": 0.44383,
    "latitude": 42.74026,
    "name": "Lac",
    "city": "Lac de Hourgade",
    "description": ""
  },
  {
    "longitude": 2.51325,
    "latitude": 43.54474,
    "name": "Lac",
    "city": "Lac-Barrage des Saints Peyres (Blanpastre Angles)",
    "description": ""
  },
  {
    "longitude": 1.95332,
    "latitude": 45.85793,
    "name": "Lac",
    "city": "Lac-Barrage de La Vaud Gelade (Vassiviere)",
    "description": ""
  },
  {
    "longitude": 4.06916,
    "latitude": 47.18725,
    "name": "Lac",
    "city": "Lac-Barrage des Settons (Les Branlasses Montsauche)",
    "description": ""
  },
  {
    "longitude": 9.24339,
    "latitude": 41.46512,
    "name": "Lac",
    "city": "Lac Tre Paduli",
    "description": ""
  },
  {
    "longitude": 2.52234,
    "latitude": 47.09525,
    "name": "Lac",
    "city": "Greenlake a Moulins sur Yevre",
    "description": ""
  },
  {
    "longitude": 0.61293,
    "latitude": 48.29522,
    "name": "Lac",
    "city": "Moulin de Gemages",
    "description": ""
  },
  {
    "longitude": 2.68139,
    "latitude": 45.405,
    "name": "Lac",
    "city": "Lac-Barrage de Lastioules",
    "description": ""
  },
  {
    "longitude": 1.38234,
    "latitude": 42.80812,
    "name": "Lac",
    "city": "Etang de Lers",
    "description": ""
  },
  {
    "longitude": 5.80688,
    "latitude": 45.56075,
    "name": "Lac",
    "city": "Lac d'Aiguebelette (373 m)",
    "description": ""
  },
  {
    "longitude": -0.05364,
    "latitude": 42.81026,
    "name": "Lac",
    "city": "Lac Noir",
    "description": ""
  },
  {
    "longitude": -0.09118,
    "latitude": 42.76917,
    "name": "Lac",
    "city": "Lac du Pouey Mourou",
    "description": ""
  },
  {
    "longitude": -1.0906,
    "latitude": 45.17953,
    "name": "Lac",
    "city": "Lac de Hourtin Carcans",
    "description": ""
  },
  {
    "longitude": -1.65095,
    "latitude": 47.11342,
    "name": "Lac",
    "city": "Lac de Grand Lieu",
    "description": ""
  },
  {
    "longitude": 6.85482,
    "latitude": 46.26256,
    "name": "Lac",
    "city": "Lac de La Mouille (Chatel) (1570 m)",
    "description": ""
  },
  {
    "longitude": 2.32482,
    "latitude": 46.18059,
    "name": "Lac",
    "city": "Etang des Landes",
    "description": ""
  },
  {
    "longitude": 4.76066,
    "latitude": 49.67359,
    "name": "Lac",
    "city": "Etang d'Alger�a Elan",
    "description": ""
  },
  {
    "longitude": 6.95627,
    "latitude": 48.06317,
    "name": "Lac",
    "city": "Lac de Xonrupt Longemer",
    "description": ""
  },
  {
    "longitude": 0.7873,
    "latitude": 47.50376,
    "name": "Lac",
    "city": "Reservoir des Grands Chenes (Monnaie)",
    "description": ""
  },
  {
    "longitude": 0.28764,
    "latitude": 44.79146,
    "name": "Lac",
    "city": "Chateau des Vigiers (Razac de Saussignac)",
    "description": ""
  },
  {
    "longitude": 4.54091,
    "latitude": 46.78161,
    "name": "Lac",
    "city": "Lac-Reservoir de Montaubry",
    "description": ""
  },
  {
    "longitude": -1.52718,
    "latitude": 43.34484,
    "name": "Lac",
    "city": "Lac de Saint Pee-Nivelle",
    "description": ""
  },
  {
    "longitude": 5.88076,
    "latitude": 48.19603,
    "name": "Lac",
    "city": "Lac de La Folie",
    "description": ""
  },
  {
    "longitude": 6.42324,
    "latitude": 46.35978,
    "name": "Lac",
    "city": "Lac Leman (partie Fran�aise) (372 m)",
    "description": ""
  },
  {
    "longitude": 1.03188,
    "latitude": 43.21151,
    "name": "Lac",
    "city": "Reservoir Federal du Pont des Meuniers (Martres-Tolosane)",
    "description": ""
  },
  {
    "longitude": 6.43414,
    "latitude": 44.42819,
    "name": "Lac",
    "city": "Lac du Lauzet Ubaye (850 m)",
    "description": ""
  },
  {
    "longitude": 6.08924,
    "latitude": 45.12558,
    "name": "Lac",
    "city": "Lac Faucille",
    "description": ""
  },
  {
    "longitude": 6.61852,
    "latitude": 46.29797,
    "name": "Lac",
    "city": "Lac du Jotty (Vallee d'Aups) (645 m)",
    "description": ""
  },
  {
    "longitude": 6.08825,
    "latitude": 45.11691,
    "name": "Lac",
    "city": "Lac Rond",
    "description": ""
  },
  {
    "longitude": 2.99889,
    "latitude": 45.68861,
    "name": "Lac",
    "city": "Lac de la Cassiere",
    "description": ""
  },
  {
    "longitude": 5.7475,
    "latitude": 46.41594,
    "name": "Lac",
    "city": "Lac d'Antre",
    "description": ""
  },
  {
    "longitude": 5.65605,
    "latitude": 46.16116,
    "name": "Lac",
    "city": "Lac de Sylans (Les Neyrolles) (584 m)",
    "description": ""
  },
  {
    "longitude": 6.08749,
    "latitude": 45.11866,
    "name": "Lac",
    "city": "Lac Besson (2060 m)",
    "description": ""
  },
  {
    "longitude": 9.15222,
    "latitude": 42.04416,
    "name": "Lac",
    "city": "Lac de Rina Soprano (1882 m)",
    "description": ""
  },
  {
    "longitude": 2.86995,
    "latitude": 44.50825,
    "name": "Lac",
    "city": "Lac-Barrage de Castelnau Lassouts",
    "description": ""
  },
  {
    "longitude": 6.99568,
    "latitude": 45.47871,
    "name": "Lac",
    "city": "Lac du Grand Creux (Val d'Isere)",
    "description": ""
  },
  {
    "longitude": 1.98802,
    "latitude": 45.39251,
    "name": "Lac",
    "city": "Etang de Seugnac a Rosiers d'Egletons",
    "description": ""
  },
  {
    "longitude": 2.22631,
    "latitude": 45.24327,
    "name": "Lac",
    "city": "Lac-Barrage de l'Aigle",
    "description": ""
  },
  {
    "longitude": -3.43247,
    "latitude": 48.27973,
    "name": "Lac",
    "city": "Etangs des Sources (Mael Carhaix)",
    "description": ""
  },
  {
    "longitude": 2.66424,
    "latitude": 44.66356,
    "name": "Lac",
    "city": "Lac-Barrage de Maury",
    "description": ""
  },
  {
    "longitude": 6.98717,
    "latitude": 48.0556,
    "name": "Lac",
    "city": "Lac de Retournemer (Longemer)",
    "description": ""
  },
  {
    "longitude": 4.15724,
    "latitude": 47.27249,
    "name": "Lac",
    "city": "Le Neptune",
    "description": ""
  },
  {
    "longitude": -0.5924,
    "latitude": 47.45984,
    "name": "Lac",
    "city": "Lac de Maine (Angers)",
    "description": ""
  },
  {
    "longitude": -0.30271,
    "latitude": 42.86427,
    "name": "Lac",
    "city": "Lac de Balbieth",
    "description": ""
  },
  {
    "longitude": 7.10607,
    "latitude": 48.06609,
    "name": "Lac",
    "city": "Etang de Soultzeren (grand)",
    "description": ""
  },
  {
    "longitude": 6.91776,
    "latitude": 47.84864,
    "name": "Lac",
    "city": "Lac des Perches ou Sternsee",
    "description": ""
  },
  {
    "longitude": 0.21253,
    "latitude": 42.73316,
    "name": "Lac",
    "city": "Lac de Hechempy",
    "description": ""
  },
  {
    "longitude": 2.24316,
    "latitude": 48.86322,
    "name": "Lac",
    "city": "Etang-Reservoir de Boulogne",
    "description": ""
  },
  {
    "longitude": 2.695,
    "latitude": 45.41611,
    "name": "Lac",
    "city": "Lac de la Cregut",
    "description": ""
  },
  {
    "longitude": 6.89999,
    "latitude": 45.46608,
    "name": "Lac",
    "city": "Lac-Barrage de Tignes",
    "description": ""
  },
  {
    "longitude": 8.99248,
    "latitude": 41.96178,
    "name": "Lac",
    "city": "Lac de Tolla (552 m) (Bastelica)",
    "description": ""
  },
  {
    "longitude": 5.80533,
    "latitude": 46.50683,
    "name": "Lac",
    "city": "Lacs d'Etival (petit)",
    "description": ""
  },
  {
    "longitude": 2.11705,
    "latitude": 48.78207,
    "name": "Lac",
    "city": "Etang de la Martiniere",
    "description": ""
  },
  {
    "longitude": 2.92612,
    "latitude": 45.38449,
    "name": "Lac",
    "city": "Lac d'en Bas (La Godivelle)",
    "description": ""
  },
  {
    "longitude": 9.20666,
    "latitude": 41.66886,
    "name": "Lac",
    "city": "Lac-Barrage de l'Ospedale (945 m)",
    "description": ""
  },
  {
    "longitude": 6.58842,
    "latitude": 44.98875,
    "name": "Lac",
    "city": "Lac Rond",
    "description": ""
  },
  {
    "longitude": 3.16672,
    "latitude": 50.63802,
    "name": "Lac",
    "city": "Lac du Heron (Villeneuve d'Ascq)",
    "description": ""
  },
  {
    "longitude": -0.17674,
    "latitude": 42.86383,
    "name": "Lac",
    "city": "Lac Bleu d'Ilheou",
    "description": ""
  },
  {
    "longitude": 0.1437,
    "latitude": 42.84055,
    "name": "Lac",
    "city": "Lac d'Aubert",
    "description": ""
  },
  {
    "longitude": 2.16474,
    "latitude": 48.74226,
    "name": "Lac",
    "city": "Etangs de Saclay",
    "description": ""
  },
  {
    "longitude": 4.20641,
    "latitude": 45.04404,
    "name": "Lac",
    "city": "Moulins du Bouchat (Mazet Saint Voy)",
    "description": ""
  },
  {
    "longitude": 9.04131,
    "latitude": 42.21904,
    "name": "Lac",
    "city": "Lac de Cavacciole (2015 m)",
    "description": ""
  },
  {
    "longitude": 6.81134,
    "latitude": 45.92477,
    "name": "Lac",
    "city": "Lac de l'Aiguiellette",
    "description": ""
  },
  {
    "longitude": -0.25908,
    "latitude": 42.91554,
    "name": "Lac",
    "city": "Lac du Tech (1200 m)",
    "description": ""
  },
  {
    "longitude": 2.42175,
    "latitude": 48.84181,
    "name": "Lac",
    "city": "Lac Saint Mande",
    "description": ""
  },
  {
    "longitude": 3.38676,
    "latitude": 43.64608,
    "name": "Lac",
    "city": "Lac-Barrage du Salagou",
    "description": ""
  },
  {
    "longitude": 6.27292,
    "latitude": 46.77107,
    "name": "Lac",
    "city": "Lac de Remoray",
    "description": ""
  },
  {
    "longitude": -0.30523,
    "latitude": 42.89781,
    "name": "Lac",
    "city": "Lac du Pouey Laun",
    "description": ""
  },
  {
    "longitude": 8.90833,
    "latitude": 42.41277,
    "name": "Lac",
    "city": "Lac de La Muvrella (1868 m)",
    "description": ""
  },
  {
    "longitude": 1.85217,
    "latitude": 45.81456,
    "name": "Lac",
    "city": "Lac-Barrage de Vassiviere",
    "description": ""
  },
  {
    "longitude": 5.93405,
    "latitude": 45.05401,
    "name": "Lac",
    "city": "Lac Noir",
    "description": ""
  },
  {
    "longitude": 6.03469,
    "latitude": 43.69448,
    "name": "Lac",
    "city": "Lac-Barrage de Quinson",
    "description": ""
  },
  {
    "longitude": 2.0703,
    "latitude": 43.90937,
    "name": "Lac",
    "city": "Reservoirs de la Borie Blanche",
    "description": ""
  },
  {
    "longitude": 3.61583,
    "latitude": 47.18097,
    "name": "Lac",
    "city": "Etangs de Vaux et de Baye (La Colancelle)",
    "description": ""
  },
  {
    "longitude": 6.42525,
    "latitude": 45.00786,
    "name": "Lac",
    "city": "Lac de Combeynot (2555 m)",
    "description": ""
  },
  {
    "longitude": 3.71411,
    "latitude": 45.24775,
    "name": "Lac",
    "city": "Lac de Malaguet",
    "description": ""
  },
  {
    "longitude": 4.6305,
    "latitude": 49.91163,
    "name": "Lac",
    "city": "Bassin des Marquisades (Revin)",
    "description": ""
  },
  {
    "longitude": 2.97036,
    "latitude": 43.08286,
    "name": "Lac",
    "city": "Etang de Sigean (Peyriac de Mer)",
    "description": ""
  },
  {
    "longitude": 5.7705,
    "latitude": 44.97823,
    "name": "Lac",
    "city": "Lac de Pierre Taillefer (923 m)",
    "description": ""
  },
  {
    "longitude": 2.97151,
    "latitude": 43.10951,
    "name": "Lac",
    "city": "Etang de Bages",
    "description": ""
  },
  {
    "longitude": 6.82759,
    "latitude": 45.92889,
    "name": "Lac",
    "city": "Lac du Brevent (2125 m)",
    "description": ""
  },
  {
    "longitude": 5.68805,
    "latitude": 44.95949,
    "name": "Lac",
    "city": "Lac de Monteynard Avignonet (630 m)",
    "description": ""
  },
  {
    "longitude": 6.38549,
    "latitude": 44.74386,
    "name": "Lac",
    "city": "Lac du Lauzeron",
    "description": ""
  },
  {
    "longitude": 5.7501,
    "latitude": 43.94436,
    "name": "Lac",
    "city": "Lac de La Laye",
    "description": ""
  },
  {
    "longitude": 6.94714,
    "latitude": 48.05364,
    "name": "Lac",
    "city": "Lac de Lispach (La Bresse)",
    "description": ""
  },
  {
    "longitude": 0.84146,
    "latitude": 48.53448,
    "name": "Lac",
    "city": "Etang des Personnes",
    "description": ""
  },
  {
    "longitude": 2.51297,
    "latitude": 42.64727,
    "name": "Lac",
    "city": "Lac-Barrage de Vin�a",
    "description": ""
  },
  {
    "longitude": 1.97115,
    "latitude": 42.97655,
    "name": "Lac",
    "city": "Lac-Barrage de Montbel",
    "description": ""
  },
  {
    "longitude": 6.57792,
    "latitude": 46.10385,
    "name": "Lac",
    "city": "Lac de Flerier",
    "description": ""
  },
  {
    "longitude": 8.98441,
    "latitude": 42.39257,
    "name": "Lac",
    "city": "Lac Maggiorre (2267 m)",
    "description": ""
  },
  {
    "longitude": 8.99444,
    "latitude": 42.21666,
    "name": "Lac",
    "city": "Lac de Sorbi (2060 m) (Pozzane)",
    "description": ""
  },
  {
    "longitude": 0.56783,
    "latitude": 42.71405,
    "name": "Lac",
    "city": "Lac Vert",
    "description": ""
  },
  {
    "longitude": 6.78336,
    "latitude": 44.57896,
    "name": "Lac",
    "city": "Lac Bleu (2647 m)",
    "description": ""
  },
  {
    "longitude": 5.46812,
    "latitude": 49.09178,
    "name": "Lac",
    "city": "Reservoir de Sommedieue",
    "description": ""
  },
  {
    "longitude": 9.40338,
    "latitude": 41.94399,
    "name": "Lac",
    "city": "Etang de Palo (Ventiseri)",
    "description": ""
  },
  {
    "longitude": 6.2458,
    "latitude": 44.77208,
    "name": "Lac",
    "city": "Lac Inferieur de Crupillouse (2640 m)",
    "description": ""
  },
  {
    "longitude": 2.59758,
    "latitude": 43.59556,
    "name": "Lac",
    "city": "Lac-Barrage de la Raviege (Lamontelarie)",
    "description": ""
  },
  {
    "longitude": 2.05532,
    "latitude": 47.52452,
    "name": "Lac",
    "city": "Etang des Levrys",
    "description": ""
  },
  {
    "longitude": 2.72129,
    "latitude": 44.26657,
    "name": "Lac",
    "city": "Lac de Bage",
    "description": ""
  },
  {
    "longitude": 6.73304,
    "latitude": 44.93342,
    "name": "Lac",
    "city": "Lac-Reservoir de Montgenevre",
    "description": ""
  },
  {
    "longitude": 0.83805,
    "latitude": 48.56712,
    "name": "Lac",
    "city": "Etang de Rumien",
    "description": ""
  },
  {
    "longitude": 1.08515,
    "latitude": 42.80971,
    "name": "Lac",
    "city": "Etang de Cruzous",
    "description": ""
  },
  {
    "longitude": 2.91,
    "latitude": 45.89323,
    "name": "Lac",
    "city": "Etang du Barbot (Pulverieres)",
    "description": ""
  },
  {
    "longitude": 4.73901,
    "latitude": 44.30398,
    "name": "Lac",
    "city": "Lac-Barrage de Bollene",
    "description": ""
  },
  {
    "longitude": 2.43989,
    "latitude": 45.85899,
    "name": "Lac",
    "city": "Etang du Moulin a Basville",
    "description": ""
  },
  {
    "longitude": 9.05874,
    "latitude": 42.228,
    "name": "Lac",
    "city": "Lac de l'Oriente (2061 m)",
    "description": ""
  },
  {
    "longitude": 3.42526,
    "latitude": 48.46899,
    "name": "Lac",
    "city": "Lac-Reservoir du Chateau de la Motte Tilly",
    "description": ""
  },
  {
    "longitude": 6.84898,
    "latitude": 44.53934,
    "name": "Lac",
    "city": "Lac Noir (2435 m)",
    "description": ""
  },
  {
    "longitude": 7.06309,
    "latitude": 48.08682,
    "name": "Lac",
    "city": "Lac Vert (Soultzeren)",
    "description": ""
  },
  {
    "longitude": 2.85361,
    "latitude": 45.64778,
    "name": "Lac",
    "city": "Lac Serviere",
    "description": ""
  },
  {
    "longitude": 9.01209,
    "latitude": 42.21218,
    "name": "Lac",
    "city": "Lac de Capitello (1930 m) (Pozzane)",
    "description": ""
  },
  {
    "longitude": -0.20303,
    "latitude": 42.8434,
    "name": "Lac",
    "city": "Lac du Pourtet (Marcadau) (2420 m)",
    "description": ""
  },
  {
    "longitude": 5.25249,
    "latitude": 47.87988,
    "name": "Lac",
    "city": "Lac de La Mouche (Saint Ciergues)",
    "description": ""
  },
  {
    "longitude": -0.29573,
    "latitude": 42.85599,
    "name": "Lac",
    "city": "Lac de Batgrabere Inferieur",
    "description": ""
  },
  {
    "longitude": 7.39718,
    "latitude": 44.10268,
    "name": "Lac",
    "city": "Lac de La Fous",
    "description": ""
  },
  {
    "longitude": 7.027,
    "latitude": 48.02929,
    "name": "Lac",
    "city": "Lac du Schiessrothried",
    "description": ""
  },
  {
    "longitude": -0.22238,
    "latitude": 42.82702,
    "name": "Lac",
    "city": "Lac d'Opale",
    "description": ""
  },
  {
    "longitude": -0.22498,
    "latitude": 42.82962,
    "name": "Lac",
    "city": "Lac de Cambales",
    "description": ""
  },
  {
    "longitude": 0.54949,
    "latitude": 42.71416,
    "name": "Lac",
    "city": "Lac d'Enfer",
    "description": ""
  },
  {
    "longitude": 8.94638,
    "latitude": 42.58666,
    "name": "Lac",
    "city": "Lac de Codole (108 m)",
    "description": ""
  },
  {
    "longitude": 6.40158,
    "latitude": 44.52755,
    "name": "Lac",
    "city": "Lac-Barrage de Serre Pon�on (Savinnes le lac)",
    "description": ""
  },
  {
    "longitude": 6.97747,
    "latitude": 45.47929,
    "name": "Lac",
    "city": "Lac du Plan de Cheval (Tignes)",
    "description": ""
  },
  {
    "longitude": 5.32019,
    "latitude": 47.74714,
    "name": "Lac",
    "city": "Lac de la Vingeanne (Longeau Percey)",
    "description": ""
  }
]