[
  {
    "latitude": 1.71529,
    "longitude": 50.49419,
    "name": "E.Leclerc Petrol Station (0-24)",
    "city": "F-Attin",
    "description": ""
  },
  {
    "latitude": 2.57444,
    "longitude": 48.3608,
    "name": "E.Leclerc Petrol Station (0-24)",
    "city": "F-Acheres La Foret",
    "description": ""
  },
  {
    "latitude": -1.4255,
    "longitude": 43.64554,
    "name": "E.Leclerc Petrol Station (0-24)",
    "city": "F-Capbreton",
    "description": ""
  },
  {
    "latitude": 3.54078,
    "longitude": 48.8735,
    "name": "E.Leclerc Petrol Station (0-24)",
    "city": "F-Montmirail",
    "description": ""
  },
  {
    "latitude": -3.34678,
    "longitude": 47.7654,
    "name": "E.Leclerc Petrol Station (0-24)",
    "city": "F-Lanester",
    "description": ""
  },
  {
    "latitude": 6.13149,
    "longitude": 43.1074,
    "name": "E.Leclerc Petrol Station (0-24)",
    "city": "F-Hyeres",
    "description": ""
  },
  {
    "latitude": -3.00695,
    "longitude": 47.66218,
    "name": "E.Leclerc Petrol Station (0-24)",
    "city": "F-Auray",
    "description": ""
  },
  {
    "latitude": 1.3791,
    "longitude": 44.03855,
    "name": "E.Leclerc Petrol Station (0-24)",
    "city": "F-Montauban",
    "description": ""
  },
  {
    "latitude": 1.038,
    "longitude": 49.51372,
    "name": "E.Leclerc Petrol Station (0-24)",
    "city": "F-Le Houlme",
    "description": ""
  },
  {
    "latitude": 3.31383,
    "longitude": 46.58766,
    "name": "E.Leclerc Petrol Station (0-24)",
    "city": "F-Avermes",
    "description": ""
  },
  {
    "latitude": 5.27007,
    "longitude": 43.4257,
    "name": "E.Leclerc Petrol Station (0-24)",
    "city": "F-Vitrolles",
    "description": ""
  },
  {
    "latitude": 4.46975,
    "longitude": 45.88249,
    "name": "E.Leclerc Petrol Station (0-24)",
    "city": "F-Saint Loup",
    "description": ""
  },
  {
    "latitude": 1.51686,
    "longitude": 43.56575,
    "name": "E.Leclerc Petrol Station (0-24)",
    "city": "F-Saint Orens De Gameville",
    "description": ""
  },
  {
    "latitude": 5.693,
    "longitude": 45.14887,
    "name": "E.Leclerc Petrol Station (0-24)",
    "city": "F-Echirolles",
    "description": ""
  },
  {
    "latitude": 2.27214,
    "longitude": 49.15048,
    "name": "E.Leclerc Petrol Station (0-24)",
    "city": "F-Persan",
    "description": ""
  },
  {
    "latitude": 2.56636,
    "longitude": 46.36775,
    "name": "E.Leclerc Petrol Station (0-24)",
    "city": "F-Domerat",
    "description": ""
  },
  {
    "latitude": 4.92709,
    "longitude": 45.64993,
    "name": "E.Leclerc Petrol Station (0-24)",
    "city": "F-Chaponnay",
    "description": ""
  },
  {
    "latitude": 4.8511,
    "longitude": 45.54221,
    "name": "E.Leclerc Petrol Station (0-24)",
    "city": "F-Vienne",
    "description": ""
  },
  {
    "latitude": 2.54241,
    "longitude": 50.71515,
    "name": "E.Leclerc Petrol Station (0-24)",
    "city": "F-Hazebrouck",
    "description": ""
  },
  {
    "latitude": 6.53539,
    "longitude": 43.249,
    "name": "E.Leclerc Petrol Station (0-24)",
    "city": "F-Cogolin",
    "description": ""
  },
  {
    "latitude": 0.1062,
    "longitude": 43.2684,
    "name": "E.Leclerc Petrol Station (0-24)",
    "city": "F-Orleix",
    "description": ""
  },
  {
    "latitude": 3.96323,
    "longitude": 49.06535,
    "name": "E.Leclerc Petrol Station (0-24)",
    "city": "F-Dizy",
    "description": ""
  },
  {
    "latitude": 7.04282,
    "longitude": 48.73301,
    "name": "E.Leclerc Petrol Station (0-24)",
    "city": "F-Sarrebourg",
    "description": ""
  },
  {
    "latitude": -1.06629,
    "longitude": 48.56678,
    "name": "E.Leclerc Petrol Station (0-24)",
    "city": "F-Saint Hilaire Du Harcouet",
    "description": ""
  },
  {
    "latitude": 2.77753,
    "longitude": 50.291,
    "name": "E.Leclerc Petrol Station (0-24)",
    "city": "F-Saint Nicolas Les Arras",
    "description": ""
  },
  {
    "latitude": 1.99122,
    "longitude": 44.36026,
    "name": "E.Leclerc Petrol Station (0-24)",
    "city": "F-Villefranche De Rouergue",
    "description": ""
  },
  {
    "latitude": 2.94398,
    "longitude": 48.37457,
    "name": "E.Leclerc Petrol Station (0-24)",
    "city": "F-Varennes Sur Seine",
    "description": ""
  },
  {
    "latitude": 4.38425,
    "longitude": 44.5996,
    "name": "E.Leclerc Petrol Station (0-24)",
    "city": "F-Saint-Etienne De Fontbellon",
    "description": ""
  },
  {
    "latitude": 0.76436,
    "longitude": 43.11789,
    "name": "E.Leclerc Petrol Station (0-24)",
    "city": "F-Estancarbon",
    "description": ""
  },
  {
    "latitude": -0.99362,
    "longitude": 45.62977,
    "name": "E.Leclerc Petrol Station (0-24)",
    "city": "F-Royan",
    "description": ""
  },
  {
    "latitude": 7.33701,
    "longitude": 48.19026,
    "name": "E.Leclerc Petrol Station (0-24)",
    "city": "F-Ribeauville",
    "description": ""
  },
  {
    "latitude": 2.5323,
    "longitude": 48.90622,
    "name": "E.Leclerc Petrol Station (0-24)",
    "city": "F-Clichy Sous Bois",
    "description": ""
  },
  {
    "latitude": 0.73276,
    "longitude": 48.75376,
    "name": "E.Leclerc Petrol Station (0-24)",
    "city": "F-Angres",
    "description": ""
  },
  {
    "latitude": 0.73276,
    "longitude": 48.75376,
    "name": "E.Leclerc Petrol Station (0-24)",
    "city": "F-L'aigle",
    "description": ""
  },
  {
    "latitude": 2.21421,
    "longitude": 43.623,
    "name": "E.Leclerc Petrol Station (0-24)",
    "city": "F-Castres",
    "description": ""
  },
  {
    "latitude": 2.89352,
    "longitude": 42.74015,
    "name": "E.Leclerc Petrol Station (0-24)",
    "city": "F-Perpignan",
    "description": ""
  },
  {
    "latitude": -0.51994,
    "longitude": 45.94595,
    "name": "E.Leclerc Petrol Station (0-24)",
    "city": "F-Saint Jean D'angely",
    "description": ""
  },
  {
    "latitude": 5.90541,
    "longitude": 45.58869,
    "name": "E.Leclerc Petrol Station (0-24)",
    "city": "F-Chambery",
    "description": ""
  },
  {
    "latitude": 6.3345,
    "longitude": 47.14774,
    "name": "E.Leclerc Petrol Station (0-24)",
    "city": "F-Valdahon",
    "description": ""
  },
  {
    "latitude": 6.10492,
    "longitude": 46.24907,
    "name": "E.Leclerc Petrol Station (0-24)",
    "city": "F-Ferney Voltaire",
    "description": ""
  },
  {
    "latitude": 5.86,
    "longitude": 43.1094,
    "name": "E.Leclerc Petrol Station (0-24)",
    "city": "F-La Seyne Sur Mer",
    "description": ""
  },
  {
    "latitude": 6.44904,
    "longitude": 43.4135,
    "name": "E.Leclerc Petrol Station (0-24)",
    "city": "F-Vidauban",
    "description": ""
  },
  {
    "latitude": 1.04406,
    "longitude": 49.45678,
    "name": "E.Leclerc Petrol Station (0-24)",
    "city": "F-Bapeaume Les Rouen",
    "description": ""
  },
  {
    "latitude": 0.09098,
    "longitude": 49.35256,
    "name": "E.Leclerc Petrol Station (0-24)",
    "city": "F-Deauville",
    "description": ""
  },
  {
    "latitude": 2.46436,
    "longitude": 48.94135,
    "name": "E.Leclerc Petrol Station (0-24)",
    "city": "F-Le Blanc Mesnil",
    "description": ""
  },
  {
    "latitude": 1.43259,
    "longitude": 49.73552,
    "name": "E.Leclerc Petrol Station (0-24)",
    "city": "F-Neufchatel En Bray",
    "description": ""
  },
  {
    "latitude": -2.41009,
    "longitude": 47.32878,
    "name": "E.Leclerc Petrol Station (0-24)",
    "city": "F-Guerande",
    "description": ""
  },
  {
    "latitude": 6.17794,
    "longitude": 48.6544,
    "name": "E.Leclerc Petrol Station (0-24)",
    "city": "F-Vandoeuvre Les Nancy",
    "description": ""
  },
  {
    "latitude": 5.64605,
    "longitude": 45.53703,
    "name": "E.Leclerc Petrol Station (0-24)",
    "city": "F-Le Pont De Beauvoisin",
    "description": ""
  },
  {
    "latitude": 2.39917,
    "longitude": 43.49804,
    "name": "E.Leclerc Petrol Station (0-24)",
    "city": "F-Bout Du Pont De L'arn",
    "description": ""
  },
  {
    "latitude": -2.79315,
    "longitude": 47.66837,
    "name": "E.Leclerc Petrol Station (0-24)",
    "city": "F-Vannes",
    "description": ""
  },
  {
    "latitude": 4.85395,
    "longitude": 46.78076,
    "name": "E.Leclerc Petrol Station (0-24)",
    "city": "F-Chalon Sur Saone",
    "description": ""
  },
  {
    "latitude": 2.25644,
    "longitude": 49.15764,
    "name": "E.Leclerc Petrol Station (0-24)",
    "city": "F-Chambly",
    "description": ""
  },
  {
    "latitude": 6.80309,
    "longitude": 47.50432,
    "name": "E.Leclerc Petrol Station (0-24)",
    "city": "F-Montbeliard",
    "description": ""
  },
  {
    "latitude": 3.2935,
    "longitude": 48.54864,
    "name": "E.Leclerc Petrol Station (0-24)",
    "city": "F-Provins",
    "description": ""
  },
  {
    "latitude": 1.04408,
    "longitude": 49.29069,
    "name": "E.Leclerc Petrol Station (0-24)",
    "city": "F-Saint Pierre Les Elbeuf",
    "description": ""
  },
  {
    "latitude": 1.7207,
    "longitude": 44.785,
    "name": "E.Leclerc Petrol Station (0-24)",
    "city": "F-Gramat",
    "description": ""
  },
  {
    "latitude": 2.85017,
    "longitude": 50.10444,
    "name": "E.Leclerc Petrol Station (0-24)",
    "city": "F-Bapaume",
    "description": ""
  },
  {
    "latitude": 2.40789,
    "longitude": 48.74495,
    "name": "E.Leclerc Petrol Station (0-24)",
    "city": "F-Orly",
    "description": ""
  },
  {
    "latitude": 2.43102,
    "longitude": 49.50628,
    "name": "E.Leclerc Petrol Station (0-24)",
    "city": "F-Saint Just Enchaussee",
    "description": ""
  },
  {
    "latitude": 2.42757,
    "longitude": 49.25372,
    "name": "E.Leclerc Petrol Station (0-24)",
    "city": "F-Thiverny",
    "description": ""
  },
  {
    "latitude": -3.14872,
    "longitude": 48.56064,
    "name": "E.Leclerc Petrol Station (0-24)",
    "city": "F-Guingamp",
    "description": ""
  },
  {
    "latitude": 2.83916,
    "longitude": 42.53045,
    "name": "E.Leclerc Petrol Station (0-24)",
    "city": "F-Le Boulou",
    "description": ""
  },
  {
    "latitude": 5.91921,
    "longitude": 46.74598,
    "name": "E.Leclerc Petrol Station (0-24)",
    "city": "F-Champagnole",
    "description": ""
  },
  {
    "latitude": -4.5855,
    "longitude": 48.4277,
    "name": "E.Leclerc Petrol Station (0-24)",
    "city": "F-Guilers",
    "description": ""
  },
  {
    "latitude": 7.90094,
    "longitude": 48.73103,
    "name": "E.Leclerc Petrol Station (0-24)",
    "city": "F-Herrlisheim",
    "description": ""
  },
  {
    "latitude": -4.52105,
    "longitude": 48.57018,
    "name": "E.Leclerc Petrol Station (0-24)",
    "city": "F-Lannilis",
    "description": ""
  },
  {
    "latitude": -1.05171,
    "longitude": 46.7002,
    "name": "E.Leclerc Petrol Station (0-24)",
    "city": "F-Chantonnay",
    "description": ""
  },
  {
    "latitude": 1.47882,
    "longitude": 46.2384,
    "name": "E.Leclerc Petrol Station (0-24)",
    "city": "F-La Souterraine",
    "description": ""
  },
  {
    "latitude": 3.1775,
    "longitude": 47.013,
    "name": "E.Leclerc Petrol Station (0-24)",
    "city": "F-Coulanges Les Nevers",
    "description": ""
  },
  {
    "latitude": 1.62772,
    "longitude": 50.52504,
    "name": "E.Leclerc Petrol Station (0-24)",
    "city": "F-Etaples Sur Mer",
    "description": ""
  },
  {
    "latitude": 2.41825,
    "longitude": 48.79501,
    "name": "E.Leclerc Petrol Station (0-24)",
    "city": "F-Vitry Sur Seine",
    "description": ""
  },
  {
    "latitude": 7.28623,
    "longitude": 47.62124,
    "name": "E.Leclerc Petrol Station (0-24)",
    "city": "F-Altkirch",
    "description": ""
  },
  {
    "latitude": 4.37238,
    "longitude": 46.68237,
    "name": "E.Leclerc Petrol Station (0-24)",
    "city": "F-Montceau Les Mines",
    "description": ""
  },
  {
    "latitude": 5.33357,
    "longitude": 47.83128,
    "name": "E.Leclerc Petrol Station (0-24)",
    "city": "F-Saints Geosmes",
    "description": ""
  },
  {
    "latitude": 3.32354,
    "longitude": 49.84277,
    "name": "E.Leclerc Petrol Station (0-24)",
    "city": "F-Harly",
    "description": ""
  },
  {
    "latitude": -0.62291,
    "longitude": 43.3738,
    "name": "E.Leclerc Petrol Station (0-24)",
    "city": "F-Mourenx",
    "description": ""
  },
  {
    "latitude": 7.0896,
    "longitude": 48.93468,
    "name": "E.Leclerc Petrol Station (0-24)",
    "city": "F-Sarre Union",
    "description": ""
  },
  {
    "latitude": -1.31478,
    "longitude": 46.97578,
    "name": "E.Leclerc Petrol Station (0-24)",
    "city": "F-Montaigu",
    "description": ""
  },
  {
    "latitude": 6.76925,
    "longitude": 47.58103,
    "name": "E.Leclerc Petrol Station (0-24)",
    "city": "F-Hericourt",
    "description": ""
  },
  {
    "latitude": 5.83327,
    "longitude": 48.21069,
    "name": "E.Leclerc Petrol Station (0-24)",
    "city": "F-Contrexeville",
    "description": ""
  },
  {
    "latitude": 3.41012,
    "longitude": 50.12427,
    "name": "E.Leclerc Petrol Station (0-24)",
    "city": "F-Caudry",
    "description": ""
  },
  {
    "latitude": -0.20817,
    "longitude": 48.90779,
    "name": "E.Leclerc Petrol Station (0-24)",
    "city": "F-Falaise",
    "description": ""
  },
  {
    "latitude": -1.35066,
    "longitude": 46.19543,
    "name": "E.Leclerc Petrol Station (0-24)",
    "city": "F-Saint Martin De Re",
    "description": ""
  },
  {
    "latitude": 6.68807,
    "longitude": 43.4584,
    "name": "E.Leclerc Petrol Station (0-24)",
    "city": "F-Puget Sur Argens",
    "description": ""
  },
  {
    "latitude": -3.57401,
    "longitude": 48.27596,
    "name": "E.Leclerc Petrol Station (0-24)",
    "city": "F-Carhaix Plouger",
    "description": ""
  },
  {
    "latitude": 4.01318,
    "longitude": 49.19837,
    "name": "E.Leclerc Petrol Station (0-24)",
    "city": "F-Champfleury",
    "description": ""
  },
  {
    "latitude": 1.15619,
    "longitude": 49.07774,
    "name": "E.Leclerc Petrol Station (0-24)",
    "city": "F-Normanville",
    "description": ""
  },
  {
    "latitude": -3.31614,
    "longitude": 48.23552,
    "name": "E.Leclerc Petrol Station (0-24)",
    "city": "F-Rostrenen",
    "description": ""
  },
  {
    "latitude": 6.09154,
    "longitude": 45.89201,
    "name": "E.Leclerc Petrol Station (0-24)",
    "city": "F-Cran Gevrier",
    "description": ""
  },
  {
    "latitude": 0.60623,
    "longitude": 47.40402,
    "name": "E.Leclerc Petrol Station (0-24)",
    "city": "F-Fondettes",
    "description": ""
  },
  {
    "latitude": 4.80052,
    "longitude": 44.70917,
    "name": "E.Leclerc Petrol Station (0-24)",
    "city": "F-Saulce Sur Rhone",
    "description": ""
  },
  {
    "latitude": 2.8795,
    "longitude": 48.93832,
    "name": "E.Leclerc Petrol Station (0-24)",
    "city": "F-Mareuil Les Meaux",
    "description": ""
  },
  {
    "latitude": -4.34649,
    "longitude": 48.38691,
    "name": "E.Leclerc Petrol Station (0-24)",
    "city": "F-Plougastel Daoulas",
    "description": ""
  },
  {
    "latitude": 1.00441,
    "longitude": 47.11021,
    "name": "E.Leclerc Petrol Station (0-24)",
    "city": "F-Loches",
    "description": ""
  },
  {
    "latitude": 4.82398,
    "longitude": 45.89049,
    "name": "E.Leclerc Petrol Station (0-24)",
    "city": "F-Genay",
    "description": ""
  },
  {
    "latitude": 4.75695,
    "longitude": 44.5678,
    "name": "E.Leclerc Petrol Station (0-24)",
    "city": "F-Montelimar",
    "description": ""
  },
  {
    "latitude": 1.45987,
    "longitude": 48.86391,
    "name": "E.Leclerc Petrol Station (0-24)",
    "city": "F-Anet",
    "description": ""
  },
  {
    "latitude": -1.01534,
    "longitude": 46.85778,
    "name": "E.Leclerc Petrol Station (0-24)",
    "city": "F-Les Herbiers",
    "description": ""
  },
  {
    "latitude": -4.24844,
    "longitude": 48.45082,
    "name": "E.Leclerc Petrol Station (0-24)",
    "city": "F-Saint Thonan",
    "description": ""
  },
  {
    "latitude": 1.59255,
    "longitude": 50.70651,
    "name": "E.Leclerc Petrol Station (0-24)",
    "city": "F-Outreau",
    "description": ""
  },
  {
    "latitude": 1.26927,
    "longitude": 45.86916,
    "name": "E.Leclerc Petrol Station (0-24)",
    "city": "F-Limoges",
    "description": ""
  },
  {
    "latitude": -1.89591,
    "longitude": 46.85444,
    "name": "E.Leclerc Petrol Station (0-24)",
    "city": "F-Challans",
    "description": ""
  },
  {
    "latitude": 3.09954,
    "longitude": 49.24068,
    "name": "E.Leclerc Petrol Station (0-24)",
    "city": "F-Beautor",
    "description": ""
  },
  {
    "latitude": 3.09954,
    "longitude": 49.24068,
    "name": "E.Leclerc Petrol Station (0-24)",
    "city": "F-Villers Cotterets",
    "description": ""
  },
  {
    "latitude": 3.94475,
    "longitude": 49.02495,
    "name": "E.Leclerc Petrol Station (0-24)",
    "city": "F-Pierry",
    "description": ""
  },
  {
    "latitude": 5.80292,
    "longitude": 43.8397,
    "name": "E.Leclerc Petrol Station (0-24)",
    "city": "F-Manosque",
    "description": ""
  },
  {
    "latitude": 6.39208,
    "longitude": 47.79261,
    "name": "E.Leclerc Petrol Station (0-24)",
    "city": "F-Saint Sauveur",
    "description": ""
  },
  {
    "latitude": 7.24407,
    "longitude": 47.90203,
    "name": "E.Leclerc Petrol Station (0-24)",
    "city": "F-Issenheim",
    "description": ""
  },
  {
    "latitude": 2.44319,
    "longitude": 48.72058,
    "name": "E.Leclerc Petrol Station (0-24)",
    "city": "F-Montgeron",
    "description": ""
  },
  {
    "latitude": -0.4812,
    "longitude": 43.8668,
    "name": "E.Leclerc Petrol Station (0-24)",
    "city": "F-Saint Pierre Du Mont",
    "description": ""
  },
  {
    "latitude": -1.77495,
    "longitude": 46.52523,
    "name": "E.Leclerc Petrol Station (0-24)",
    "city": "F-Olonne Sur Mer",
    "description": ""
  },
  {
    "latitude": 3.17485,
    "longitude": 50.52216,
    "name": "E.Leclerc Petrol Station (0-24)",
    "city": "F-Templeuve",
    "description": ""
  },
  {
    "latitude": -0.33867,
    "longitude": 45.6852,
    "name": "E.Leclerc Petrol Station (0-24)",
    "city": "F-Cognac",
    "description": ""
  },
  {
    "latitude": -3.24001,
    "longitude": 47.7641,
    "name": "E.Leclerc Petrol Station (0-24)",
    "city": "F-Kervignac",
    "description": ""
  },
  {
    "latitude": 5.38044,
    "longitude": 49.1652,
    "name": "E.Leclerc Petrol Station (0-24)",
    "city": "F-Verdun",
    "description": ""
  },
  {
    "latitude": 4.9636,
    "longitude": 43.523,
    "name": "E.Leclerc Petrol Station (0-24)",
    "city": "F-Istres",
    "description": ""
  },
  {
    "latitude": 2.92462,
    "longitude": 49.51611,
    "name": "E.Leclerc Petrol Station (0-24)",
    "city": "F-Ribecourt-Dreslincourt",
    "description": ""
  },
  {
    "latitude": 1.84388,
    "longitude": 44.9245,
    "name": "E.Leclerc Petrol Station (0-24)",
    "city": "F-Biars Sur Cere",
    "description": ""
  },
  {
    "latitude": 6.80672,
    "longitude": 43.4328,
    "name": "E.Leclerc Petrol Station (0-24)",
    "city": "F-Saint Raphael",
    "description": ""
  },
  {
    "latitude": 1.35481,
    "longitude": 44.00507,
    "name": "E.Leclerc Petrol Station (0-24)",
    "city": "F-Montauban",
    "description": ""
  },
  {
    "latitude": 7.71734,
    "longitude": 48.52258,
    "name": "E.Leclerc Petrol Station (0-24)",
    "city": "F-Illkirch-Graffenstaden",
    "description": ""
  },
  {
    "latitude": 7.57521,
    "longitude": 48.7578,
    "name": "E.Leclerc Petrol Station (0-24)",
    "city": "F-Hochfelden",
    "description": ""
  },
  {
    "latitude": 2.58403,
    "longitude": 49.6483,
    "name": "E.Leclerc Petrol Station (0-24)",
    "city": "F-Montdidier",
    "description": ""
  },
  {
    "latitude": 2.7328,
    "longitude": 47.97809,
    "name": "E.Leclerc Petrol Station (0-24)",
    "city": "F-Amilly",
    "description": ""
  },
  {
    "latitude": 4.28509,
    "longitude": 45.53595,
    "name": "E.Leclerc Petrol Station (0-24)",
    "city": "F-Andrezieux Boutheon",
    "description": ""
  },
  {
    "latitude": -0.07781,
    "longitude": 47.25688,
    "name": "E.Leclerc Petrol Station (0-24)",
    "city": "F-Saumur",
    "description": ""
  },
  {
    "latitude": 1.54614,
    "longitude": 45.16681,
    "name": "E.Leclerc Petrol Station (0-24)",
    "city": "F-Brive",
    "description": ""
  },
  {
    "latitude": -2.54537,
    "longitude": 47.96111,
    "name": "E.Leclerc Petrol Station (0-24)",
    "city": "F-Josselin",
    "description": ""
  },
  {
    "latitude": 3.06664,
    "longitude": 49.73241,
    "name": "E.Leclerc Petrol Station (0-24)",
    "city": "F-Muille-Villette",
    "description": ""
  },
  {
    "latitude": -1.42644,
    "longitude": 46.67051,
    "name": "E.Leclerc Petrol Station (0-24)",
    "city": "F-La Roche Sur Yon",
    "description": ""
  },
  {
    "latitude": 3.97698,
    "longitude": 47.86922,
    "name": "E.Leclerc Petrol Station (0-24)",
    "city": "F-Tonnerre",
    "description": ""
  },
  {
    "latitude": 0.56364,
    "longitude": 45.74282,
    "name": "E.Leclerc Petrol Station (0-24)",
    "city": "F-Flers De L'orne",
    "description": ""
  },
  {
    "latitude": 1.51785,
    "longitude": 43.67057,
    "name": "E.Leclerc Petrol Station (0-24)",
    "city": "F-Rouffiac Tolosan",
    "description": ""
  },
  {
    "latitude": 2.13683,
    "longitude": 48.43528,
    "name": "E.Leclerc Petrol Station (0-24)",
    "city": "F-Etampes",
    "description": ""
  },
  {
    "latitude": 7.68949,
    "longitude": 48.52547,
    "name": "E.Leclerc Petrol Station (0-24)",
    "city": "F-Geispolsheim",
    "description": ""
  },
  {
    "latitude": -0.91528,
    "longitude": 43.9174,
    "name": "E.Leclerc Petrol Station (0-24)",
    "city": "F-Rion Les Landes",
    "description": ""
  },
  {
    "latitude": 1.40364,
    "longitude": 44.47789,
    "name": "E.Leclerc Petrol Station (0-24)",
    "city": "F-Pradines",
    "description": ""
  },
  {
    "latitude": -0.0073,
    "longitude": 43.243,
    "name": "E.Leclerc Petrol Station (0-24)",
    "city": "F-Ibos Cedex 9",
    "description": ""
  },
  {
    "latitude": -0.24024,
    "longitude": 44.9395,
    "name": "E.Leclerc Petrol Station (0-24)",
    "city": "F-Libourne",
    "description": ""
  },
  {
    "latitude": 4.14842,
    "longitude": 43.68067,
    "name": "E.Leclerc Petrol Station (0-24)",
    "city": "F-Lunel",
    "description": ""
  },
  {
    "latitude": -1.11336,
    "longitude": 44.6466,
    "name": "E.Leclerc Petrol Station (0-24)",
    "city": "F-La Teste De Buch",
    "description": ""
  },
  {
    "latitude": 4.47352,
    "longitude": 46.80685,
    "name": "E.Leclerc Petrol Station (0-24)",
    "city": "F-Le Breuil Invest",
    "description": ""
  },
  {
    "latitude": 3.73293,
    "longitude": 48.70963,
    "name": "E.Leclerc Petrol Station (0-24)",
    "city": "F-Sezanne",
    "description": ""
  },
  {
    "latitude": 6.30429,
    "longitude": 43.3815,
    "name": "E.Leclerc Petrol Station (0-24)",
    "city": "F-Le Luc",
    "description": ""
  },
  {
    "latitude": 0.91671,
    "longitude": 45.89737,
    "name": "E.Leclerc Petrol Station (0-24)",
    "city": "F-Saint Junien",
    "description": ""
  },
  {
    "latitude": 7.7349,
    "longitude": 48.61038,
    "name": "E.Leclerc Petrol Station (0-24)",
    "city": "F-Schiltigheim",
    "description": ""
  },
  {
    "latitude": 2.11012,
    "longitude": 43.92031,
    "name": "E.Leclerc Petrol Station (0-24)",
    "city": "F-Albi",
    "description": ""
  },
  {
    "latitude": 7.56659,
    "longitude": 48.29008,
    "name": "E.Leclerc Petrol Station (0-24)",
    "city": "F-Hilsenheim",
    "description": ""
  },
  {
    "latitude": 0.35766,
    "longitude": 46.56755,
    "name": "E.Leclerc Petrol Station (0-24)",
    "city": "F-Poitiers",
    "description": ""
  },
  {
    "latitude": 7.56656,
    "longitude": 48.5427,
    "name": "E.Leclerc Petrol Station (0-24)",
    "city": "F-Duttlenheim",
    "description": ""
  },
  {
    "latitude": 0.91106,
    "longitude": 47.00674,
    "name": "E.Leclerc Petrol Station (0-24)",
    "city": "F-Loudun",
    "description": ""
  },
  {
    "latitude": 2.29143,
    "longitude": 45.54759,
    "name": "E.Leclerc Petrol Station (0-24)",
    "city": "F-Ussel",
    "description": ""
  },
  {
    "latitude": -1.16104,
    "longitude": 45.85335,
    "name": "E.Leclerc Petrol Station (0-24)",
    "city": "F-Bourcefranc Le Chapus",
    "description": ""
  },
  {
    "latitude": 2.59079,
    "longitude": 46.37975,
    "name": "E.Leclerc Petrol Station (0-24)",
    "city": "F-Saint Victor",
    "description": ""
  },
  {
    "latitude": -1.72147,
    "longitude": 47.27721,
    "name": "E.Leclerc Petrol Station (0-24)",
    "city": "F-Saint Etienne De Montluc",
    "description": ""
  },
  {
    "latitude": 2.72171,
    "longitude": 50.48274,
    "name": "E.Leclerc Petrol Station (0-24)",
    "city": "F-Noeux Les Mines",
    "description": ""
  },
  {
    "latitude": 7.25575,
    "longitude": 48.76398,
    "name": "E.Leclerc Petrol Station (0-24)",
    "city": "F-Phalsbourg",
    "description": ""
  },
  {
    "latitude": 3.13402,
    "longitude": 45.78017,
    "name": "E.Leclerc Petrol Station (0-24)",
    "city": "F-Clermont Ferrand",
    "description": ""
  },
  {
    "latitude": 3.12658,
    "longitude": 45.76118,
    "name": "E.Leclerc Petrol Station (0-24)",
    "city": "F-Clermont Ferrand",
    "description": ""
  },
  {
    "latitude": -4.26854,
    "longitude": 48.46692,
    "name": "E.Leclerc Petrol Station (0-24)",
    "city": "F-Landerneau",
    "description": ""
  },
  {
    "latitude": 3.76651,
    "longitude": 48.5048,
    "name": "E.Leclerc Petrol Station (0-24)",
    "city": "F-Romilly Sur Seine",
    "description": ""
  },
  {
    "latitude": 2.26178,
    "longitude": 49.0032,
    "name": "E.Leclerc Petrol Station (0-24)",
    "city": "F-Saint Prix",
    "description": ""
  },
  {
    "latitude": -0.35065,
    "longitude": 43.2755,
    "name": "E.Leclerc Petrol Station (0-24)",
    "city": "F-Mazeres Lezons Jurancon",
    "description": ""
  },
  {
    "latitude": 1.41601,
    "longitude": 50.04177,
    "name": "E.Leclerc Petrol Station (0-24)",
    "city": "F-Eu",
    "description": ""
  },
  {
    "latitude": -0.73638,
    "longitude": 48.05748,
    "name": "E.Leclerc Petrol Station (0-24)",
    "city": "F-Laval Cedex 9",
    "description": ""
  },
  {
    "latitude": 1.7133,
    "longitude": 49.47809,
    "name": "E.Leclerc Petrol Station (0-24)",
    "city": "F-Gournay En Bray",
    "description": ""
  },
  {
    "latitude": -3.92188,
    "longitude": 47.87455,
    "name": "E.Leclerc Petrol Station (0-24)",
    "city": "F-Concarneau",
    "description": ""
  },
  {
    "latitude": 4.05273,
    "longitude": 46.04491,
    "name": "E.Leclerc Petrol Station (0-24)",
    "city": "F-Riorges",
    "description": ""
  },
  {
    "latitude": 1.90828,
    "longitude": 43.87701,
    "name": "E.Leclerc Petrol Station (0-24)",
    "city": "F-Gaillac",
    "description": ""
  },
  {
    "latitude": -2.9454,
    "longitude": 48.06821,
    "name": "E.Leclerc Petrol Station (0-24)",
    "city": "F-Pontivy",
    "description": ""
  },
  {
    "latitude": -1.51462,
    "longitude": 47.24982,
    "name": "E.Leclerc Petrol Station (0-24)",
    "city": "F-Nantes",
    "description": ""
  },
  {
    "latitude": 5.06794,
    "longitude": 47.34149,
    "name": "E.Leclerc Petrol Station (0-24)",
    "city": "F-Dijon",
    "description": ""
  },
  {
    "latitude": 2.22283,
    "longitude": 43.07376,
    "name": "E.Leclerc Petrol Station (0-24)",
    "city": "F-Limoux",
    "description": ""
  },
  {
    "latitude": 3.12885,
    "longitude": 48.93797,
    "name": "E.Leclerc Petrol Station (0-24)",
    "city": "F-La Ferte Sous Jouarre",
    "description": ""
  },
  {
    "latitude": 4.92747,
    "longitude": 49.69915,
    "name": "E.Leclerc Petrol Station (0-24)",
    "city": "F-Sedan",
    "description": ""
  },
  {
    "latitude": 4.92747,
    "longitude": 49.69915,
    "name": "E.Leclerc Petrol Station (0-24)",
    "city": "F-Vouziers",
    "description": ""
  },
  {
    "latitude": 0.18195,
    "longitude": 44.8444,
    "name": "E.Leclerc Petrol Station (0-24)",
    "city": "F-Pineuilh",
    "description": ""
  },
  {
    "latitude": 2.08516,
    "longitude": 47.23064,
    "name": "E.Leclerc Petrol Station (0-24)",
    "city": "F-Vierzon",
    "description": ""
  },
  {
    "latitude": 1.3329,
    "longitude": 48.07201,
    "name": "E.Leclerc Petrol Station (0-24)",
    "city": "F-Chateaudun",
    "description": ""
  },
  {
    "latitude": 4.64009,
    "longitude": 43.70598,
    "name": "E.Leclerc Petrol Station (0-24)",
    "city": "F-Arles",
    "description": ""
  },
  {
    "latitude": 3.99279,
    "longitude": 46.48756,
    "name": "E.Leclerc Petrol Station (0-24)",
    "city": "F-Digoin",
    "description": ""
  },
  {
    "latitude": 6.11382,
    "longitude": 43.1115,
    "name": "E.Leclerc Petrol Station (0-24)",
    "city": "F-Hyeres",
    "description": ""
  },
  {
    "latitude": -1.47072,
    "longitude": 47.18752,
    "name": "E.Leclerc Petrol Station (0-24)",
    "city": "F-Basse Goulaine",
    "description": ""
  },
  {
    "latitude": -1.16755,
    "longitude": 46.17833,
    "name": "E.Leclerc Petrol Station (0-24)",
    "city": "F-Lagord",
    "description": ""
  },
  {
    "latitude": 0.07967,
    "longitude": 43.2197,
    "name": "E.Leclerc Petrol Station (0-24)",
    "city": "F-Tarbes",
    "description": ""
  },
  {
    "latitude": -1.49475,
    "longitude": 46.76679,
    "name": "E.Leclerc Petrol Station (0-24)",
    "city": "F-Le Poire Sur Vie",
    "description": ""
  },
  {
    "latitude": 6.11707,
    "longitude": 49.3069,
    "name": "E.Leclerc Petrol Station (0-24)",
    "city": "F-Fameck",
    "description": ""
  },
  {
    "latitude": 4.72848,
    "longitude": 45.41394,
    "name": "E.Leclerc Petrol Station (0-24)",
    "city": "F-Chavannay",
    "description": ""
  },
  {
    "latitude": 0.97866,
    "longitude": 44.4858,
    "name": "E.Leclerc Petrol Station (0-24)",
    "city": "F-Montayral",
    "description": ""
  },
  {
    "latitude": 2.08426,
    "longitude": 49.0083,
    "name": "E.Leclerc Petrol Station (0-24)",
    "city": "F-Conflans En Jarnisy",
    "description": ""
  },
  {
    "latitude": -1.57388,
    "longitude": 47.19339,
    "name": "E.Leclerc Petrol Station (0-24)",
    "city": "F-Reze",
    "description": ""
  },
  {
    "latitude": 3.5425,
    "longitude": 50.37401,
    "name": "E.Leclerc Petrol Station (0-24)",
    "city": "F-Valenciennes",
    "description": ""
  },
  {
    "latitude": 2.58961,
    "longitude": 46.3535,
    "name": "E.Leclerc Petrol Station (0-24)",
    "city": "F-Montlucon",
    "description": ""
  },
  {
    "latitude": -0.20659,
    "longitude": 46.99804,
    "name": "E.Leclerc Petrol Station (0-24)",
    "city": "F-Thouars",
    "description": ""
  },
  {
    "latitude": 1.42363,
    "longitude": 43.67812,
    "name": "E.Leclerc Petrol Station (0-24)",
    "city": "F-Fonbeauzar",
    "description": ""
  },
  {
    "latitude": 6.42584,
    "longitude": 48.1902,
    "name": "E.Leclerc Petrol Station (0-24)",
    "city": "F-Golbey",
    "description": ""
  },
  {
    "latitude": 2.03689,
    "longitude": 48.79994,
    "name": "E.Leclerc Petrol Station (0-24)",
    "city": "F-Bois D'arcy",
    "description": ""
  },
  {
    "latitude": 7.44837,
    "longitude": 48.63959,
    "name": "E.Leclerc Petrol Station (0-24)",
    "city": "F-Wasselonne",
    "description": ""
  },
  {
    "latitude": 4.38286,
    "longitude": 45.47342,
    "name": "E.Leclerc Petrol Station (0-24)",
    "city": "F-Saint Priest En Jarez",
    "description": ""
  },
  {
    "latitude": -1.09769,
    "longitude": 49.11718,
    "name": "E.Leclerc Petrol Station (0-24)",
    "city": "F-Saint Lo",
    "description": ""
  },
  {
    "latitude": 2.94649,
    "longitude": 50.49925,
    "name": "E.Leclerc Petrol Station (0-24)",
    "city": "F-Carvin",
    "description": ""
  },
  {
    "latitude": 7.34262,
    "longitude": 47.78983,
    "name": "E.Leclerc Petrol Station (0-24)",
    "city": "F-Kingersheim",
    "description": ""
  },
  {
    "latitude": 6.78589,
    "longitude": 43.541,
    "name": "E.Leclerc Petrol Station (0-24)",
    "city": "F-Frejus",
    "description": ""
  },
  {
    "latitude": -2.04282,
    "longitude": 48.45099,
    "name": "E.Leclerc Petrol Station (0-24)",
    "city": "F-Dinan",
    "description": ""
  },
  {
    "latitude": -4.54239,
    "longitude": 48.02198,
    "name": "E.Leclerc Petrol Station (0-24)",
    "city": "F-Audierne",
    "description": ""
  },
  {
    "latitude": -2.77524,
    "longitude": 48.49918,
    "name": "E.Leclerc Petrol Station (0-24)",
    "city": "F-Ploufragan",
    "description": ""
  },
  {
    "latitude": 0.70856,
    "longitude": 49.86058,
    "name": "E.Leclerc Petrol Station (0-24)",
    "city": "F-Saint Valery En Caux",
    "description": ""
  },
  {
    "latitude": 2.20501,
    "longitude": 48.98974,
    "name": "E.Leclerc Petrol Station (0-24)",
    "city": "F-Franconville",
    "description": ""
  },
  {
    "latitude": 1.23039,
    "longitude": 44.8734,
    "name": "E.Leclerc Petrol Station (0-24)",
    "city": "F-Sarlat La Caneda",
    "description": ""
  },
  {
    "latitude": 7.89691,
    "longitude": 48.92802,
    "name": "E.Leclerc Petrol Station (0-24)",
    "city": "F-Soultz-Sous-Forets",
    "description": ""
  },
  {
    "latitude": 6.13394,
    "longitude": 47.61485,
    "name": "E.Leclerc Petrol Station (0-24)",
    "city": "F-Noidans Les Vesoul",
    "description": ""
  },
  {
    "latitude": 4.69125,
    "longitude": 45.7411,
    "name": "E.Leclerc Petrol Station (0-24)",
    "city": "F-Grezieu La Varenne",
    "description": ""
  },
  {
    "latitude": 2.44236,
    "longitude": 44.91425,
    "name": "E.Leclerc Petrol Station (0-24)",
    "city": "F-Aurillac",
    "description": ""
  },
  {
    "latitude": 6.17003,
    "longitude": 49.21418,
    "name": "E.Leclerc Petrol Station (0-24)",
    "city": "F-Hauconcourt",
    "description": ""
  },
  {
    "latitude": -0.82344,
    "longitude": 46.46478,
    "name": "E.Leclerc Petrol Station (0-24)",
    "city": "F-Fontenay Le Comte",
    "description": ""
  },
  {
    "latitude": 7.65589,
    "longitude": 48.42926,
    "name": "E.Leclerc Petrol Station (0-24)",
    "city": "F-Erstein",
    "description": ""
  },
  {
    "latitude": 2.7813,
    "longitude": 50.28036,
    "name": "E.Leclerc Petrol Station (0-24)",
    "city": "F-Dainville",
    "description": ""
  },
  {
    "latitude": -0.34054,
    "longitude": 47.83727,
    "name": "E.Leclerc Petrol Station (0-24)",
    "city": "F-Sable Sur Sarthe",
    "description": ""
  },
  {
    "latitude": 1.46668,
    "longitude": 49.09507,
    "name": "E.Leclerc Petrol Station (0-24)",
    "city": "F-Vernon",
    "description": ""
  },
  {
    "latitude": 1.37227,
    "longitude": 43.64603,
    "name": "E.Leclerc Petrol Station (0-24)",
    "city": "F-Blagnac",
    "description": ""
  },
  {
    "latitude": -0.84992,
    "longitude": 47.05183,
    "name": "E.Leclerc Petrol Station (0-24)",
    "city": "F-Cholet",
    "description": ""
  },
  {
    "latitude": 4.84413,
    "longitude": 47.04097,
    "name": "E.Leclerc Petrol Station (0-24)",
    "city": "F-Beaune",
    "description": ""
  },
  {
    "latitude": 2.26013,
    "longitude": 49.87031,
    "name": "E.Leclerc Petrol Station (0-24)",
    "city": "F-Salouel",
    "description": ""
  },
  {
    "latitude": -1.21992,
    "longitude": 44.2052,
    "name": "E.Leclerc Petrol Station (0-24)",
    "city": "F-Mimizan Bourg",
    "description": ""
  },
  {
    "latitude": 4.99754,
    "longitude": 45.82461,
    "name": "E.Leclerc Petrol Station (0-24)",
    "city": "F-Beynost",
    "description": ""
  },
  {
    "latitude": -0.41455,
    "longitude": 46.33854,
    "name": "E.Leclerc Petrol Station (0-24)",
    "city": "F-Niort",
    "description": ""
  },
  {
    "latitude": -1.5389,
    "longitude": 43.4637,
    "name": "E.Leclerc Petrol Station (0-24)",
    "city": "F-Biarritz",
    "description": ""
  },
  {
    "latitude": 2.33358,
    "longitude": 48.95514,
    "name": "E.Leclerc Petrol Station (0-24)",
    "city": "F-Epinay Sur Seine",
    "description": ""
  },
  {
    "latitude": 1.04424,
    "longitude": 47.80305,
    "name": "E.Leclerc Petrol Station (0-24)",
    "city": "F-Vendome",
    "description": ""
  },
  {
    "latitude": 4.1069,
    "longitude": 44.1174,
    "name": "E.Leclerc Petrol Station (0-24)",
    "city": "F-Ales",
    "description": ""
  },
  {
    "latitude": -0.64567,
    "longitude": 45.74844,
    "name": "E.Leclerc Petrol Station (0-24)",
    "city": "F-Saintes",
    "description": ""
  },
  {
    "latitude": 0.7779,
    "longitude": 45.203,
    "name": "E.Leclerc Petrol Station (0-24)",
    "city": "F-Trelissac",
    "description": ""
  },
  {
    "latitude": -3.7037,
    "longitude": 48.02683,
    "name": "E.Leclerc Petrol Station (0-24)",
    "city": "F-Scaer",
    "description": ""
  },
  {
    "latitude": 3.33025,
    "longitude": 46.57284,
    "name": "E.Leclerc Petrol Station (0-24)",
    "city": "F-Avermes",
    "description": ""
  },
  {
    "latitude": -0.44975,
    "longitude": 47.35586,
    "name": "E.Leclerc Petrol Station (0-24)",
    "city": "F-Brissac - Quince",
    "description": ""
  },
  {
    "latitude": 6.98178,
    "longitude": 43.5761,
    "name": "E.Leclerc Petrol Station (0-24)",
    "city": "F-Cannes La Bocca",
    "description": ""
  },
  {
    "latitude": 4.8109,
    "longitude": 44.55311,
    "name": "E.Leclerc Petrol Station (0-24)",
    "city": "F-St Rambert D'albon",
    "description": ""
  },
  {
    "latitude": 3.5815,
    "longitude": 47.83556,
    "name": "E.Leclerc Petrol Station (0-24)",
    "city": "F-Moneteau",
    "description": ""
  },
  {
    "latitude": -0.06368,
    "longitude": 44.854,
    "name": "E.Leclerc Petrol Station (0-24)",
    "city": "F-Saint Magne De Castillon",
    "description": ""
  },
  {
    "latitude": 1.19816,
    "longitude": 48.76281,
    "name": "E.Leclerc Petrol Station (0-24)",
    "city": "F-Saint Lubin Des Joncherets",
    "description": ""
  },
  {
    "latitude": 1.34851,
    "longitude": 48.7354,
    "name": "E.Leclerc Petrol Station (0-24)",
    "city": "F-Dreux",
    "description": ""
  },
  {
    "latitude": 1.91167,
    "longitude": 47.94608,
    "name": "E.Leclerc Petrol Station (0-24)",
    "city": "F-Fleury Les Aubrais",
    "description": ""
  },
  {
    "latitude": -0.25006,
    "longitude": 46.40068,
    "name": "E.Leclerc Petrol Station (0-24)",
    "city": "F-Azay Le Brule",
    "description": ""
  },
  {
    "latitude": 4.85609,
    "longitude": 45.71688,
    "name": "E.Leclerc Petrol Station (0-24)",
    "city": "F-Venissieux",
    "description": ""
  },
  {
    "latitude": 2.15484,
    "longitude": 43.95625,
    "name": "E.Leclerc Petrol Station (0-24)",
    "city": "F-Lescure D'albigeois",
    "description": ""
  },
  {
    "latitude": 0.77543,
    "longitude": 49.61302,
    "name": "E.Leclerc Petrol Station (0-24)",
    "city": "F-Yvetot",
    "description": ""
  },
  {
    "latitude": -0.49802,
    "longitude": 46.84937,
    "name": "E.Leclerc Petrol Station (0-24)",
    "city": "F-Bressuire",
    "description": ""
  },
  {
    "latitude": -1.97497,
    "longitude": 48.65712,
    "name": "E.Leclerc Petrol Station (0-24)",
    "city": "F-Saint Malo",
    "description": ""
  },
  {
    "latitude": 3.27894,
    "longitude": 48.21661,
    "name": "E.Leclerc Petrol Station (0-24)",
    "city": "F-Saint Denis Les Sens",
    "description": ""
  },
  {
    "latitude": -1.31811,
    "longitude": 45.94582,
    "name": "E.Leclerc Petrol Station (0-24)",
    "city": "F-Saint Pierre D'oleron",
    "description": ""
  },
  {
    "latitude": -2.07697,
    "longitude": 47.64598,
    "name": "E.Leclerc Petrol Station (0-24)",
    "city": "F-Saint Nicolas De Redon",
    "description": ""
  },
  {
    "latitude": 1.37658,
    "longitude": 43.50939,
    "name": "E.Leclerc Petrol Station (0-24)",
    "city": "F-Roques Sur Garonne",
    "description": ""
  },
  {
    "latitude": 2.60332,
    "longitude": 48.95018,
    "name": "E.Leclerc Petrol Station (0-24)",
    "city": "F-Villeparisis",
    "description": ""
  },
  {
    "latitude": -0.511,
    "longitude": 46.44789,
    "name": "E.Leclerc Petrol Station (0-24)",
    "city": "F-Villiers En Plaine",
    "description": ""
  },
  {
    "latitude": 2.5911,
    "longitude": 44.37948,
    "name": "E.Leclerc Petrol Station (0-24)",
    "city": "F-Onet Le Ch�teau",
    "description": ""
  },
  {
    "latitude": 7.37503,
    "longitude": 48.70102,
    "name": "E.Leclerc Petrol Station (0-24)",
    "city": "F-Marmoutier",
    "description": ""
  },
  {
    "latitude": 2.11149,
    "longitude": 50.707,
    "name": "E.Leclerc Petrol Station (0-24)",
    "city": "F-Lumbres",
    "description": ""
  },
  {
    "latitude": -4.0701,
    "longitude": 48.50974,
    "name": "E.Leclerc Petrol Station (0-24)",
    "city": "F-Landivisiau",
    "description": ""
  },
  {
    "latitude": 3.08386,
    "longitude": 50.38191,
    "name": "E.Leclerc Petrol Station (0-24)",
    "city": "F-Dowaai",
    "description": ""
  },
  {
    "latitude": -0.25449,
    "longitude": 44.5415,
    "name": "E.Leclerc Petrol Station (0-24)",
    "city": "F-Langon",
    "description": ""
  },
  {
    "latitude": -1.33407,
    "longitude": 43.7453,
    "name": "E.Leclerc Petrol Station (0-24)",
    "city": "F-Soustons",
    "description": ""
  },
  {
    "latitude": 1.7461,
    "longitude": 47.35978,
    "name": "E.Leclerc Petrol Station (0-24)",
    "city": "F-Romorantin",
    "description": ""
  },
  {
    "latitude": -1.21441,
    "longitude": 49.30313,
    "name": "E.Leclerc Petrol Station (0-24)",
    "city": "F-Carentan",
    "description": ""
  },
  {
    "latitude": 1.91435,
    "longitude": 47.84335,
    "name": "E.Leclerc Petrol Station (0-24)",
    "city": "F-Olivet",
    "description": ""
  },
  {
    "latitude": 2.06208,
    "longitude": 44.59457,
    "name": "E.Leclerc Petrol Station (0-24)",
    "city": "F-Figeac",
    "description": ""
  },
  {
    "latitude": 5.24221,
    "longitude": 46.22098,
    "name": "E.Leclerc Petrol Station (0-24)",
    "city": "F-Bourg En Bresse",
    "description": ""
  },
  {
    "latitude": 2.08727,
    "longitude": 49.0689,
    "name": "E.Leclerc Petrol Station (0-24)",
    "city": "F-Osny",
    "description": ""
  },
  {
    "latitude": 3.04035,
    "longitude": 44.08071,
    "name": "E.Leclerc Petrol Station (0-24)",
    "city": "F-Millau Creissels",
    "description": ""
  },
  {
    "latitude": 7.38028,
    "longitude": 48.08109,
    "name": "E.Leclerc Petrol Station (0-24)",
    "city": "F-Colmar",
    "description": ""
  },
  {
    "latitude": 1.62355,
    "longitude": 43.09558,
    "name": "E.Leclerc Petrol Station (0-24)",
    "city": "F-Saint Jean Du Falga",
    "description": ""
  },
  {
    "latitude": 2.44772,
    "longitude": 49.32336,
    "name": "E.Leclerc Petrol Station (0-24)",
    "city": "F-Cauffry",
    "description": ""
  },
  {
    "latitude": -1.8096,
    "longitude": 47.82161,
    "name": "E.Leclerc Petrol Station (0-24)",
    "city": "F-Messac",
    "description": ""
  },
  {
    "latitude": 6.40511,
    "longitude": 46.33908,
    "name": "E.Leclerc Petrol Station (0-24)",
    "city": "F-Sciez Sur Leman",
    "description": ""
  },
  {
    "latitude": -0.46937,
    "longitude": 46.32941,
    "name": "E.Leclerc Petrol Station (0-24)",
    "city": "F-Niort",
    "description": ""
  },
  {
    "latitude": 4.88339,
    "longitude": 44.9592,
    "name": "E.Leclerc Petrol Station (0-24)",
    "city": "F-Bourg Les Valence",
    "description": ""
  },
  {
    "latitude": 7.31629,
    "longitude": 48.08733,
    "name": "E.Leclerc Petrol Station (0-24)",
    "city": "F-Colmar Logelbach",
    "description": ""
  },
  {
    "latitude": -3.60636,
    "longitude": 48.14093,
    "name": "E.Leclerc Petrol Station (0-24)",
    "city": "F-Gourin",
    "description": ""
  },
  {
    "latitude": 4.82929,
    "longitude": 46.32811,
    "name": "E.Leclerc Petrol Station (0-24)",
    "city": "F-Macon",
    "description": ""
  },
  {
    "latitude": -3.27758,
    "longitude": 47.80366,
    "name": "E.Leclerc Petrol Station (0-24)",
    "city": "F-Hennebont",
    "description": ""
  },
  {
    "latitude": 4.2976,
    "longitude": 45.38825,
    "name": "E.Leclerc Petrol Station (0-24)",
    "city": "F-Firminy",
    "description": ""
  },
  {
    "latitude": 1.62727,
    "longitude": 42.94536,
    "name": "E.Leclerc Petrol Station (0-24)",
    "city": "F-Foix",
    "description": ""
  },
  {
    "latitude": 0.91952,
    "longitude": 49.14723,
    "name": "E.Leclerc Petrol Station (0-24)",
    "city": "F-Le Neubourg",
    "description": ""
  },
  {
    "latitude": -4.41812,
    "longitude": 48.24909,
    "name": "E.Leclerc Petrol Station (0-24)",
    "city": "F-Crozon",
    "description": ""
  },
  {
    "latitude": 2.97123,
    "longitude": 43.18114,
    "name": "E.Leclerc Petrol Station (0-24)",
    "city": "F-Narbonne",
    "description": ""
  },
  {
    "latitude": 7.00161,
    "longitude": 47.77434,
    "name": "E.Leclerc Petrol Station (0-24)",
    "city": "F-Masevaux",
    "description": ""
  },
  {
    "latitude": 2.2456,
    "longitude": 48.72767,
    "name": "E.Leclerc Petrol Station (0-24)",
    "city": "F-Massy Palaiseau",
    "description": ""
  },
  {
    "latitude": -0.60265,
    "longitude": 44.8785,
    "name": "E.Leclerc Petrol Station (0-24)",
    "city": "F-Bruges",
    "description": ""
  },
  {
    "latitude": 7.16676,
    "longitude": 47.79428,
    "name": "E.Leclerc Petrol Station (0-24)",
    "city": "F-Cernay",
    "description": ""
  },
  {
    "latitude": 3.58068,
    "longitude": 47.7973,
    "name": "E.Leclerc Petrol Station (0-24)",
    "city": "F-Auxerre",
    "description": ""
  },
  {
    "latitude": 1.39867,
    "longitude": 43.72057,
    "name": "E.Leclerc Petrol Station (0-24)",
    "city": "F-Bruguieres",
    "description": ""
  },
  {
    "latitude": 5.4355,
    "longitude": 47.80458,
    "name": "E.Leclerc Petrol Station (0-24)",
    "city": "F-Chalindrey",
    "description": ""
  },
  {
    "latitude": 0.2213,
    "longitude": 48.01854,
    "name": "E.Leclerc Petrol Station (0-24)",
    "city": "F-Le Mans",
    "description": ""
  },
  {
    "latitude": 4.75015,
    "longitude": 43.9604,
    "name": "E.Leclerc Petrol Station (0-24)",
    "city": "F-Les Angles",
    "description": ""
  },
  {
    "latitude": -0.4733,
    "longitude": 44.9084,
    "name": "E.Leclerc Petrol Station (0-24)",
    "city": "F-Sainte Eulalie",
    "description": ""
  },
  {
    "latitude": 7.75171,
    "longitude": 48.65206,
    "name": "E.Leclerc Petrol Station (0-24)",
    "city": "F-Reichstett",
    "description": ""
  },
  {
    "latitude": 5.11603,
    "longitude": 43.6287,
    "name": "E.Leclerc Petrol Station (0-24)",
    "city": "F-Salon De Provence",
    "description": ""
  },
  {
    "latitude": 0.52741,
    "longitude": 45.14904,
    "name": "E.Leclerc Petrol Station (0-24)",
    "city": "F-Saint Astier",
    "description": ""
  },
  {
    "latitude": 5.35583,
    "longitude": 43.4171,
    "name": "E.Leclerc Petrol Station (0-24)",
    "city": "F-Cabries",
    "description": ""
  },
  {
    "latitude": 4.85002,
    "longitude": 46.74892,
    "name": "E.Leclerc Petrol Station (0-24)",
    "city": "F-Lux",
    "description": ""
  },
  {
    "latitude": 0.52496,
    "longitude": 45.1462,
    "name": "E.Leclerc Petrol Station (0-24)",
    "city": "F-Saint Astier",
    "description": ""
  },
  {
    "latitude": 2.43025,
    "longitude": 48.99054,
    "name": "E.Leclerc Petrol Station (0-24)",
    "city": "F-Gonesse",
    "description": ""
  },
  {
    "latitude": 0.36175,
    "longitude": 49.72952,
    "name": "E.Leclerc Petrol Station (0-24)",
    "city": "F-Saint Leonard",
    "description": ""
  },
  {
    "latitude": 4.11826,
    "longitude": 46.46561,
    "name": "E.Leclerc Petrol Station (0-24)",
    "city": "F-Paray Le Monial",
    "description": ""
  },
  {
    "latitude": -4.46935,
    "longitude": 48.4284,
    "name": "E.Leclerc Petrol Station (0-24)",
    "city": "F-Brest Cedex 2",
    "description": ""
  },
  {
    "latitude": -1.28161,
    "longitude": 47.09589,
    "name": "E.Leclerc Petrol Station (0-24)",
    "city": "F-Clisson",
    "description": ""
  },
  {
    "latitude": 1.46393,
    "longitude": 48.41126,
    "name": "E.Leclerc Petrol Station (0-24)",
    "city": "F-Barjouville",
    "description": ""
  },
  {
    "latitude": -0.36551,
    "longitude": 48.58239,
    "name": "E.Leclerc Petrol Station (0-24)",
    "city": "F-La Ferte Mace",
    "description": ""
  },
  {
    "latitude": 7.40626,
    "longitude": 48.22793,
    "name": "E.Leclerc Petrol Station (0-24)",
    "city": "F-Selestat",
    "description": ""
  },
  {
    "latitude": 2.86773,
    "longitude": 50.44291,
    "name": "E.Leclerc Petrol Station (0-24)",
    "city": "F-Loison Sous Lens",
    "description": ""
  },
  {
    "latitude": 2.00376,
    "longitude": 46.95692,
    "name": "E.Leclerc Petrol Station (0-24)",
    "city": "F-Issoudun",
    "description": ""
  },
  {
    "latitude": 3.09295,
    "longitude": 43.21574,
    "name": "E.Leclerc Petrol Station (0-24)",
    "city": "F-Salles D'aude",
    "description": ""
  },
  {
    "latitude": 3.39053,
    "longitude": 49.03604,
    "name": "E.Leclerc Petrol Station (0-24)",
    "city": "F-Ch�teau Thierry",
    "description": ""
  },
  {
    "latitude": 0.56116,
    "longitude": 46.82538,
    "name": "E.Leclerc Petrol Station (0-24)",
    "city": "F-Chatellerault",
    "description": ""
  },
  {
    "latitude": -2.82104,
    "longitude": 47.9193,
    "name": "E.Leclerc Petrol Station (0-24)",
    "city": "F-Moreac",
    "description": ""
  },
  {
    "latitude": -0.7524,
    "longitude": 46.10908,
    "name": "E.Leclerc Petrol Station (0-24)",
    "city": "F-Surgeres",
    "description": ""
  },
  {
    "latitude": 5.02053,
    "longitude": 47.27873,
    "name": "E.Leclerc Petrol Station (0-24)",
    "city": "F-Marsannay La Cote",
    "description": ""
  },
  {
    "latitude": 2.32828,
    "longitude": 43.22708,
    "name": "E.Leclerc Petrol Station (0-24)",
    "city": "F-Carcassonne",
    "description": ""
  },
  {
    "latitude": 0.59128,
    "longitude": 43.6642,
    "name": "E.Leclerc Petrol Station (0-24)",
    "city": "F-Auch",
    "description": ""
  },
  {
    "latitude": -1.13168,
    "longitude": 46.46193,
    "name": "E.Leclerc Petrol Station (0-24)",
    "city": "F-Lucon",
    "description": ""
  },
  {
    "latitude": 1.48299,
    "longitude": 46.23909,
    "name": "E.Leclerc Petrol Station (0-24)",
    "city": "F-La Souterraine",
    "description": ""
  },
  {
    "latitude": -0.17227,
    "longitude": 49.12264,
    "name": "E.Leclerc Petrol Station (0-24)",
    "city": "F-Argences",
    "description": ""
  },
  {
    "latitude": 7.12268,
    "longitude": 43.6739,
    "name": "E.Leclerc Petrol Station (0-24)",
    "city": "F-La Colle Sur Loup",
    "description": ""
  },
  {
    "latitude": -0.34048,
    "longitude": 49.14086,
    "name": "E.Leclerc Petrol Station (0-24)",
    "city": "F-Ifs",
    "description": ""
  },
  {
    "latitude": -2.51474,
    "longitude": 48.46682,
    "name": "E.Leclerc Petrol Station (0-24)",
    "city": "F-Lamballe",
    "description": ""
  },
  {
    "latitude": 4.08421,
    "longitude": 49.92027,
    "name": "E.Leclerc Petrol Station (0-24)",
    "city": "F-Hirson",
    "description": ""
  },
  {
    "latitude": 5.30359,
    "longitude": 45.14294,
    "name": "E.Leclerc Petrol Station (0-24)",
    "city": "F-Chatte",
    "description": ""
  },
  {
    "latitude": 2.02937,
    "longitude": 48.94246,
    "name": "E.Leclerc Petrol Station (0-24)",
    "city": "F-Carrieres Sous Poissy",
    "description": ""
  },
  {
    "latitude": -0.56009,
    "longitude": 45.5779,
    "name": "E.Leclerc Petrol Station (0-24)",
    "city": "F-Pons",
    "description": ""
  },
  {
    "latitude": -1.54447,
    "longitude": 47.15986,
    "name": "E.Leclerc Petrol Station (0-24)",
    "city": "F-Reze",
    "description": ""
  },
  {
    "latitude": 1.64857,
    "longitude": 46.78031,
    "name": "E.Leclerc Petrol Station (0-24)",
    "city": "F-Saint-Maur",
    "description": ""
  },
  {
    "latitude": 1.00167,
    "longitude": 47.4056,
    "name": "E.Leclerc Petrol Station (0-24)",
    "city": "F-Amboise",
    "description": ""
  },
  {
    "latitude": 1.30118,
    "longitude": 43.6587,
    "name": "E.Leclerc Petrol Station (0-24)",
    "city": "F-Saint Vincent De Tyrosse",
    "description": ""
  },
  {
    "latitude": -4.59304,
    "longitude": 48.42745,
    "name": "E.Leclerc Petrol Station (0-24)",
    "city": "F-Guilers",
    "description": ""
  },
  {
    "latitude": 3.05734,
    "longitude": 44.0877,
    "name": "E.Leclerc Petrol Station (0-24)",
    "city": "F-Millau",
    "description": ""
  },
  {
    "latitude": -1.43496,
    "longitude": 46.6456,
    "name": "E.Leclerc Petrol Station (0-24)",
    "city": "F-La Roche Sur Yon",
    "description": ""
  },
  {
    "latitude": -2.39568,
    "longitude": 47.93027,
    "name": "E.Leclerc Petrol Station (0-24)",
    "city": "F-Ploermel",
    "description": ""
  },
  {
    "latitude": -3.81408,
    "longitude": 48.18884,
    "name": "E.Leclerc Petrol Station (0-24)",
    "city": "F-Chateauneuf Du Faou",
    "description": ""
  },
  {
    "latitude": -0.61714,
    "longitude": 43.1974,
    "name": "E.Leclerc Petrol Station (0-24)",
    "city": "F-Oloron Sainte Marie",
    "description": ""
  },
  {
    "latitude": 2.73891,
    "longitude": 50.72634,
    "name": "E.Leclerc Petrol Station (0-24)",
    "city": "F-Bailleul",
    "description": ""
  },
  {
    "latitude": -1.2137,
    "longitude": 48.35394,
    "name": "E.Leclerc Petrol Station (0-24)",
    "city": "F-Lecousse",
    "description": ""
  },
  {
    "latitude": 3.52904,
    "longitude": 45.84722,
    "name": "E.Leclerc Petrol Station (0-24)",
    "city": "F-Thiers",
    "description": ""
  },
  {
    "latitude": -0.49203,
    "longitude": 46.83968,
    "name": "E.Leclerc Petrol Station (0-24)",
    "city": "F-Bressuire",
    "description": ""
  },
  {
    "latitude": 7.5053,
    "longitude": 47.60712,
    "name": "E.Leclerc Petrol Station (0-24)",
    "city": "F-Blotzheim",
    "description": ""
  },
  {
    "latitude": 1.00367,
    "longitude": 44.0416,
    "name": "E.Leclerc Petrol Station (0-24)",
    "city": "F-Saint Nicolas De La Grave",
    "description": ""
  },
  {
    "latitude": 2.37693,
    "longitude": 48.66478,
    "name": "E.Leclerc Petrol Station (0-24)",
    "city": "F-Viry Chatillon",
    "description": ""
  },
  {
    "latitude": 0.83067,
    "longitude": 48.33094,
    "name": "E.Leclerc Petrol Station (0-24)",
    "city": "F-Margon Nogent Le Rotrou",
    "description": ""
  },
  {
    "latitude": 6.72485,
    "longitude": 48.20134,
    "name": "E.Leclerc Petrol Station (0-24)",
    "city": "F-Bruyeres",
    "description": ""
  },
  {
    "latitude": 0.23326,
    "longitude": 49.41876,
    "name": "E.Leclerc Petrol Station (0-24)",
    "city": "F-Honfleur",
    "description": ""
  },
  {
    "latitude": 6.0937,
    "longitude": 44.5639,
    "name": "E.Leclerc Petrol Station (0-24)",
    "city": "F-Gap",
    "description": ""
  },
  {
    "latitude": 0.2191,
    "longitude": 44.8284,
    "name": "E.Leclerc Petrol Station (0-24)",
    "city": "F-Port Sainte Foy",
    "description": ""
  },
  {
    "latitude": -0.9602,
    "longitude": 45.92419,
    "name": "E.Leclerc Petrol Station (0-24)",
    "city": "F-Rochefort Sur Mer",
    "description": ""
  },
  {
    "latitude": -1.36053,
    "longitude": 48.68393,
    "name": "E.Leclerc Petrol Station (0-24)",
    "city": "F-Avranches",
    "description": ""
  },
  {
    "latitude": -1.69274,
    "longitude": 49.6604,
    "name": "E.Leclerc Petrol Station (0-24)",
    "city": "F-Querqueville",
    "description": ""
  },
  {
    "latitude": -1.32064,
    "longitude": 45.9435,
    "name": "E.Leclerc Petrol Station (0-24)",
    "city": "F-Saint Pierre D'oleron",
    "description": ""
  },
  {
    "latitude": 2.28875,
    "longitude": 49.63632,
    "name": "E.Leclerc Petrol Station (0-24)",
    "city": "F-Breteuil",
    "description": ""
  },
  {
    "latitude": -1.6241,
    "longitude": 48.06385,
    "name": "E.Leclerc Petrol Station (0-24)",
    "city": "F-Vern Sur Seiche",
    "description": ""
  },
  {
    "latitude": 7.00053,
    "longitude": 43.5726,
    "name": "E.Leclerc Petrol Station (0-24)",
    "city": "F-Le Cannet Rocheville",
    "description": ""
  },
  {
    "latitude": 2.841,
    "longitude": 49.58759,
    "name": "E.Leclerc Petrol Station (0-24)",
    "city": "F-Lassigny",
    "description": ""
  },
  {
    "latitude": -1.51826,
    "longitude": 43.4935,
    "name": "E.Leclerc Petrol Station (0-24)",
    "city": "F-Anglet",
    "description": ""
  },
  {
    "latitude": -0.80622,
    "longitude": 43.4876,
    "name": "E.Leclerc Petrol Station (0-24)",
    "city": "F-Orthez",
    "description": ""
  },
  {
    "latitude": 7.18882,
    "longitude": 43.7081,
    "name": "E.Leclerc Petrol Station (0-24)",
    "city": "F-Nice Cedex 3",
    "description": ""
  },
  {
    "latitude": 1.08249,
    "longitude": 49.43015,
    "name": "E.Leclerc Petrol Station (0-24)",
    "city": "F-Rouen Cedex",
    "description": ""
  },
  {
    "latitude": -0.58415,
    "longitude": 44.7996,
    "name": "E.Leclerc Petrol Station (0-24)",
    "city": "F-Talence",
    "description": ""
  },
  {
    "latitude": 7.85247,
    "longitude": 48.77051,
    "name": "E.Leclerc Petrol Station (0-24)",
    "city": "F-Bischwiller",
    "description": ""
  },
  {
    "latitude": 4.37221,
    "longitude": 43.8207,
    "name": "E.Leclerc Petrol Station (0-24)",
    "city": "F-Nimes",
    "description": ""
  },
  {
    "latitude": 3.6476,
    "longitude": 49.58778,
    "name": "E.Leclerc Petrol Station (0-24)",
    "city": "F-Chambry",
    "description": ""
  },
  {
    "latitude": -0.56799,
    "longitude": 44.8632,
    "name": "E.Leclerc Petrol Station (0-24)",
    "city": "F-Bordeaux",
    "description": ""
  },
  {
    "latitude": 3.42871,
    "longitude": 50.44898,
    "name": "E.Leclerc Petrol Station (0-24)",
    "city": "F-Saint Amand Les Eaux",
    "description": ""
  },
  {
    "latitude": -3.32223,
    "longitude": 47.72551,
    "name": "E.Leclerc Petrol Station (0-24)",
    "city": "F-Riantec",
    "description": ""
  },
  {
    "latitude": 1.96399,
    "longitude": 43.75971,
    "name": "E.Leclerc Petrol Station (0-24)",
    "city": "F-Graulhet",
    "description": ""
  },
  {
    "latitude": 3.9799,
    "longitude": 43.65117,
    "name": "E.Leclerc Petrol Station (0-24)",
    "city": "F-Saint Aunes",
    "description": ""
  },
  {
    "latitude": 6.49659,
    "longitude": 47.68276,
    "name": "E.Leclerc Petrol Station (0-24)",
    "city": "F-Lure",
    "description": ""
  },
  {
    "latitude": -2.12329,
    "longitude": 47.1251,
    "name": "E.Leclerc Petrol Station (0-24)",
    "city": "F-Pornic",
    "description": ""
  },
  {
    "latitude": -1.16677,
    "longitude": 46.45362,
    "name": "E.Leclerc Petrol Station (0-24)",
    "city": "F-Lucon",
    "description": ""
  },
  {
    "latitude": 4.1306,
    "longitude": 48.29818,
    "name": "E.Leclerc Petrol Station (0-24)",
    "city": "F-Saint Parres Aux Tertres",
    "description": ""
  },
  {
    "latitude": 6.05032,
    "longitude": 43.4067,
    "name": "E.Leclerc Petrol Station (0-24)",
    "city": "F-Brignoles",
    "description": ""
  },
  {
    "latitude": -0.69089,
    "longitude": 44.8842,
    "name": "E.Leclerc Petrol Station (0-24)",
    "city": "F-Saint-Medard En Jalles",
    "description": ""
  },
  {
    "latitude": -0.67081,
    "longitude": 47.46529,
    "name": "E.Leclerc Petrol Station (0-24)",
    "city": "F-Saint Jean De Linieres",
    "description": ""
  },
  {
    "latitude": 0.69704,
    "longitude": 47.35601,
    "name": "E.Leclerc Petrol Station (0-24)",
    "city": "F-Joue-Les-Tours",
    "description": ""
  },
  {
    "latitude": -0.64266,
    "longitude": 45.1272,
    "name": "E.Leclerc Petrol Station (0-24)",
    "city": "F-Cars",
    "description": ""
  },
  {
    "latitude": 2.90602,
    "longitude": 49.23005,
    "name": "E.Leclerc Petrol Station (0-24)",
    "city": "F-Crepy En Valois",
    "description": ""
  },
  {
    "latitude": 4.69022,
    "longitude": 49.39657,
    "name": "E.Leclerc Petrol Station (0-24)",
    "city": "F-Vouziers",
    "description": ""
  },
  {
    "latitude": 6.93319,
    "longitude": 48.29348,
    "name": "E.Leclerc Petrol Station (0-24)",
    "city": "F-Saint Die Des Vosges",
    "description": ""
  },
  {
    "latitude": -0.55642,
    "longitude": 44.8058,
    "name": "E.Leclerc Petrol Station (0-24)",
    "city": "F-Begles",
    "description": ""
  },
  {
    "latitude": 6.30953,
    "longitude": 46.91656,
    "name": "E.Leclerc Petrol Station (0-24)",
    "city": "F-Houtaud",
    "description": ""
  },
  {
    "latitude": 0.78772,
    "longitude": 47.39647,
    "name": "E.Leclerc Petrol Station (0-24)",
    "city": "F-La Ville Aux Dames",
    "description": ""
  },
  {
    "latitude": 7.54361,
    "longitude": 47.6055,
    "name": "E.Leclerc Petrol Station (0-24)",
    "city": "F-Saint Louis",
    "description": ""
  },
  {
    "latitude": 1.18037,
    "longitude": 49.23586,
    "name": "E.Leclerc Petrol Station (0-24)",
    "city": "F-Incarville",
    "description": ""
  },
  {
    "latitude": 8.0355,
    "longitude": 48.82768,
    "name": "E.Leclerc Petrol Station (0-24)",
    "city": "F-Roeschwoog",
    "description": ""
  },
  {
    "latitude": 7.32885,
    "longitude": 47.74405,
    "name": "E.Leclerc Petrol Station (0-24)",
    "city": "F-Mulhouse",
    "description": ""
  },
  {
    "latitude": -1.1641,
    "longitude": 44.3947,
    "name": "E.Leclerc Petrol Station (0-24)",
    "city": "F-Biscarosse",
    "description": ""
  },
  {
    "latitude": 0.1586,
    "longitude": 47.97418,
    "name": "E.Leclerc Petrol Station (0-24)",
    "city": "F-Allonnes",
    "description": ""
  },
  {
    "latitude": 2.68768,
    "longitude": 50.51322,
    "name": "E.Leclerc Petrol Station (0-24)",
    "city": "F-Beuvry",
    "description": ""
  },
  {
    "latitude": 6.81628,
    "longitude": 49.13646,
    "name": "E.Leclerc Petrol Station (0-24)",
    "city": "F-Freyming Merlebach",
    "description": ""
  },
  {
    "latitude": 6.76594,
    "longitude": 43.6057,
    "name": "E.Leclerc Petrol Station (0-24)",
    "city": "F-Montauroux Fayence",
    "description": ""
  },
  {
    "latitude": 1.99937,
    "longitude": 48.31812,
    "name": "E.Leclerc Petrol Station (0-24)",
    "city": "F-Angerville",
    "description": ""
  },
  {
    "latitude": 2.60385,
    "longitude": 49.31486,
    "name": "E.Leclerc Petrol Station (0-24)",
    "city": "F-Pont Sainte Maxence",
    "description": ""
  },
  {
    "latitude": -1.73675,
    "longitude": 47.4679,
    "name": "E.Leclerc Petrol Station (0-24)",
    "city": "F-Blain",
    "description": ""
  },
  {
    "latitude": 5.70218,
    "longitude": 48.36793,
    "name": "E.Leclerc Petrol Station (0-24)",
    "city": "F-Neufchateau",
    "description": ""
  },
  {
    "latitude": 2.08409,
    "longitude": 49.60348,
    "name": "E.Leclerc Petrol Station (0-24)",
    "city": "F-Crevecoeur Le Grand",
    "description": ""
  },
  {
    "latitude": 1.46273,
    "longitude": 44.8983,
    "name": "E.Leclerc Petrol Station (0-24)",
    "city": "F-Souillac",
    "description": ""
  },
  {
    "latitude": 7.65213,
    "longitude": 48.5623,
    "name": "E.Leclerc Petrol Station (0-24)",
    "city": "F-Holtzheim",
    "description": ""
  },
  {
    "latitude": 1.06219,
    "longitude": 46.63973,
    "name": "E.Leclerc Petrol Station (0-24)",
    "city": "F-Le Blanc",
    "description": ""
  },
  {
    "latitude": 0.08137,
    "longitude": 44.3142,
    "name": "E.Leclerc Petrol Station (0-24)",
    "city": "F-Casteljaloux",
    "description": ""
  },
  {
    "latitude": -4.09267,
    "longitude": 48.19464,
    "name": "E.Leclerc Petrol Station (0-24)",
    "city": "F-Chateaulin",
    "description": ""
  },
  {
    "latitude": 7.00318,
    "longitude": 43.57055,
    "name": "E.Leclerc Petrol Station (0-24)",
    "city": "F-Le Cannet Rocheville",
    "description": ""
  },
  {
    "latitude": 2.95694,
    "longitude": 48.36224,
    "name": "E.Leclerc Petrol Station (0-24)",
    "city": "F-Varennes Sur Seine",
    "description": ""
  },
  {
    "latitude": 3.5191,
    "longitude": 47.47098,
    "name": "E.Leclerc Petrol Station (0-24)",
    "city": "F-Clamecy",
    "description": ""
  },
  {
    "latitude": 2.73799,
    "longitude": 50.28346,
    "name": "E.Leclerc Petrol Station (0-24)",
    "city": "F-Arras",
    "description": ""
  },
  {
    "latitude": -1.10992,
    "longitude": 45.82497,
    "name": "E.Leclerc Petrol Station (0-24)",
    "city": "F-Marennes",
    "description": ""
  },
  {
    "latitude": -2.89549,
    "longitude": 48.40045,
    "name": "E.Leclerc Petrol Station (0-24)",
    "city": "F-Saint Brandan",
    "description": ""
  },
  {
    "latitude": 5.09883,
    "longitude": 45.0573,
    "name": "E.Leclerc Petrol Station (0-24)",
    "city": "F-Sant Paul Les Romans",
    "description": ""
  },
  {
    "latitude": 6.13081,
    "longitude": 49.35791,
    "name": "E.Leclerc Petrol Station (0-24)",
    "city": "F-Thionville",
    "description": ""
  },
  {
    "latitude": -1.71383,
    "longitude": 48.10437,
    "name": "E.Leclerc Petrol Station (0-24)",
    "city": "F-Rennes",
    "description": ""
  },
  {
    "latitude": -3.82189,
    "longitude": 48.58553,
    "name": "E.Leclerc Petrol Station (0-24)",
    "city": "F-Morlaix",
    "description": ""
  },
  {
    "latitude": 2.88439,
    "longitude": 42.68698,
    "name": "E.Leclerc Petrol Station (0-24)",
    "city": "F-Perpignan",
    "description": ""
  },
  {
    "latitude": 2.59259,
    "longitude": 48.77752,
    "name": "E.Leclerc Petrol Station (0-24)",
    "city": "F-Pontault Combault",
    "description": ""
  },
  {
    "latitude": 2.0977,
    "longitude": 43.91882,
    "name": "E.Leclerc Petrol Station (0-24)",
    "city": "F-Le Sequestre",
    "description": ""
  },
  {
    "latitude": -2.76115,
    "longitude": 48.53561,
    "name": "E.Leclerc Petrol Station (0-24)",
    "city": "F-Plerin Sur Mer",
    "description": ""
  },
  {
    "latitude": 2.60853,
    "longitude": 48.50947,
    "name": "E.Leclerc Petrol Station (0-24)",
    "city": "F-Dammarie Les Lys",
    "description": ""
  },
  {
    "latitude": 6.69809,
    "longitude": 49.20782,
    "name": "E.Leclerc Petrol Station (0-24)",
    "city": "F-Creutzwald",
    "description": ""
  },
  {
    "latitude": -1.91957,
    "longitude": 48.17793,
    "name": "E.Leclerc Petrol Station (0-24)",
    "city": "F-Pleumeleuc",
    "description": ""
  },
  {
    "latitude": -1.59209,
    "longitude": 49.63334,
    "name": "E.Leclerc Petrol Station (0-24)",
    "city": "F-Tourlaville",
    "description": ""
  },
  {
    "latitude": 2.36228,
    "longitude": 48.80957,
    "name": "E.Leclerc Petrol Station (0-24)",
    "city": "F-Kremlin Bicetre",
    "description": ""
  },
  {
    "latitude": 0.56456,
    "longitude": 46.57062,
    "name": "E.Leclerc Petrol Station (0-24)",
    "city": "F-Jardres",
    "description": ""
  },
  {
    "latitude": 2.30749,
    "longitude": 48.93061,
    "name": "E.Leclerc Petrol Station (0-24)",
    "city": "F-Gennevilliers",
    "description": ""
  },
  {
    "latitude": 4.00279,
    "longitude": 49.28332,
    "name": "E.Leclerc Petrol Station (0-24)",
    "city": "F-Saint Brice Courcelles",
    "description": ""
  },
  {
    "latitude": 3.4264,
    "longitude": 50.36639,
    "name": "E.Leclerc Petrol Station (0-24)",
    "city": "F-Bellaing",
    "description": ""
  },
  {
    "latitude": 5.56364,
    "longitude": 45.74282,
    "name": "E.Leclerc Petrol Station (0-24)",
    "city": "F-Flers",
    "description": ""
  },
  {
    "latitude": 4.60347,
    "longitude": 48.73257,
    "name": "E.Leclerc Petrol Station (0-24)",
    "city": "F-Vitry Le Francois",
    "description": ""
  },
  {
    "latitude": -4.33756,
    "longitude": 48.55994,
    "name": "E.Leclerc Petrol Station (0-24)",
    "city": "F-Le Folgoet",
    "description": ""
  },
  {
    "latitude": -1.04469,
    "longitude": 43.7318,
    "name": "E.Leclerc Petrol Station (0-24)",
    "city": "F-Saint Paul Les Dax",
    "description": ""
  },
  {
    "latitude": 0.13511,
    "longitude": 44.5121,
    "name": "E.Leclerc Petrol Station (0-24)",
    "city": "F-Marmande",
    "description": ""
  },
  {
    "latitude": -1.53072,
    "longitude": 48.12098,
    "name": "E.Leclerc Petrol Station (0-24)",
    "city": "F-Noyal Sur Vilaine",
    "description": ""
  },
  {
    "latitude": 7.96299,
    "longitude": 48.76061,
    "name": "E.Leclerc Petrol Station (0-24)",
    "city": "F-Drusenheim",
    "description": ""
  },
  {
    "latitude": 3.07028,
    "longitude": 45.88889,
    "name": "E.Leclerc Petrol Station (0-24)",
    "city": "F-Enval",
    "description": ""
  },
  {
    "latitude": -1.687,
    "longitude": 48.13627,
    "name": "E.Leclerc Petrol Station (0-24)",
    "city": "F-Rennes Saint Gregoire",
    "description": ""
  },
  {
    "latitude": 3.09041,
    "longitude": 48.80378,
    "name": "E.Leclerc Petrol Station (0-24)",
    "city": "F-Coulommiers",
    "description": ""
  },
  {
    "latitude": -3.55692,
    "longitude": 47.87175,
    "name": "E.Leclerc Petrol Station (0-24)",
    "city": "F-Quimperle",
    "description": ""
  },
  {
    "latitude": 2.12304,
    "longitude": 49.05614,
    "name": "E.Leclerc Petrol Station (0-24)",
    "city": "F-Saint Ouen L'aumone",
    "description": ""
  },
  {
    "latitude": 5.15832,
    "longitude": 48.77359,
    "name": "E.Leclerc Petrol Station (0-24)",
    "city": "F-Bar Le Duc",
    "description": ""
  },
  {
    "latitude": -4.40794,
    "longitude": 48.39964,
    "name": "E.Leclerc Petrol Station (0-24)",
    "city": "F-Le Relecq Kerhuon",
    "description": ""
  },
  {
    "latitude": 3.96102,
    "longitude": 49.06568,
    "name": "E.Leclerc Petrol Station (0-24)",
    "city": "F-Dizy",
    "description": ""
  },
  {
    "latitude": 0.10749,
    "longitude": 43.8639,
    "name": "E.Leclerc Petrol Station (0-24)",
    "city": "F-Eauze",
    "description": ""
  },
  {
    "latitude": 5.00687,
    "longitude": 44.3863,
    "name": "E.Leclerc Petrol Station (0-24)",
    "city": "F-Valreas",
    "description": ""
  },
  {
    "latitude": 0.66955,
    "longitude": 44.1817,
    "name": "E.Leclerc Petrol Station (0-24)",
    "city": "F-Bon Encontre",
    "description": ""
  },
  {
    "latitude": -1.0448,
    "longitude": 43.7076,
    "name": "E.Leclerc Petrol Station (0-24)",
    "city": "F-Dax",
    "description": ""
  },
  {
    "latitude": 4.8781,
    "longitude": 45.81064,
    "name": "E.Leclerc Petrol Station (0-24)",
    "city": "F-Flers",
    "description": ""
  },
  {
    "latitude": 1.32489,
    "longitude": 47.61523,
    "name": "E.Leclerc Petrol Station (0-24)",
    "city": "F-Blois",
    "description": ""
  },
  {
    "latitude": -4.02817,
    "longitude": 47.90223,
    "name": "E.Leclerc Petrol Station (0-24)",
    "city": "F-Pleuven",
    "description": ""
  },
  {
    "latitude": 7.4061,
    "longitude": 48.22804,
    "name": "E.Leclerc Petrol Station (0-24)",
    "city": "F-Orschwiller",
    "description": ""
  },
  {
    "latitude": 7.2601,
    "longitude": 47.58673,
    "name": "E.Leclerc Petrol Station (0-24)",
    "city": "F-Hirsingue",
    "description": ""
  },
  {
    "latitude": 0.35124,
    "longitude": 46.59684,
    "name": "E.Leclerc Petrol Station (0-24)",
    "city": "F-Buxerolles",
    "description": ""
  },
  {
    "latitude": 4.31394,
    "longitude": 48.95877,
    "name": "E.Leclerc Petrol Station (0-24)",
    "city": "F-Fagnieres",
    "description": ""
  },
  {
    "latitude": -0.43105,
    "longitude": 45.44544,
    "name": "E.Leclerc Petrol Station (0-24)",
    "city": "F-Jonzac",
    "description": ""
  },
  {
    "latitude": 5.27078,
    "longitude": 45.59288,
    "name": "E.Leclerc Petrol Station (0-24)",
    "city": "F-Bourgoin Jallieu",
    "description": ""
  },
  {
    "latitude": -0.23142,
    "longitude": 43.7016,
    "name": "E.Leclerc Petrol Station (0-24)",
    "city": "F-Barcelonne Du Gers",
    "description": ""
  },
  {
    "latitude": 2.96744,
    "longitude": 50.61529,
    "name": "E.Leclerc Petrol Station (0-24)",
    "city": "F-Hallennes Lez Haubourdin",
    "description": ""
  },
  {
    "latitude": -3.38235,
    "longitude": 47.7282,
    "name": "E.Leclerc Petrol Station (0-24)",
    "city": "F-Larmor Plage",
    "description": ""
  },
  {
    "latitude": 2.57028,
    "longitude": 48.35497,
    "name": "E.Leclerc Petrol Station (0-24)",
    "city": "F-Acheres La Foret",
    "description": ""
  },
  {
    "latitude": -1.43649,
    "longitude": 43.4983,
    "name": "E.Leclerc Petrol Station (0-24)",
    "city": "F-Bayonne",
    "description": ""
  },
  {
    "latitude": -2.75651,
    "longitude": 48.18592,
    "name": "E.Leclerc Petrol Station (0-24)",
    "city": "F-Loudeac",
    "description": ""
  },
  {
    "latitude": 3.45269,
    "longitude": 46.82786,
    "name": "E.Leclerc Petrol Station (0-24)",
    "city": "F-Decize",
    "description": ""
  },
  {
    "latitude": 3.5132,
    "longitude": 47.96484,
    "name": "E.Leclerc Petrol Station (0-24)",
    "city": "F-Migennes",
    "description": ""
  },
  {
    "latitude": -3.98853,
    "longitude": 48.68465,
    "name": "E.Leclerc Petrol Station (0-24)",
    "city": "F-Saint Pol De Leon",
    "description": ""
  },
  {
    "latitude": 0.09025,
    "longitude": 47.00005,
    "name": "E.Leclerc Petrol Station (0-24)",
    "city": "F-Loudun",
    "description": ""
  },
  {
    "latitude": -4.48954,
    "longitude": 48.24713,
    "name": "E.Leclerc Petrol Station (0-24)",
    "city": "F-Crozon",
    "description": ""
  },
  {
    "latitude": 4.97165,
    "longitude": 48.62887,
    "name": "E.Leclerc Petrol Station (0-24)",
    "city": "F-Saint Dizier",
    "description": ""
  },
  {
    "latitude": 6.30232,
    "longitude": 48.3626,
    "name": "E.Leclerc Petrol Station (0-24)",
    "city": "F-Charmes",
    "description": ""
  },
  {
    "latitude": 1.8774,
    "longitude": 46.17771,
    "name": "E.Leclerc Petrol Station (0-24)",
    "city": "F-Gueret",
    "description": ""
  },
  {
    "latitude": 6.9456,
    "longitude": 43.6523,
    "name": "E.Leclerc Petrol Station (0-24)",
    "city": "F-Grasse",
    "description": ""
  },
  {
    "latitude": -0.59066,
    "longitude": 44.7479,
    "name": "E.Leclerc Petrol Station (0-24)",
    "city": "F-Leognan",
    "description": ""
  },
  {
    "latitude": 2.08508,
    "longitude": 49.00882,
    "name": "E.Leclerc Petrol Station (0-24)",
    "city": "F-Conflans Sainte Honorine",
    "description": ""
  },
  {
    "latitude": 2.41546,
    "longitude": 51.04632,
    "name": "E.Leclerc Petrol Station (0-24)",
    "city": "F-Dunkerque",
    "description": ""
  },
  {
    "latitude": -1.67869,
    "longitude": 43.3748,
    "name": "E.Leclerc Petrol Station (0-24)",
    "city": "F-Urrugne",
    "description": ""
  },
  {
    "latitude": -3.45849,
    "longitude": 48.73332,
    "name": "E.Leclerc Petrol Station (0-24)",
    "city": "F-Lannion",
    "description": ""
  },
  {
    "latitude": 5.22736,
    "longitude": 46.621,
    "name": "E.Leclerc Petrol Station (0-24)",
    "city": "F-Louhans",
    "description": ""
  },
  {
    "latitude": 1.07127,
    "longitude": 49.38842,
    "name": "E.Leclerc Petrol Station (0-24)",
    "city": "F-Saint Etienne Du Rouvray",
    "description": ""
  },
  {
    "latitude": 1.9146,
    "longitude": 47.8427,
    "name": "E.Leclerc Petrol Station (0-24)",
    "city": "F-Olivet",
    "description": ""
  },
  {
    "latitude": 3.2401,
    "longitude": 43.33728,
    "name": "E.Leclerc Petrol Station (0-24)",
    "city": "F-Beziers",
    "description": ""
  },
  {
    "latitude": 1.61132,
    "longitude": 47.76621,
    "name": "E.Leclerc Petrol Station (0-24)",
    "city": "F-Tavers",
    "description": ""
  },
  {
    "latitude": -0.46152,
    "longitude": 43.8777,
    "name": "E.Leclerc Petrol Station (0-24)",
    "city": "F-Mont De Marsan",
    "description": ""
  },
  {
    "latitude": 3.05344,
    "longitude": 50.54941,
    "name": "E.Leclerc Petrol Station (0-24)",
    "city": "F-Seclin",
    "description": ""
  },
  {
    "latitude": 1.0978,
    "longitude": 44.06467,
    "name": "E.Leclerc Petrol Station (0-24)",
    "city": "F-Castelsarrasin",
    "description": ""
  },
  {
    "latitude": -0.81053,
    "longitude": 48.06566,
    "name": "E.Leclerc Petrol Station (0-24)",
    "city": "F-Saint Berthevin Les Laval",
    "description": ""
  },
  {
    "latitude": -0.3604,
    "longitude": 43.3164,
    "name": "E.Leclerc Petrol Station (0-24)",
    "city": "F-Pau",
    "description": ""
  },
  {
    "latitude": -1.12618,
    "longitude": 46.17034,
    "name": "E.Leclerc Petrol Station (0-24)",
    "city": "F-La Rochelle",
    "description": ""
  },
  {
    "latitude": -0.6863,
    "longitude": 47.83181,
    "name": "E.Leclerc Petrol Station (0-24)",
    "city": "F-Ch�teau Gontier",
    "description": ""
  },
  {
    "latitude": 0.49793,
    "longitude": 44.8626,
    "name": "E.Leclerc Petrol Station (0-24)",
    "city": "F-Bergerac",
    "description": ""
  },
  {
    "latitude": -1.8096,
    "longitude": 48.1143,
    "name": "E.Leclerc Petrol Station (0-24)",
    "city": "F-Vitre",
    "description": ""
  },
  {
    "latitude": 4.9309,
    "longitude": 45.64768,
    "name": "E.Leclerc Petrol Station (0-24)",
    "city": "F-Chaponnay",
    "description": ""
  },
  {
    "latitude": 5.18324,
    "longitude": 45.74518,
    "name": "E.Leclerc Petrol Station (0-24)",
    "city": "F-Tignieu Jameyzieu",
    "description": ""
  },
  {
    "latitude": 2.05772,
    "longitude": 48.9599,
    "name": "E.Leclerc Petrol Station (0-24)",
    "city": "F-Acheres",
    "description": ""
  },
  {
    "latitude": -1.1925,
    "longitude": 47.3737,
    "name": "E.Leclerc Petrol Station (0-24)",
    "city": "F-Saint Gereon",
    "description": ""
  },
  {
    "latitude": -4.07998,
    "longitude": 48.01091,
    "name": "E.Leclerc Petrol Station (0-24)",
    "city": "F-Quimper",
    "description": ""
  },
  {
    "latitude": -2.08021,
    "longitude": 47.4319,
    "name": "E.Leclerc Petrol Station (0-24)",
    "city": "F-Pontchateau",
    "description": ""
  },
  {
    "latitude": -1.12478,
    "longitude": 45.83347,
    "name": "E.Leclerc Petrol Station (0-24)",
    "city": "F-Marennes",
    "description": ""
  },
  {
    "latitude": 0.38539,
    "longitude": 45.74028,
    "name": "E.Leclerc Petrol Station (0-24)",
    "city": "F-La Rochefoucauld",
    "description": ""
  },
  {
    "latitude": -0.1195,
    "longitude": 45.647,
    "name": "E.Leclerc Petrol Station (0-24)",
    "city": "F-Coutras",
    "description": ""
  },
  {
    "latitude": 6.49281,
    "longitude": 48.59875,
    "name": "E.Leclerc Petrol Station (0-24)",
    "city": "F-Luneville",
    "description": ""
  },
  {
    "latitude": -4.34838,
    "longitude": 48.09131,
    "name": "E.Leclerc Petrol Station (0-24)",
    "city": "F-Douarnenez",
    "description": ""
  },
  {
    "latitude": -0.05573,
    "longitude": 47.70229,
    "name": "E.Leclerc Petrol Station (0-24)",
    "city": "F-La Fleche",
    "description": ""
  },
  {
    "latitude": -1.68974,
    "longitude": 47.85891,
    "name": "E.Leclerc Petrol Station (0-24)",
    "city": "F-Bain De Bretagne",
    "description": ""
  },
  {
    "latitude": 1.88209,
    "longitude": 43.89219,
    "name": "E.Leclerc Petrol Station (0-24)",
    "city": "F-Gaillac",
    "description": ""
  },
  {
    "latitude": 4.87828,
    "longitude": 45.81068,
    "name": "E.Leclerc Petrol Station (0-24)",
    "city": "F-Rillieux La Pape",
    "description": ""
  },
  {
    "latitude": 2.57297,
    "longitude": 44.36253,
    "name": "E.Leclerc Petrol Station (0-24)",
    "city": "F-Onet Le Ch�teau",
    "description": ""
  },
  {
    "latitude": 7.49658,
    "longitude": 48.46767,
    "name": "E.Leclerc Petrol Station (0-24)",
    "city": "F-Obernai",
    "description": ""
  },
  {
    "latitude": 2.48829,
    "longitude": 48.76518,
    "name": "E.Leclerc Petrol Station (0-24)",
    "city": "F-Bonneuil Sur Marne",
    "description": ""
  },
  {
    "latitude": -0.87593,
    "longitude": 48.83854,
    "name": "E.Leclerc Petrol Station (0-24)",
    "city": "F-Vaudry - Vire",
    "description": ""
  },
  {
    "latitude": -1.63228,
    "longitude": 43.40196,
    "name": "E.Leclerc Petrol Station (0-24)",
    "city": "F-Saint Jean De Luz",
    "description": ""
  },
  {
    "latitude": -1.1112,
    "longitude": 44.7694,
    "name": "E.Leclerc Petrol Station (0-24)",
    "city": "F-Ares",
    "description": ""
  },
  {
    "latitude": 0.69389,
    "longitude": 45.20056,
    "name": "E.Leclerc Petrol Station (0-24)",
    "city": "F-Perigueux",
    "description": ""
  },
  {
    "latitude": -0.01339,
    "longitude": 48.75333,
    "name": "E.Leclerc Petrol Station (0-24)",
    "city": "F-Argentan",
    "description": ""
  },
  {
    "latitude": 0.73561,
    "longitude": 44.4092,
    "name": "E.Leclerc Petrol Station (0-24)",
    "city": "F-Villeneuve Sur Lot",
    "description": ""
  },
  {
    "latitude": -3.41735,
    "longitude": 47.7897,
    "name": "E.Leclerc Petrol Station (0-24)",
    "city": "F-Queven",
    "description": ""
  },
  {
    "latitude": 5.20731,
    "longitude": 43.4122,
    "name": "E.Leclerc Petrol Station (0-24)",
    "city": "F-Marignane",
    "description": ""
  },
  {
    "latitude": -0.62667,
    "longitude": 45.74098,
    "name": "E.Leclerc Petrol Station (0-24)",
    "city": "F-Saintes",
    "description": ""
  },
  {
    "latitude": 1.21344,
    "longitude": 48.77388,
    "name": "E.Leclerc Petrol Station (0-24)",
    "city": "F-La Madeleine De Nonancourt",
    "description": ""
  },
  {
    "latitude": 4.7132,
    "longitude": 45.85901,
    "name": "E.Leclerc Petrol Station (0-24)",
    "city": "F-Civrieux D'azergues",
    "description": ""
  },
  {
    "latitude": 0.85214,
    "longitude": 46.41753,
    "name": "E.Leclerc Petrol Station (0-24)",
    "city": "F-Montmorillon",
    "description": ""
  },
  {
    "latitude": -0.1312,
    "longitude": 45.45107,
    "name": "E.Leclerc Petrol Station (0-24)",
    "city": "F-Barbezieux",
    "description": ""
  },
  {
    "latitude": -1.13064,
    "longitude": 49.12068,
    "name": "E.Leclerc Petrol Station (0-24)",
    "city": "F-Agneaux",
    "description": ""
  },
  {
    "latitude": 5.91207,
    "longitude": 45.6522,
    "name": "E.Leclerc Petrol Station (0-24)",
    "city": "F-Voglans",
    "description": ""
  },
  {
    "latitude": 2.03653,
    "longitude": 47.90589,
    "name": "E.Leclerc Petrol Station (0-24)",
    "city": "F-Checy",
    "description": ""
  },
  {
    "latitude": -1.28636,
    "longitude": 43.6668,
    "name": "E.Leclerc Petrol Station (0-24)",
    "city": "F-Saint Vincent De Tyrosse",
    "description": ""
  },
  {
    "latitude": 4.31015,
    "longitude": 46.96714,
    "name": "E.Leclerc Petrol Station (0-24)",
    "city": "F-Autun",
    "description": ""
  },
  {
    "latitude": 4.07057,
    "longitude": 48.26275,
    "name": "E.Leclerc Petrol Station (0-24)",
    "city": "F-Rosieres Pres Troyes",
    "description": ""
  },
  {
    "latitude": 6.14258,
    "longitude": 49.06709,
    "name": "E.Leclerc Petrol Station (0-24)",
    "city": "F-Marly",
    "description": ""
  },
  {
    "latitude": 7.81416,
    "longitude": 48.75442,
    "name": "E.Leclerc Petrol Station (0-24)",
    "city": "F-Gries",
    "description": ""
  },
  {
    "latitude": 2.63955,
    "longitude": 47.70839,
    "name": "E.Leclerc Petrol Station (0-24)",
    "city": "F-Gien",
    "description": ""
  },
  {
    "latitude": 0.34515,
    "longitude": 45.2545,
    "name": "E.Leclerc Petrol Station (0-24)",
    "city": "F-Riberac",
    "description": ""
  },
  {
    "latitude": 2.746,
    "longitude": 50.48644,
    "name": "E.Leclerc Petrol Station (0-24)",
    "city": "F-Vermelles",
    "description": ""
  },
  {
    "latitude": 5.87604,
    "longitude": 43.0941,
    "name": "E.Leclerc Petrol Station (0-24)",
    "city": "F-La Seyne Sur Mer",
    "description": ""
  },
  {
    "latitude": 2.9406,
    "longitude": 49.94212,
    "name": "E.Leclerc Petrol Station (0-24)",
    "city": "F-Peronne",
    "description": ""
  },
  {
    "latitude": 0.18076,
    "longitude": 45.6572,
    "name": "E.Leclerc Petrol Station (0-24)",
    "city": "F-Angouleme",
    "description": ""
  },
  {
    "latitude": 0.61422,
    "longitude": 49.10571,
    "name": "E.Leclerc Petrol Station (0-24)",
    "city": "F-Bernay Menneval",
    "description": ""
  },
  {
    "latitude": 4.77393,
    "longitude": 45.44095,
    "name": "E.Leclerc Petrol Station (0-24)",
    "city": "F-Saint Clair Du Rhone",
    "description": ""
  },
  {
    "latitude": 5.40058,
    "longitude": 43.2328,
    "name": "E.Leclerc Petrol Station (0-24)",
    "city": "F-Marseille",
    "description": ""
  },
  {
    "latitude": 7.78084,
    "longitude": 48.79874,
    "name": "E.Leclerc Petrol Station (0-24)",
    "city": "F-Haguenau",
    "description": ""
  },
  {
    "latitude": 0.22396,
    "longitude": 49.50981,
    "name": "E.Leclerc Petrol Station (0-24)",
    "city": "F-Harfleur Gonfreville L'orcher",
    "description": ""
  },
  {
    "latitude": -2.17547,
    "longitude": 47.23337,
    "name": "E.Leclerc Petrol Station (0-24)",
    "city": "F-Saint Brevin Les Pins",
    "description": ""
  },
  {
    "latitude": 0.29809,
    "longitude": 44.4025,
    "name": "E.Leclerc Petrol Station (0-24)",
    "city": "F-Tonneins",
    "description": ""
  },
  {
    "latitude": 7.35683,
    "longitude": 48.98667,
    "name": "E.Leclerc Petrol Station (0-24)",
    "city": "F-Lemberg",
    "description": ""
  },
  {
    "latitude": 1.50659,
    "longitude": 43.8591,
    "name": "E.Leclerc Petrol Station (0-24)",
    "city": "F-Villemur Sur Tarn",
    "description": ""
  },
  {
    "latitude": -0.32416,
    "longitude": 44.64584,
    "name": "E.Leclerc Petrol Station (0-24)",
    "city": "F-Beguey",
    "description": ""
  },
  {
    "latitude": 3.02461,
    "longitude": 50.4168,
    "name": "E.Leclerc Petrol Station (0-24)",
    "city": "F-Courcelles Les Lens",
    "description": ""
  },
  {
    "latitude": 4.91007,
    "longitude": 43.939,
    "name": "E.Leclerc Petrol Station (0-24)",
    "city": "F-Morieres Les Avignon",
    "description": ""
  },
  {
    "latitude": 3.81359,
    "longitude": 49.2881,
    "name": "E.Leclerc Petrol Station (0-24)",
    "city": "F-Jonchery Sur Vesle",
    "description": ""
  },
  {
    "latitude": 0.72578,
    "longitude": 43.1194,
    "name": "E.Leclerc Petrol Station (0-24)",
    "city": "F-Saint Gaudens",
    "description": ""
  },
  {
    "latitude": -0.71837,
    "longitude": 49.27861,
    "name": "E.Leclerc Petrol Station (0-24)",
    "city": "F-Bayeux",
    "description": ""
  },
  {
    "latitude": -2.07991,
    "longitude": 47.43569,
    "name": "E.Leclerc Petrol Station (0-24)",
    "city": "F-Sainte Anne Sur Brivet",
    "description": ""
  },
  {
    "latitude": -3.04535,
    "longitude": 48.77808,
    "name": "E.Leclerc Petrol Station (0-24)",
    "city": "F-Paimpol",
    "description": ""
  },
  {
    "latitude": 4.7976,
    "longitude": 43.9397,
    "name": "E.Leclerc Petrol Station (0-24)",
    "city": "F-Avignon",
    "description": ""
  },
  {
    "latitude": 1.76213,
    "longitude": 45.2525,
    "name": "E.Leclerc Petrol Station (0-24)",
    "city": "F-Tulle",
    "description": ""
  },
  {
    "latitude": 4.46198,
    "longitude": 45.49305,
    "name": "E.Leclerc Petrol Station (0-24)",
    "city": "F-Saint Chamond",
    "description": ""
  },
  {
    "latitude": 4.72122,
    "longitude": 46.05204,
    "name": "E.Leclerc Petrol Station (0-24)",
    "city": "F-Saint-Georges De Reneins",
    "description": ""
  },
  {
    "latitude": 6.15428,
    "longitude": 47.61979,
    "name": "E.Leclerc Petrol Station (0-24)",
    "city": "F-Vesoul",
    "description": ""
  },
  {
    "latitude": 2.53742,
    "longitude": 46.72239,
    "name": "E.Leclerc Petrol Station (0-24)",
    "city": "F-Saint Amand Montrond",
    "description": ""
  },
  {
    "latitude": 2.79627,
    "longitude": 48.49221,
    "name": "E.Leclerc Petrol Station (0-24)",
    "city": "F-Le Chatelet En Brie",
    "description": ""
  },
  {
    "latitude": 2.34359,
    "longitude": 48.70631,
    "name": "E.Leclerc Petrol Station (0-24)",
    "city": "F-Morangis",
    "description": ""
  },
  {
    "latitude": -0.87882,
    "longitude": 47.67897,
    "name": "E.Leclerc Petrol Station (0-24)",
    "city": "F-Segre",
    "description": ""
  },
  {
    "latitude": 4.39453,
    "longitude": 43.837,
    "name": "E.Leclerc Petrol Station (0-24)",
    "city": "F-Nimes",
    "description": ""
  },
  {
    "latitude": 5.88923,
    "longitude": 45.63801,
    "name": "E.Leclerc Petrol Station (0-24)",
    "city": "F-Drumettaz Clarafond",
    "description": ""
  },
  {
    "latitude": -1.25502,
    "longitude": 43.9277,
    "name": "E.Leclerc Petrol Station (0-24)",
    "city": "F-Linxe",
    "description": ""
  },
  {
    "latitude": 7.45424,
    "longitude": 48.25939,
    "name": "E.Leclerc Petrol Station (0-24)",
    "city": "F-Selestat",
    "description": ""
  },
  {
    "latitude": 2.52581,
    "longitude": 49.14783,
    "name": "E.Leclerc Petrol Station (0-24)",
    "city": "F-La Chapelle En Serval",
    "description": ""
  },
  {
    "latitude": 2.30298,
    "longitude": 48.89343,
    "name": "E.Leclerc Petrol Station (0-24)",
    "city": "F-Levallois Perret",
    "description": ""
  },
  {
    "latitude": -2.25557,
    "longitude": 48.5241,
    "name": "E.Leclerc Petrol Station (0-24)",
    "city": "F-Pluduno",
    "description": ""
  },
  {
    "latitude": 0.08921,
    "longitude": 48.40927,
    "name": "E.Leclerc Petrol Station (0-24)",
    "city": "F-Saint Paterne Arconnay",
    "description": ""
  },
  {
    "latitude": -0.22978,
    "longitude": 46.65144,
    "name": "E.Leclerc Petrol Station (0-24)",
    "city": "F-Parthenay",
    "description": ""
  },
  {
    "latitude": -0.22978,
    "longitude": 46.65144,
    "name": "E.Leclerc Petrol Station (0-24)",
    "city": "F-Parthenay",
    "description": ""
  },
  {
    "latitude": 1.85555,
    "longitude": 48.6462,
    "name": "E.Leclerc Petrol Station (0-24)",
    "city": "F-Rambouillet",
    "description": ""
  },
  {
    "latitude": -1.62809,
    "longitude": 47.22439,
    "name": "E.Leclerc Petrol Station (0-24)",
    "city": "F-Saint Herblain",
    "description": ""
  },
  {
    "latitude": 4.83158,
    "longitude": 45.0546,
    "name": "E.Leclerc Petrol Station (0-24)",
    "city": "F-Tournon Sur Rhone",
    "description": ""
  },
  {
    "latitude": 0.19946,
    "longitude": 46.0267,
    "name": "E.Leclerc Petrol Station (0-24)",
    "city": "F-Ruffec",
    "description": ""
  },
  {
    "latitude": -4.21974,
    "longitude": 47.86184,
    "name": "E.Leclerc Petrol Station (0-24)",
    "city": "F-Pont L'abbe",
    "description": ""
  },
  {
    "latitude": 0.67255,
    "longitude": 47.4249,
    "name": "E.Leclerc Petrol Station (0-24)",
    "city": "F-Tours",
    "description": ""
  },
  {
    "latitude": -0.63029,
    "longitude": 48.30093,
    "name": "E.Leclerc Petrol Station (0-24)",
    "city": "F-Mayenne",
    "description": ""
  },
  {
    "latitude": 2.25189,
    "longitude": 48.18208,
    "name": "E.Leclerc Petrol Station (0-24)",
    "city": "F-Pithiviers",
    "description": ""
  },
  {
    "latitude": 0.2658,
    "longitude": 47.18391,
    "name": "E.Leclerc Petrol Station (0-24)",
    "city": "F-Chinon",
    "description": ""
  },
  {
    "latitude": 2.33515,
    "longitude": 49.04896,
    "name": "E.Leclerc Petrol Station (0-24)",
    "city": "F-Moisselles",
    "description": ""
  },
  {
    "latitude": 1.66974,
    "longitude": 46.8201,
    "name": "E.Leclerc Petrol Station (0-24)",
    "city": "F-Saint Maur",
    "description": ""
  },
  {
    "latitude": 2.33355,
    "longitude": 49.91102,
    "name": "E.Leclerc Petrol Station (0-24)",
    "city": "F-Rivery Les Amiens",
    "description": ""
  },
  {
    "latitude": 2.69962,
    "longitude": 48.75809,
    "name": "E.Leclerc Petrol Station (0-24)",
    "city": "F-Ozoir La Ferriere",
    "description": ""
  },
  {
    "latitude": 0.4315,
    "longitude": 47.687,
    "name": "E.Leclerc Petrol Station (0-24)",
    "city": "F-Ch�teau Du Loir",
    "description": ""
  },
  {
    "latitude": 2.91689,
    "longitude": 48.95861,
    "name": "E.Leclerc Petrol Station (0-24)",
    "city": "F-Meaux",
    "description": ""
  },
  {
    "latitude": -0.04447,
    "longitude": 43.1011,
    "name": "E.Leclerc Petrol Station (0-24)",
    "city": "F-Lourdes",
    "description": ""
  },
  {
    "latitude": -1.43469,
    "longitude": 49.0612,
    "name": "E.Leclerc Petrol Station (0-24)",
    "city": "F-Coutances",
    "description": ""
  },
  {
    "latitude": -0.38019,
    "longitude": 49.18629,
    "name": "E.Leclerc Petrol Station (0-24)",
    "city": "F-Caen",
    "description": ""
  },
  {
    "latitude": 4.70867,
    "longitude": 45.98734,
    "name": "E.Leclerc Petrol Station (0-24)",
    "city": "F-Villefranche Sur Saone",
    "description": ""
  },
  {
    "latitude": 6.86409,
    "longitude": 47.62841,
    "name": "E.Leclerc Petrol Station (0-24)",
    "city": "F-Belfort",
    "description": ""
  },
  {
    "latitude": 6.6139,
    "longitude": 48.01735,
    "name": "E.Leclerc Petrol Station (0-24)",
    "city": "F-Saint Etienne Les Remiremont",
    "description": ""
  },
  {
    "latitude": 5.14922,
    "longitude": 48.12727,
    "name": "E.Leclerc Petrol Station (0-24)",
    "city": "F-Chaumont",
    "description": ""
  },
  {
    "latitude": -1.58941,
    "longitude": 47.26349,
    "name": "E.Leclerc Petrol Station (0-24)",
    "city": "F-Orvault",
    "description": ""
  },
  {
    "latitude": 1.11364,
    "longitude": 49.90687,
    "name": "E.Leclerc Petrol Station (0-24)",
    "city": "F-Dieppe",
    "description": ""
  },
  {
    "latitude": 5.38062,
    "longitude": 43.88258,
    "name": "E.Leclerc Petrol Station (0-24)",
    "city": "F-Apt",
    "description": ""
  },
  {
    "latitude": 0.26051,
    "longitude": 49.14601,
    "name": "E.Leclerc Petrol Station (0-24)",
    "city": "F-Lisieux",
    "description": ""
  },
  {
    "latitude": 0.66322,
    "longitude": 48.17771,
    "name": "E.Leclerc Petrol Station (0-24)",
    "city": "F-La Ferte Bernard",
    "description": ""
  },
  {
    "latitude": -1.55077,
    "longitude": 48.8376,
    "name": "E.Leclerc Petrol Station (0-24)",
    "city": "F-Granville Yquelon",
    "description": ""
  },
  {
    "latitude": 5.04136,
    "longitude": 44.05231,
    "name": "E.Leclerc Petrol Station (0-24)",
    "city": "F-Carpentras",
    "description": ""
  },
  {
    "latitude": 6.85721,
    "longitude": 48.40721,
    "name": "E.Leclerc Petrol Station (0-24)",
    "city": "F-Raon L'etape",
    "description": ""
  },
  {
    "latitude": -2.53477,
    "longitude": 48.58143,
    "name": "E.Leclerc Petrol Station (0-24)",
    "city": "F-Pleneuf Val Andre",
    "description": ""
  },
  {
    "latitude": 4.80417,
    "longitude": 45.48795,
    "name": "E.Leclerc Petrol Station (0-24)",
    "city": "F-Ampuis",
    "description": ""
  },
  {
    "latitude": 4.70091,
    "longitude": 48.2378,
    "name": "E.Leclerc Petrol Station (0-24)",
    "city": "F-Bar Sur Aube",
    "description": ""
  },
  {
    "latitude": 7.96303,
    "longitude": 48.81859,
    "name": "E.Leclerc Petrol Station (0-24)",
    "city": "F-Soufflenheim",
    "description": ""
  },
  {
    "latitude": 5.90767,
    "longitude": 48.67019,
    "name": "E.Leclerc Petrol Station (0-24)",
    "city": "F-Dommartin Les Toul",
    "description": ""
  },
  {
    "latitude": 3.09848,
    "longitude": 50.63373,
    "name": "E.Leclerc Petrol Station (0-24)",
    "city": "F-Lille Fives",
    "description": ""
  },
  {
    "latitude": 2.0423,
    "longitude": 48.95467,
    "name": "E.Leclerc Petrol Station (0-24)",
    "city": "F-Carrieres Sous Poissy",
    "description": ""
  },
  {
    "latitude": 6.14932,
    "longitude": 48.74294,
    "name": "E.Leclerc Petrol Station (0-24)",
    "city": "F-Frouard",
    "description": ""
  },
  {
    "latitude": 4.73489,
    "longitude": 44.3188,
    "name": "E.Leclerc Petrol Station (0-24)",
    "city": "F-Bollene",
    "description": ""
  },
  {
    "latitude": -0.46853,
    "longitude": 44.9369,
    "name": "E.Leclerc Petrol Station (0-24)",
    "city": "F-Ambares Et Lagrave",
    "description": ""
  },
  {
    "latitude": -0.72249,
    "longitude": 47.23775,
    "name": "E.Leclerc Petrol Station (0-24)",
    "city": "F-Chemille",
    "description": ""
  },
  {
    "latitude": 1.1132,
    "longitude": 44.6166,
    "name": "E.Leclerc Petrol Station (0-24)",
    "city": "F-Le Pian Medoc",
    "description": ""
  },
  {
    "latitude": -1.3902,
    "longitude": 47.70636,
    "name": "E.Leclerc Petrol Station (0-24)",
    "city": "F-Chateaubriant",
    "description": ""
  },
  {
    "latitude": -1.91145,
    "longitude": 46.69885,
    "name": "E.Leclerc Petrol Station (0-24)",
    "city": "F-Saint Gilles Croix De Vie",
    "description": ""
  },
  {
    "latitude": -0.57485,
    "longitude": 47.48668,
    "name": "E.Leclerc Petrol Station (0-24)",
    "city": "F-Angers",
    "description": ""
  },
  {
    "latitude": -2.25961,
    "longitude": 47.28747,
    "name": "E.Leclerc Petrol Station (0-24)",
    "city": "F-Saint Nazaire",
    "description": ""
  },
  {
    "latitude": 0.45193,
    "longitude": 44.83588,
    "name": "E.Leclerc Petrol Station (0-24)",
    "city": "F-Bergerac",
    "description": ""
  },
  {
    "latitude": 1.8757,
    "longitude": 44.8685,
    "name": "E.Leclerc Petrol Station (0-24)",
    "city": "F-Saint Laurent Les Tours",
    "description": ""
  },
  {
    "latitude": -4.69802,
    "longitude": 48.55653,
    "name": "E.Leclerc Petrol Station (0-24)",
    "city": "F-Ploudalmezeau",
    "description": ""
  },
  {
    "latitude": 4.98716,
    "longitude": 45.76896,
    "name": "E.Leclerc Petrol Station (0-24)",
    "city": "F-Meyzieu",
    "description": ""
  },
  {
    "latitude": 6.24194,
    "longitude": 46.20413,
    "name": "E.Leclerc Petrol Station (0-24)",
    "city": "F-Ville La Grand",
    "description": ""
  },
  {
    "latitude": 3.20748,
    "longitude": 50.69822,
    "name": "E.Leclerc Petrol Station (0-24)",
    "city": "F-Wattrelos",
    "description": ""
  },
  {
    "latitude": -0.93583,
    "longitude": 45.3038,
    "name": "E.Leclerc Petrol Station (0-24)",
    "city": "F-Lesparre",
    "description": ""
  }
]