[
  {
    "longitude": 5.39186,
    "latitude": 44.68177,
    "name": "Aire Picnic",
    "city": "26 D93 Montmaur (7 tables)",
    "description": ""
  },
  {
    "longitude": -0.79375,
    "latitude": 47.03065,
    "name": "Aire Picnic",
    "city": "49 Mazieres Emauges (5 tables)",
    "description": ""
  },
  {
    "longitude": -0.69379,
    "latitude": 48.31032,
    "name": "Aire Picnic",
    "city": "53 N12 St Georges Buttavent (2 tables)",
    "description": ""
  },
  {
    "longitude": -0.07512,
    "latitude": 47.00868,
    "name": "Aire Picnic",
    "city": "86 D39 (Tres Sympa",
    "description": "WC"
  },
  {
    "longitude": 2.2853,
    "latitude": 48.7724,
    "name": "Aire Picnic",
    "city": "92 Ch�tenay-Malabry (A Coul�vert2 tables)",
    "description": ""
  },
  {
    "longitude": 6.84545,
    "latitude": 44.05481,
    "name": "Aire Picnic",
    "city": "06 D2202 Daluis (3 tables Et les Gorges Rouges du Var)",
    "description": ""
  },
  {
    "longitude": 4.83497,
    "latitude": 45.86484,
    "name": "Aire Picnic",
    "city": "69 Albigny Sur Sa�n (3 tables Toilettes)",
    "description": ""
  },
  {
    "longitude": 3.45899,
    "latitude": 45.23831,
    "name": "Aire Picnic",
    "city": "43 N102 La Chomett (4 tables)",
    "description": ""
  },
  {
    "longitude": 5.79399,
    "latitude": 49.31564,
    "name": "Aire Picnic",
    "city": "54 D156 (1 table)",
    "description": ""
  },
  {
    "longitude": -0.65109,
    "latitude": 45.10877,
    "name": "Aire Picnic",
    "city": "33 Blayd669 (4 tables)",
    "description": ""
  },
  {
    "longitude": 7.12667,
    "latitude": 44.19806,
    "name": "Aire Picnic",
    "city": "06 Isola2000 [1]",
    "description": ""
  },
  {
    "longitude": -0.6573,
    "latitude": 46.0609,
    "name": "Aire Picnic",
    "city": "17 Rouvr (2 tables)",
    "description": ""
  },
  {
    "longitude": -3.54082,
    "latitude": 48.7862,
    "name": "Aire Picnic",
    "city": "22 D21 (1 Tabl)",
    "description": ""
  },
  {
    "longitude": 7.04944,
    "latitude": 43.60389,
    "name": "Aire Picnic",
    "city": "06 Valmasqu (10t)",
    "description": ""
  },
  {
    "longitude": 6.43333,
    "latitude": 43.79111,
    "name": "Aire Picnic",
    "city": "83 Verdo13",
    "description": ""
  },
  {
    "longitude": -1.8169,
    "latitude": 46.56505,
    "name": "Aire Picnic",
    "city": "85 Olonne-Sur-Mer (3 tables)",
    "description": ""
  },
  {
    "longitude": 1.95573,
    "latitude": 49.58847,
    "name": "Aire Picnic",
    "city": "60 Fontainlavagand901 Est",
    "description": ""
  },
  {
    "longitude": 1.83968,
    "latitude": 50.10977,
    "name": "Aire Picnic",
    "city": "80 Bd Dla R�publiqu (5 tables + Parc)",
    "description": ""
  },
  {
    "longitude": -3.80506,
    "latitude": 47.90023,
    "name": "Aire Picnic",
    "city": "29 D24 Rosporde> Pont-Aven",
    "description": ""
  },
  {
    "longitude": -0.85715,
    "latitude": 47.6849,
    "name": "Aire Picnic",
    "city": "49 Segr� (5 tables",
    "description": "WC)"
  },
  {
    "longitude": 0.07169,
    "latitude": 44.29633,
    "name": "Aire Picnic",
    "city": "47 Basdloisirs Casteljaloux D933 (12 tables)",
    "description": ""
  },
  {
    "longitude": 6.11134,
    "latitude": 45.6089,
    "name": "Aire Picnic",
    "city": "73 Ailloljeune-Village (2 tables+Ruisseau)",
    "description": ""
  },
  {
    "longitude": -2.15178,
    "latitude": 48.18985,
    "name": "Aire Picnic",
    "city": "35 Saint-Onen-La-Chapell (N164",
    "description": "Tr�l� 2 tables"
  },
  {
    "longitude": -3.65689,
    "latitude": 47.82418,
    "name": "Aire Picnic",
    "city": "29 D24 Riec-Sur-Belon",
    "description": ""
  },
  {
    "longitude": -0.62755,
    "latitude": 45.06737,
    "name": "Aire Picnic",
    "city": "33 Gauriac D669 (3 tables)",
    "description": ""
  },
  {
    "longitude": 7.29028,
    "latitude": 44.11278,
    "name": "Aire Picnic",
    "city": "06 Bor�o1",
    "description": ""
  },
  {
    "longitude": -4.0073,
    "latitude": 48.10136,
    "name": "Aire Picnic",
    "city": "29 Briec (Rue Michel de Cornouaille - 2 tables)",
    "description": ""
  },
  {
    "longitude": 4.91277,
    "latitude": 48.21415,
    "name": "Aire Picnic",
    "city": "52 D619/Colombey-Les-Deux-Eglises (2 tables)",
    "description": ""
  },
  {
    "longitude": 7.29889,
    "latitude": 44.00833,
    "name": "Aire Picnic",
    "city": "06 Roquebillier4",
    "description": ""
  },
  {
    "longitude": 6.26929,
    "latitude": 46.91017,
    "name": "Aire Picnic",
    "city": "25 Chaffois (WC)",
    "description": ""
  },
  {
    "longitude": -0.83356,
    "latitude": 43.6247,
    "name": "Aire Picnic",
    "city": "40 Pomarez 4 tables",
    "description": ""
  },
  {
    "longitude": -3.0219,
    "latitude": 48.09536,
    "name": "Aire Picnic",
    "city": "56 D15 (1 Tabl- Spacieux)",
    "description": ""
  },
  {
    "longitude": -1.00795,
    "latitude": 46.8937,
    "name": "Aire Picnic",
    "city": "85 les Herbiers Monts Des Alouettes D160 7 tables)",
    "description": ""
  },
  {
    "longitude": -4.54189,
    "latitude": 48.01213,
    "name": "Aire Picnic",
    "city": "29 Audiern (Pres Jet�2 tables)",
    "description": ""
  },
  {
    "longitude": -2.49033,
    "latitude": 47.93831,
    "name": "Aire Picnic",
    "city": "56 N24 Plo�rmel >> Josseli (Airdla Colonne",
    "description": "WC)"
  },
  {
    "longitude": 6.24611,
    "latitude": 43.80028,
    "name": "Aire Picnic",
    "city": "83 Saintcroix 1",
    "description": ""
  },
  {
    "longitude": 1.59888,
    "latitude": 43.35743,
    "name": "Aire Picnic",
    "city": "31 Naloux (D622 5 tables Ombrag�)",
    "description": ""
  },
  {
    "longitude": -4.26514,
    "latitude": 48.06505,
    "name": "Aire Picnic",
    "city": "29 Ljuch (Rulouis Tyme2 tables)",
    "description": ""
  },
  {
    "longitude": 0.22092,
    "latitude": 47.24771,
    "name": "Aire Picnic",
    "city": "37 D952 La Chapelle-Sur-Loire (4 tables)",
    "description": ""
  },
  {
    "longitude": 6.35487,
    "latitude": 44.52568,
    "name": "Aire Picnic",
    "city": "05 N94 Prunieres (4 tables Et Vulac Dserrpon�on)",
    "description": ""
  },
  {
    "longitude": 6.98293,
    "latitude": 43.79389,
    "name": "Aire Picnic",
    "city": "06 Saint-Pons (Gr�olieres) (2 tables)",
    "description": ""
  },
  {
    "longitude": 6.26083,
    "latitude": 43.45917,
    "name": "Aire Picnic",
    "city": "83 Thomonet",
    "description": ""
  },
  {
    "longitude": -0.1446,
    "latitude": 48.4503,
    "name": "Aire Picnic",
    "city": "53 Pr� Epail Belvederdes Avaloirs (5 tables)",
    "description": ""
  },
  {
    "longitude": -2.98564,
    "latitude": 48.12826,
    "name": "Aire Picnic",
    "city": "56 D767 (2 tables)",
    "description": ""
  },
  {
    "longitude": -4.252,
    "latitude": 48.10251,
    "name": "Aire Picnic",
    "city": "29 Plon�vez-Porzay (Chapelldla Clart� 1 table)",
    "description": ""
  },
  {
    "longitude": 7.36861,
    "latitude": 43.93833,
    "name": "Aire Picnic",
    "city": "06 Peira Cava 5",
    "description": ""
  },
  {
    "longitude": 2.57497,
    "latitude": 50.2919,
    "name": "Aire Picnic",
    "city": "62 D339 (2 tables)",
    "description": ""
  },
  {
    "longitude": -1.08774,
    "latitude": 46.51767,
    "name": "Aire Picnic",
    "city": "85 N137 (2 tables) Pres Dsaint-Jean-De-Beugn�",
    "description": ""
  },
  {
    "longitude": 5.46681,
    "latitude": 49.29023,
    "name": "Aire Picnic",
    "city": "55 D65 (2 tables Bordur�tang)",
    "description": ""
  },
  {
    "longitude": 1.83504,
    "latitude": 49.61891,
    "name": "Aire Picnic",
    "city": "50 Vauville Bev�dere du Thot D237 2 tables",
    "description": ""
  },
  {
    "longitude": 7.41472,
    "latitude": 43.99639,
    "name": "Aire Picnic",
    "city": "06 Col Turini 6",
    "description": ""
  },
  {
    "longitude": -4.09358,
    "latitude": 48.42772,
    "name": "Aire Picnic",
    "city": "29 Sizu (Chapellsaint-Ildut)",
    "description": ""
  },
  {
    "longitude": 0.43532,
    "latitude": 44.74711,
    "name": "Aire Picnic",
    "city": "24 Mescoules D933 (3 tables)",
    "description": ""
  },
  {
    "longitude": 5.73541,
    "latitude": 47.75468,
    "name": "Aire Picnic",
    "city": "70 Cintrey N19/E54 (1 tables)",
    "description": ""
  },
  {
    "longitude": 1.96885,
    "latitude": 49.42233,
    "name": "Aire Picnic",
    "city": "60 Ons Ebray N31 (Snack Intermittent",
    "description": "WC)"
  },
  {
    "longitude": -0.40118,
    "latitude": 49.32911,
    "name": "Aire Picnic",
    "city": "14 Saint Aubisur Mer (3 tables)",
    "description": ""
  },
  {
    "longitude": 7.35111,
    "latitude": 43.91528,
    "name": "Aire Picnic",
    "city": "06 Peira Cava 1",
    "description": ""
  },
  {
    "longitude": -0.39942,
    "latitude": 42.97374,
    "name": "Aire Picnic",
    "city": "64 Eaux-Bonnes (1 table)",
    "description": ""
  },
  {
    "longitude": 5.84365,
    "latitude": 49.35057,
    "name": "Aire Picnic",
    "city": "54 D156 (2 tables)",
    "description": ""
  },
  {
    "longitude": 2.26375,
    "latitude": 48.7814,
    "name": "Aire Picnic",
    "city": "92 Lplessis-Robinso (Parc Henri Sellier",
    "description": "1 table)"
  },
  {
    "longitude": -2.82311,
    "latitude": 48.63274,
    "name": "Aire Picnic",
    "city": "22 D786 (5 tables + Info & Vusur Mer",
    "description": "WC)"
  },
  {
    "longitude": -4.75363,
    "latitude": 48.52663,
    "name": "Aire Picnic",
    "city": "29 D27 (2 tables)",
    "description": ""
  },
  {
    "longitude": 6.81964,
    "latitude": 44.02907,
    "name": "Aire Picnic",
    "city": "06 D2202 Daluis (1 tablet les Gorges Rouges du Var)",
    "description": ""
  },
  {
    "longitude": 1.71194,
    "latitude": 49.41299,
    "name": "Aire Picnic",
    "city": "76 D915 Neuf March� 2 tables",
    "description": ""
  },
  {
    "longitude": 7.39528,
    "latitude": 44.06667,
    "name": "Aire Picnic",
    "city": "06 Cascadbelv�dere",
    "description": ""
  },
  {
    "longitude": 3.881,
    "latitude": 44.79064,
    "name": "Aire Picnic",
    "city": "43 N88 (5 tables)",
    "description": ""
  },
  {
    "longitude": -2.28837,
    "latitude": 48.00496,
    "name": "Aire Picnic",
    "city": "56 Tr�horenteuc (D141 Val-Sans-Retour ; 4 tables)",
    "description": ""
  },
  {
    "longitude": -1.87143,
    "latitude": 47.71828,
    "name": "Aire Picnic",
    "city": "35 La Louzais D59/D55 3 tables)",
    "description": ""
  },
  {
    "longitude": -1.2876,
    "latitude": 44.03121,
    "name": "Aire Picnic",
    "city": "40 Lit Et Mixd88 (5 tables)",
    "description": ""
  },
  {
    "longitude": -3.87719,
    "latitude": 48.45842,
    "name": "Aire Picnic",
    "city": "29 D785 (1 Tabl)",
    "description": ""
  },
  {
    "longitude": 3.81142,
    "latitude": 45.09253,
    "name": "Aire Picnic",
    "city": "43 N102 Saint Paulie (6 tables Ombrag�s Bellvue)",
    "description": ""
  },
  {
    "longitude": 1.66177,
    "latitude": 50.17097,
    "name": "Aire Picnic",
    "city": "80 Rudu Canal (2 tables)",
    "description": ""
  },
  {
    "longitude": 5.63788,
    "latitude": 48.7422,
    "name": "Aire Picnic",
    "city": "55 D36 (3 tables",
    "description": "Port Plaisance)"
  },
  {
    "longitude": -4.07565,
    "latitude": 48.21693,
    "name": "Aire Picnic",
    "city": "29 Port-Launay (Nord Bourg",
    "description": "1 table)"
  },
  {
    "longitude": 4.8896,
    "latitude": 48.96546,
    "name": "Aire Picnic",
    "city": "51 D982/La Neuville-Aux-Bois (1 table)",
    "description": ""
  },
  {
    "longitude": 7.30083,
    "latitude": 43.99972,
    "name": "Aire Picnic",
    "city": "06 Roquebillier1",
    "description": ""
  },
  {
    "longitude": 0.60472,
    "latitude": 48.12194,
    "name": "Aire Picnic",
    "city": "72 Villaines La Gonais (6 tables",
    "description": "WC)"
  },
  {
    "longitude": 5.11833,
    "latitude": 48.29528,
    "name": "Aire Picnic",
    "city": "N67 (Vers Lsud)- 2 tables",
    "description": ""
  },
  {
    "longitude": -0.15341,
    "latitude": 47.14234,
    "name": "Aire Picnic",
    "city": "49 Montreuil-Bellay (Entrsaumur Et Thouars",
    "description": "2 tables + WC)"
  },
  {
    "longitude": -4.59627,
    "latitude": 48.5936,
    "name": "Aire Picnic",
    "city": "29 Land�da (Kermengui",
    "description": "table (S))"
  },
  {
    "longitude": 6.94887,
    "latitude": 44.08922,
    "name": "Aire Picnic",
    "city": "06 Combario (P�one) (3 tables)",
    "description": ""
  },
  {
    "longitude": -0.2527,
    "latitude": 47.18176,
    "name": "Aire Picnic",
    "city": "49 D960",
    "description": ""
  },
  {
    "longitude": 5.1601,
    "latitude": 49.54512,
    "name": "Aire Picnic",
    "city": "55 Inor (1 table)",
    "description": ""
  },
  {
    "longitude": 4.96921,
    "latitude": 49.09976,
    "name": "Aire Picnic",
    "city": "51 N3 (Airrepos 5 tables + Point Info)",
    "description": ""
  },
  {
    "longitude": 6.90889,
    "latitude": 43.555,
    "name": "Aire Picnic",
    "city": "06 Mandelieu La Napoule",
    "description": ""
  },
  {
    "longitude": -3.60462,
    "latitude": 48.66907,
    "name": "Aire Picnic",
    "city": "22 D786 (2 tables)",
    "description": ""
  },
  {
    "longitude": -0.91071,
    "latitude": 45.40487,
    "name": "Aire Picnic",
    "city": "33 Valeyrac Port Dgoule (2 tables)",
    "description": ""
  },
  {
    "longitude": -4.25462,
    "latitude": 47.79987,
    "name": "Aire Picnic",
    "city": "29 Treffiacat (Chapellsaint-Fiacre",
    "description": "2 tables)"
  },
  {
    "longitude": 0.29287,
    "latitude": 47.26876,
    "name": "Aire Picnic",
    "city": "37 N152/E60 (3 tables)",
    "description": ""
  },
  {
    "longitude": -3.76994,
    "latitude": 47.9438,
    "name": "Aire Picnic",
    "city": "29 Rosporde (D765",
    "description": "1 table)"
  },
  {
    "longitude": 4.80887,
    "latitude": 45.16476,
    "name": "Aire Picnic",
    "city": "07 N86 Ozo (2 tables)",
    "description": ""
  },
  {
    "longitude": -4.18843,
    "latitude": 47.80281,
    "name": "Aire Picnic",
    "city": "29 Loctudy (Chapellsaint-Quido",
    "description": "2 tables)"
  },
  {
    "longitude": -3.83349,
    "latitude": 48.05845,
    "name": "Aire Picnic",
    "city": "29 Coray (D15",
    "description": "2 tables)"
  },
  {
    "longitude": 5.60485,
    "latitude": 49.06296,
    "name": "Aire Picnic",
    "city": "55 D203a (4 tables + Histoire)",
    "description": ""
  },
  {
    "longitude": 0.62274,
    "latitude": 49.83838,
    "name": "Aire Picnic",
    "city": "76 D10",
    "description": ""
  },
  {
    "longitude": -2.48981,
    "latitude": 47.76688,
    "name": "Aire Picnic",
    "city": "56 N166 (Airdes Landes Dlanvaux)",
    "description": ""
  },
  {
    "longitude": 5.4152,
    "latitude": 49.13729,
    "name": "Aire Picnic",
    "city": "55 D964 (3 tables Vusur Vall�dla Meuse)",
    "description": ""
  },
  {
    "longitude": 6.35194,
    "latitude": 43.1825,
    "name": "Aire Picnic",
    "city": "83 Massif Des Maures 2",
    "description": ""
  },
  {
    "longitude": -0.19327,
    "latitude": 47.03417,
    "name": "Aire Picnic",
    "city": "79 D938 (WC)",
    "description": ""
  },
  {
    "longitude": 5.18388,
    "latitude": 49.49051,
    "name": "Aire Picnic",
    "city": "55 D947 (1 Tablau Bord Canal)",
    "description": ""
  },
  {
    "longitude": 6.64444,
    "latitude": 43.74361,
    "name": "Aire Picnic",
    "city": "83 Verdo2",
    "description": ""
  },
  {
    "longitude": -2.25893,
    "latitude": 48.10439,
    "name": "Aire Picnic",
    "city": "56 D766 Plo�rmel >> Saint-M�en-Le-G",
    "description": ""
  },
  {
    "longitude": -3.89653,
    "latitude": 47.99364,
    "name": "Aire Picnic",
    "city": "29 Elliant (Chapellnd du Bosecours",
    "description": "2 tables)"
  },
  {
    "longitude": 2.5079,
    "latitude": 48.69595,
    "name": "Aire Picnic",
    "city": "91 Brunoy (Bord Yerres",
    "description": "2 tables)"
  },
  {
    "longitude": 2.77664,
    "latitude": 47.34362,
    "name": "Aire Picnic",
    "city": "18 Menetou-Ratel (2 tables)",
    "description": ""
  },
  {
    "longitude": 7.35641,
    "latitude": 43.79458,
    "name": "Aire Picnic",
    "city": "06 Blausasc (3 tables)",
    "description": ""
  },
  {
    "longitude": 0.33504,
    "latitude": 44.27523,
    "name": "Aire Picnic",
    "city": "47 Aiguillon",
    "description": ""
  },
  {
    "longitude": 2.48666,
    "latitude": 48.67186,
    "name": "Aire Picnic",
    "city": "91 Montgero (La Souche)",
    "description": ""
  },
  {
    "longitude": 0.94982,
    "latitude": 49.87629,
    "name": "Aire Picnic",
    "city": "76 D925",
    "description": ""
  },
  {
    "longitude": -4.08526,
    "latitude": 48.29064,
    "name": "Aire Picnic",
    "city": "29 Pont-De-Buis-Les-Quimerch (Chapellsaint-L�ger 1 table)",
    "description": ""
  },
  {
    "longitude": -4.2764,
    "latitude": 47.98971,
    "name": "Aire Picnic",
    "city": "29 Plogastel-Saint-Germai (Nord Bourg",
    "description": "1 table)"
  },
  {
    "longitude": 0.45635,
    "latitude": 49.47897,
    "name": "Aire Picnic",
    "city": "76 Tancarvill (D910 tables)",
    "description": ""
  },
  {
    "longitude": -2.82567,
    "latitude": 48.29778,
    "name": "Aire Picnic",
    "city": "22 D700 Airdla Buttrouge",
    "description": ""
  },
  {
    "longitude": 6.78374,
    "latitude": 44.34275,
    "name": "Aire Picnic",
    "city": "04 Jausiers (Col Dla Bonnett3 tables Sitgrandiose",
    "description": "WC)"
  },
  {
    "longitude": 3.89952,
    "latitude": 44.77593,
    "name": "Aire Picnic",
    "city": "43 N102 (5 tables)",
    "description": ""
  },
  {
    "longitude": 6.90528,
    "latitude": 43.88722,
    "name": "Aire Picnic",
    "city": "06 Sallagriffon",
    "description": ""
  },
  {
    "longitude": -0.30245,
    "latitude": 47.189,
    "name": "Aire Picnic",
    "city": "49 D960 Dou� La Fontain (4 tables)",
    "description": ""
  },
  {
    "longitude": 0.93593,
    "latitude": 45.60685,
    "name": "Aire Picnic",
    "city": "17 Semussac D730 (2 tables)",
    "description": ""
  },
  {
    "longitude": 5.15312,
    "latitude": 48.66238,
    "name": "Aire Picnic",
    "city": "55 Lavincourt (2 tables)",
    "description": ""
  },
  {
    "longitude": 5.69134,
    "latitude": 48.93156,
    "name": "Aire Picnic",
    "city": "55 D908 (5 tables + Sympa)",
    "description": ""
  },
  {
    "longitude": -2.3633,
    "latitude": 48.65253,
    "name": "Aire Picnic",
    "city": "22 D34a (2 tables)",
    "description": ""
  },
  {
    "longitude": -4.62127,
    "latitude": 48.02978,
    "name": "Aire Picnic",
    "city": "29 D784 (1 table)",
    "description": ""
  },
  {
    "longitude": 1.46187,
    "latitude": 48.75286,
    "name": "Aire Picnic",
    "city": "28 Cherisy N12 Sud 5 tables",
    "description": ""
  },
  {
    "longitude": 7.40278,
    "latitude": 43.93472,
    "name": "Aire Picnic",
    "city": "06 Moulinettterre",
    "description": ""
  },
  {
    "longitude": -0.25321,
    "latitude": 47.18205,
    "name": "Aire Picnic",
    "city": "49 D960 Dou� La Fontain (2 tables)",
    "description": ""
  },
  {
    "longitude": -0.9099,
    "latitude": 45.40422,
    "name": "Aire Picnic",
    "city": "33 Valeyrac Port Dgoule (3 tables)",
    "description": ""
  },
  {
    "longitude": -2.13277,
    "latitude": 48.1911,
    "name": "Aire Picnic",
    "city": "35 N164 Rennes >> Saint-M�en-Le-Grand (WC)",
    "description": ""
  },
  {
    "longitude": -3.94915,
    "latitude": 48.27046,
    "name": "Aire Picnic",
    "city": "29 D765 Pleyben",
    "description": ""
  },
  {
    "longitude": -0.36692,
    "latitude": 48.208,
    "name": "Aire Picnic",
    "city": "53 D20",
    "description": "Stgemmes Lrobert (4 tables)"
  },
  {
    "longitude": -0.56952,
    "latitude": 45.47598,
    "name": "Aire Picnic",
    "city": "17 N137 St Genis Dsaintong (2 tables)",
    "description": ""
  },
  {
    "longitude": -1.26266,
    "latitude": 45.87666,
    "name": "Aire Picnic",
    "city": "17 Vert-Bois",
    "description": ""
  },
  {
    "longitude": 5.06304,
    "latitude": 44.70937,
    "name": "Aire Picnic",
    "city": "26 D164 Aoustsur Sy (3 tables Ombrag�s)",
    "description": ""
  },
  {
    "longitude": 7.30028,
    "latitude": 44.00833,
    "name": "Aire Picnic",
    "city": "06 Roquebillier3",
    "description": ""
  },
  {
    "longitude": -4.21033,
    "latitude": 48.0981,
    "name": "Aire Picnic",
    "city": "29 Locrona (Entr�ouest 6 tables)",
    "description": ""
  },
  {
    "longitude": 5.80339,
    "latitude": 48.93292,
    "name": "Aire Picnic",
    "city": "54 D904 (1 table)",
    "description": ""
  },
  {
    "longitude": -4.40816,
    "latitude": 48.0629,
    "name": "Aire Picnic",
    "city": "29 Poullan-Sur-Mer (Chapellnd Dk�rinec",
    "description": "1 table)"
  },
  {
    "longitude": 4.89908,
    "latitude": 44.83644,
    "name": "Aire Picnic",
    "city": "26 D111 Etoilsur Rhon (2 tables)",
    "description": ""
  },
  {
    "longitude": -0.63318,
    "latitude": 45.41946,
    "name": "Aire Picnic",
    "city": "17 Saint Ciers du Taillod730 3 tables)",
    "description": ""
  },
  {
    "longitude": -3.21405,
    "latitude": 48.69353,
    "name": "Aire Picnic",
    "city": "22 D21 (1 table)",
    "description": ""
  },
  {
    "longitude": 5.40264,
    "latitude": 48.9578,
    "name": "Aire Picnic",
    "city": "55 D121 (1 table)",
    "description": ""
  },
  {
    "longitude": 3.29573,
    "latitude": 46.29858,
    "name": "Aire Picnic",
    "city": "03 Rn9 St Pourcisur Sioul (1 table)",
    "description": ""
  },
  {
    "longitude": 7.01417,
    "latitude": 43.59833,
    "name": "Aire Picnic",
    "city": "06 Etang Fond Merlmougins (5t)",
    "description": ""
  },
  {
    "longitude": 4.29227,
    "latitude": 49.11577,
    "name": "Aire Picnic",
    "city": "51 Airdlivry-Louvercy (2 tables)",
    "description": ""
  },
  {
    "longitude": 2.09558,
    "latitude": 48.77958,
    "name": "Aire Picnic",
    "city": "78 Guyancourt (Route de La Fontaine Blanche - tables)",
    "description": ""
  },
  {
    "longitude": 5.8232,
    "latitude": 45.78491,
    "name": "Aire Picnic",
    "city": "73 Conjux (Lac du Bourget) (4 tables)",
    "description": ""
  },
  {
    "longitude": 4.49276,
    "latitude": 49.09437,
    "name": "Aire Picnic",
    "city": "51 D977 (2 tables)",
    "description": ""
  },
  {
    "longitude": -4.40927,
    "latitude": 47.94536,
    "name": "Aire Picnic",
    "city": "29 Pouldreuzic (Palud Gourinet 2 tables)",
    "description": ""
  },
  {
    "longitude": 6.36596,
    "latitude": 44.50893,
    "name": "Aire Picnic",
    "city": "04 D7 Pontis (2 tables Et Tres Bellvuet Tres Calme)",
    "description": ""
  },
  {
    "longitude": 5.80444,
    "latitude": 48.08167,
    "name": "Aire Picnic",
    "city": "N429 (2 tables)",
    "description": ""
  },
  {
    "longitude": 5.58928,
    "latitude": 48.88723,
    "name": "Aire Picnic",
    "city": "55 D119 (3 tables)",
    "description": ""
  },
  {
    "longitude": 5.76265,
    "latitude": 48.93067,
    "name": "Aire Picnic",
    "city": "55 D133 (2 tables)",
    "description": ""
  },
  {
    "longitude": 4.15332,
    "latitude": 45.96638,
    "name": "Aire Picnic",
    "city": "42 N7 (5 tables)",
    "description": ""
  },
  {
    "longitude": -0.0008,
    "latitude": 43.50663,
    "name": "Aire Picnic",
    "city": "65 Villefranqud935 3 tables)",
    "description": ""
  },
  {
    "longitude": -2.47166,
    "latitude": 48.01121,
    "name": "Aire Picnic",
    "city": "56 Saint-Malo-Des-Trois-Fontaines (Aux Trois Fontaines)",
    "description": ""
  },
  {
    "longitude": -0.29894,
    "latitude": 47.40871,
    "name": "Aire Picnic",
    "city": "49 D952 (4 tables Tres Sympa Au Bord Dloire)",
    "description": ""
  },
  {
    "longitude": 3.08133,
    "latitude": 45.54589,
    "name": "Aire Picnic",
    "city": "63 D26 (Parking Bord Droutclassique: 3 tables)",
    "description": ""
  },
  {
    "longitude": -4.54707,
    "latitude": 48.06884,
    "name": "Aire Picnic",
    "city": "29 Beuzec-Cap-Sizu (D7",
    "description": "1 table)"
  },
  {
    "longitude": 5.59316,
    "latitude": 48.88615,
    "name": "Aire Picnic",
    "city": "55 D119 (1 Tabl)",
    "description": ""
  },
  {
    "longitude": -4.33973,
    "latitude": 48.35822,
    "name": "Aire Picnic",
    "city": "29 Plougastel-Daoulas (Pont Kalleg 1 table)",
    "description": ""
  },
  {
    "longitude": -0.44281,
    "latitude": 43.12716,
    "name": "Aire Picnic",
    "city": "64 D920/Bescat (2 tables)",
    "description": ""
  },
  {
    "longitude": -0.12246,
    "latitude": 48.47371,
    "name": "Aire Picnic",
    "city": "61 Lalacellrn12 (1 tables)",
    "description": ""
  },
  {
    "longitude": -4.5203,
    "latitude": 48.59297,
    "name": "Aire Picnic",
    "city": "29 Plougerneau (Belv�dere",
    "description": "2 tables)"
  },
  {
    "longitude": 2.56079,
    "latitude": 50.28552,
    "name": "Aire Picnic",
    "city": "62 D339 (2 tables)",
    "description": ""
  },
  {
    "longitude": 7.23778,
    "latitude": 44.00944,
    "name": "Aire Picnic",
    "city": "06 Roquebillier10",
    "description": ""
  },
  {
    "longitude": -0.68375,
    "latitude": 43.26803,
    "name": "Aire Picnic",
    "city": "64 Saucedchemid'estremeres (6 tables + Barbecue)",
    "description": ""
  },
  {
    "longitude": -0.2773,
    "latitude": 47.4541,
    "name": "Aire Picnic",
    "city": "49 N147/E60 (3 tables)",
    "description": ""
  },
  {
    "longitude": -4.32873,
    "latitude": 48.27078,
    "name": "Aire Picnic",
    "city": "29 Land�vennec (D60 tables)",
    "description": ""
  },
  {
    "longitude": 7.39083,
    "latitude": 43.98278,
    "name": "Aire Picnic",
    "city": "06 Col Turini 4",
    "description": ""
  },
  {
    "longitude": 5.77199,
    "latitude": 48.98447,
    "name": "Aire Picnic",
    "city": "55 D901 (3 tables)",
    "description": ""
  },
  {
    "longitude": 4.4823,
    "latitude": 49.08324,
    "name": "Aire Picnic",
    "city": "51 D977 (2 tables)",
    "description": ""
  },
  {
    "longitude": -4.57795,
    "latitude": 48.26415,
    "name": "Aire Picnic",
    "city": "29 D8 (2 tables)",
    "description": ""
  },
  {
    "longitude": 6.32694,
    "latitude": 43.18806,
    "name": "Aire Picnic",
    "city": "83 Massif Des Maures 1",
    "description": ""
  },
  {
    "longitude": -1.08305,
    "latitude": 45.56053,
    "name": "Aire Picnic",
    "city": "33 Lverdopharst-Nicolas (8 tables)",
    "description": ""
  },
  {
    "longitude": -0.1926,
    "latitude": 46.90811,
    "name": "Aire Picnic",
    "city": "79 D938 (WC)",
    "description": ""
  },
  {
    "longitude": 1.51317,
    "latitude": 46.50602,
    "name": "Aire Picnic",
    "city": "36 Bazaiges",
    "description": ""
  },
  {
    "longitude": 0.95508,
    "latitude": 46.16681,
    "name": "Aire Picnic",
    "city": "87 Saint Bonnet (2 tables)",
    "description": ""
  },
  {
    "longitude": -0.7128,
    "latitude": 47.07273,
    "name": "Aire Picnic",
    "city": "49 Etang Dp�ronnes (3 tables)",
    "description": ""
  },
  {
    "longitude": 7.23472,
    "latitude": 44.03583,
    "name": "Aire Picnic",
    "city": "06 Venanso2",
    "description": ""
  },
  {
    "longitude": -0.40779,
    "latitude": 46.49964,
    "name": "Aire Picnic",
    "city": "79 Champdeniers (3 tables)",
    "description": ""
  },
  {
    "longitude": 2.26882,
    "latitude": 48.77426,
    "name": "Aire Picnic",
    "city": "92 Ch�tenay-Malabry (Jardin de L'aigle Blanc - 3 tables",
    "description": ""
  },
  {
    "longitude": 4.56216,
    "latitude": 49.2479,
    "name": "Aire Picnic",
    "city": "51 D977 (2 tables)",
    "description": ""
  },
  {
    "longitude": 5.63321,
    "latitude": 47.97398,
    "name": "Aire Picnic",
    "city": "52 Pouilly-En-Bassigny (2 tables",
    "description": "Sourcdla Meuse)"
  },
  {
    "longitude": -0.34333,
    "latitude": 47.17366,
    "name": "Aire Picnic",
    "city": "49 D960 (Point Info - Tres Sympa",
    "description": "WC)"
  },
  {
    "longitude": -4.32603,
    "latitude": 47.81666,
    "name": "Aire Picnic",
    "city": "29 D785 Plomeur > Penmarch",
    "description": ""
  },
  {
    "longitude": 5.60583,
    "latitude": 44.55187,
    "name": "Aire Picnic",
    "city": "05 D993 La Beaum (1 Tabltres Bellvue)",
    "description": ""
  },
  {
    "longitude": 5.60294,
    "latitude": 48.73624,
    "name": "Aire Picnic",
    "city": "55 D964 (2 tables)",
    "description": ""
  },
  {
    "longitude": 4.6033,
    "latitude": 46.94931,
    "name": "Aire Picnic",
    "city": "71 Epertully (D973)",
    "description": ""
  },
  {
    "longitude": -3.39172,
    "latitude": 48.74361,
    "name": "Aire Picnic",
    "city": "22 D786 (3 tables)",
    "description": ""
  },
  {
    "longitude": -4.40306,
    "latitude": 48.24727,
    "name": "Aire Picnic",
    "city": "29 D887 Crozo>> Ch�teaulin",
    "description": ""
  },
  {
    "longitude": 2.44056,
    "latitude": 48.67052,
    "name": "Aire Picnic",
    "city": "91 Draveil (Ermitag tables)",
    "description": ""
  },
  {
    "longitude": 2.89417,
    "latitude": 47.51012,
    "name": "Aire Picnic",
    "city": "58 Neuvy S/Loird907 (4 tables)",
    "description": ""
  },
  {
    "longitude": 0.29478,
    "latitude": 47.26958,
    "name": "Aire Picnic",
    "city": "37 N152/E60 (3 tables)",
    "description": ""
  },
  {
    "longitude": -0.09527,
    "latitude": 44.94592,
    "name": "Aire Picnic",
    "city": "33 Lussac (5 tables",
    "description": "WC"
  },
  {
    "longitude": 6.98557,
    "latitude": 49.13499,
    "name": "Aire Picnic",
    "city": "57 Nousseviller (2 tables)",
    "description": ""
  },
  {
    "longitude": 0.10865,
    "latitude": 47.18692,
    "name": "Aire Picnic",
    "city": "37 D751 (7 tables + Sympa)",
    "description": ""
  },
  {
    "longitude": 0.01437,
    "latitude": 48.02119,
    "name": "Aire Picnic",
    "city": "72 Coulans-Sur-G� (3 tables)",
    "description": ""
  },
  {
    "longitude": 2.19263,
    "latitude": 48.79398,
    "name": "Aire Picnic",
    "city": "78 V�lizy-Villacoublay (Rond Vert 2 tables)",
    "description": ""
  },
  {
    "longitude": -1.27712,
    "latitude": 46.46981,
    "name": "Aire Picnic",
    "city": "85 La Bretonnierla Clayd 949 (3 tables)",
    "description": ""
  },
  {
    "longitude": 5.66892,
    "latitude": 43.25726,
    "name": "Aire Picnic",
    "city": "13 Ceyrest (D3 14 tables Ombrag�es)",
    "description": ""
  },
  {
    "longitude": 2.1971,
    "latitude": 48.66613,
    "name": "Aire Picnic",
    "city": "91 Marcoussis (Bois Des Carr�s",
    "description": "2 tables)"
  },
  {
    "longitude": 1.06434,
    "latitude": 44.85939,
    "name": "Aire Picnic",
    "city": "24 D703 Pr�s Dcastels (4 tables)",
    "description": ""
  },
  {
    "longitude": -1.35777,
    "latitude": 49.30573,
    "name": "Aire Picnic",
    "city": "50 Baupt (Riviere",
    "description": "tables"
  },
  {
    "longitude": 4.67253,
    "latitude": 48.42854,
    "name": "Aire Picnic",
    "city": "10 D400 (3 tables + Infos",
    "description": "les Grands Lacs)"
  },
  {
    "longitude": -2.84547,
    "latitude": 47.89037,
    "name": "Aire Picnic",
    "city": "56 Locmin� (Bod Avel)",
    "description": ""
  },
  {
    "longitude": -0.24354,
    "latitude": 44.36959,
    "name": "Aire Picnic",
    "city": "33 Bernos (3 tables",
    "description": "WC"
  },
  {
    "longitude": -1.81168,
    "latitude": 46.56046,
    "name": "Aire Picnic",
    "city": "85 Olonne-Sur-Mer (3 tables)",
    "description": ""
  },
  {
    "longitude": 5.13513,
    "latitude": 48.32953,
    "name": "Aire Picnic",
    "city": "N67 - 2 tables (Directionord)",
    "description": ""
  },
  {
    "longitude": 2.18682,
    "latitude": 48.79436,
    "name": "Aire Picnic",
    "city": "78 V�lizy-Villacoublay (Ouest �tang 1 table)",
    "description": ""
  },
  {
    "longitude": 1.27223,
    "latitude": 48.04444,
    "name": "Aire Picnic",
    "city": "28 Douy",
    "description": "Au Bord Dl'�tang"
  },
  {
    "longitude": -0.11529,
    "latitude": 47.21467,
    "name": "Aire Picnic",
    "city": "49 N147 Distr (6 tables+�tang)",
    "description": ""
  },
  {
    "longitude": -3.61904,
    "latitude": 48.68089,
    "name": "Aire Picnic",
    "city": "22 D42 (1 table",
    "description": "umer)"
  },
  {
    "longitude": -3.49031,
    "latitude": 48.71812,
    "name": "Aire Picnic",
    "city": "22 D786 (3 tables + Info)",
    "description": ""
  },
  {
    "longitude": 4.88114,
    "latitude": 44.94246,
    "name": "Aire Picnic",
    "city": "07 Guilherand Granges (Tabljeux)",
    "description": ""
  },
  {
    "longitude": 7.4769,
    "latitude": 43.92459,
    "name": "Aire Picnic",
    "city": "06 Col Dbrouis (Breil Sur Roya) (2 tables)",
    "description": ""
  },
  {
    "longitude": 0.36068,
    "latitude": 43.99171,
    "name": "Aire Picnic",
    "city": "32 D930 (2 tables+WC) Pres Dcondom",
    "description": ""
  },
  {
    "longitude": -4.2574,
    "latitude": 48.37463,
    "name": "Aire Picnic",
    "city": "29 D770 (Landerneau >> Daoulas)",
    "description": ""
  },
  {
    "longitude": 7.08028,
    "latitude": 47.85694,
    "name": "Aire Picnic",
    "city": "68 D13 (2 tables)",
    "description": ""
  },
  {
    "longitude": -2.87909,
    "latitude": 48.36354,
    "name": "Aire Picnic",
    "city": "22 D7 (2 tables Bord �tang",
    "description": "WC)"
  },
  {
    "longitude": 4.24555,
    "latitude": 46.43966,
    "name": "Aire Picnic",
    "city": "71 Charolles Rn79/E62 (2 tables)",
    "description": ""
  },
  {
    "longitude": -2.27234,
    "latitude": 48.61155,
    "name": "Aire Picnic",
    "city": "22 D13 (2 tables)",
    "description": ""
  },
  {
    "longitude": -0.30884,
    "latitude": 44.08959,
    "name": "Aire Picnic",
    "city": "40 D932 (6 tables",
    "description": "WC)"
  },
  {
    "longitude": 7.27028,
    "latitude": 44.00778,
    "name": "Aire Picnic",
    "city": "06 Roquebillier9",
    "description": ""
  },
  {
    "longitude": 0.13497,
    "latitude": 46.89645,
    "name": "Aire Picnic",
    "city": "86 D347 Repos (2 tables",
    "description": "WC)"
  },
  {
    "longitude": 5.50233,
    "latitude": 45.61076,
    "name": "Aire Picnic",
    "city": "38 Dolomieu (3 tables)",
    "description": ""
  },
  {
    "longitude": -3.70083,
    "latitude": 48.22077,
    "name": "Aire Picnic",
    "city": "29 Cl�den-Poher (�cluspont Triffe2 tables)",
    "description": ""
  },
  {
    "longitude": 0.218,
    "latitude": 44.41368,
    "name": "Aire Picnic",
    "city": "47 Lmas D'agenais (3 tables)",
    "description": ""
  },
  {
    "longitude": -4.18069,
    "latitude": 48.10688,
    "name": "Aire Picnic",
    "city": "29 D7 Locrona>> Kerlaz",
    "description": ""
  },
  {
    "longitude": 0.92388,
    "latitude": 49.40731,
    "name": "Aire Picnic",
    "city": "76 Bardouvill (3 tables)",
    "description": ""
  },
  {
    "longitude": -3.66624,
    "latitude": 48.48466,
    "name": "Aire Picnic",
    "city": "29 D42 (2 tables)",
    "description": ""
  },
  {
    "longitude": 7.02861,
    "latitude": 43.60083,
    "name": "Aire Picnic",
    "city": "06 Valmasqu (10t",
    "description": "WC"
  },
  {
    "longitude": -0.79008,
    "latitude": 46.1349,
    "name": "Aire Picnic",
    "city": "17 Rd 115 (2 tables)",
    "description": ""
  },
  {
    "longitude": 5.05365,
    "latitude": 45.32433,
    "name": "Aire Picnic",
    "city": "38 Beaurepair (D538) (2 tables Toilettes Info)",
    "description": ""
  },
  {
    "longitude": -4.10821,
    "latitude": 48.22269,
    "name": "Aire Picnic",
    "city": "29 Saint-S�gal (Chapellsaint-S�bastien",
    "description": "1 table)"
  },
  {
    "longitude": 3.46432,
    "latitude": 46.88612,
    "name": "Aire Picnic",
    "city": "58 D34 La Machine (11 tables Sans WC",
    "description": "Jeux)"
  },
  {
    "longitude": -4.28918,
    "latitude": 47.8975,
    "name": "Aire Picnic",
    "city": "29 D57 Plon�our-Lanversaint-Jean-Trilomon",
    "description": ""
  },
  {
    "longitude": 3.55166,
    "latitude": 48.85304,
    "name": "Aire Picnic",
    "city": "51 Montmirail D373 (3 tables)",
    "description": ""
  },
  {
    "longitude": 5.6032,
    "latitude": 48.73627,
    "name": "Aire Picnic",
    "city": "55 D964 (3 tables)",
    "description": ""
  },
  {
    "longitude": 6.91639,
    "latitude": 43.59444,
    "name": "Aire Picnic",
    "city": "06 Auribeau/Siagne",
    "description": ""
  },
  {
    "longitude": 4.21791,
    "latitude": 49.14607,
    "name": "Aire Picnic",
    "city": "51 Airdu Val Dvesles (3 tables)",
    "description": ""
  },
  {
    "longitude": -4.14457,
    "latitude": 48.03935,
    "name": "Aire Picnic",
    "city": "29 Plogonnec (Chapellnd Dlorette)",
    "description": ""
  },
  {
    "longitude": 1.1781,
    "latitude": 48.85422,
    "name": "Aire Picnic",
    "city": "27 N154 (3 tables Toilettes)",
    "description": ""
  },
  {
    "longitude": 3.78479,
    "latitude": 46.50217,
    "name": "Aire Picnic",
    "city": "03 N79 (12 tables Sur Airdrepos Avec WC)",
    "description": ""
  },
  {
    "longitude": 1.79291,
    "latitude": 49.7866,
    "name": "Aire Picnic",
    "city": "80 Gauvilld1015 Ouest",
    "description": ""
  },
  {
    "longitude": -5.66256,
    "latitude": 48.61752,
    "name": "Aire Picnic",
    "city": "55 D 964 (4 tables)",
    "description": ""
  },
  {
    "longitude": -0.02596,
    "latitude": 47.30347,
    "name": "Aire Picnic",
    "city": "49 D10 (3 tables)",
    "description": ""
  },
  {
    "longitude": -0.5971,
    "latitude": 46.57649,
    "name": "Aire Picnic",
    "city": "79 Lbusseau (2 tables)",
    "description": ""
  },
  {
    "longitude": -3.93338,
    "latitude": 48.19003,
    "name": "Aire Picnic",
    "city": "29 Lennon (Ty Men - 2 tables Et WC)",
    "description": ""
  },
  {
    "longitude": 1.52049,
    "latitude": 43.30655,
    "name": "Aire Picnic",
    "city": "31 N20/E9 (4 tables) Cintegabelle",
    "description": ""
  },
  {
    "longitude": -4.51242,
    "latitude": 48.0754,
    "name": "Aire Picnic",
    "city": "29 Beuzec-Cap-Sizu (Bourg)",
    "description": ""
  },
  {
    "longitude": 4.0044,
    "latitude": 45.20428,
    "name": "Aire Picnic",
    "city": "43 Chamalieres S/Loird103 (2 tables)",
    "description": ""
  },
  {
    "longitude": 3.1038,
    "latitude": 45.58753,
    "name": "Aire Picnic",
    "city": "63 Montaigut-Le-Blanc (D996) 1 table",
    "description": ""
  },
  {
    "longitude": 6.15778,
    "latitude": 43.76056,
    "name": "Aire Picnic",
    "city": "83 Saintcroix 8",
    "description": ""
  },
  {
    "longitude": 5.6646,
    "latitude": 49.03346,
    "name": "Aire Picnic",
    "city": "55 D908 (3 tables)",
    "description": ""
  },
  {
    "longitude": 0.33561,
    "latitude": 45.26461,
    "name": "Aire Picnic",
    "city": "17 Chepniers D730 (6 tables)",
    "description": ""
  },
  {
    "longitude": 2.03625,
    "latitude": 48.86759,
    "name": "Aire Picnic",
    "city": "78 Saint-Nom-La-Bretech (Carrefour Royal tables)",
    "description": ""
  },
  {
    "longitude": -3.69655,
    "latitude": 48.02624,
    "name": "Aire Picnic",
    "city": "29 Sca�r (Bourg)",
    "description": ""
  },
  {
    "longitude": 3.26851,
    "latitude": 48.96779,
    "name": "Aire Picnic",
    "city": "02 Rd 969 (3 tables",
    "description": "Bellvue)"
  },
  {
    "longitude": 6.93667,
    "latitude": 43.82917,
    "name": "Aire Picnic",
    "city": "06 Gr�olierles Neige",
    "description": ""
  },
  {
    "longitude": 0.23996,
    "latitude": 47.28472,
    "name": "Aire Picnic",
    "city": "37 D35 (5 tables)",
    "description": ""
  },
  {
    "longitude": -2.50184,
    "latitude": 48.57661,
    "name": "Aire Picnic",
    "city": "22 D17a (3 tables)",
    "description": ""
  },
  {
    "longitude": 7.41056,
    "latitude": 43.995,
    "name": "Aire Picnic",
    "city": "06 Col Turini 5",
    "description": ""
  },
  {
    "longitude": 0.51401,
    "latitude": 47.28479,
    "name": "Aire Picnic",
    "city": "37 D751 (5 tables Esous Bois)",
    "description": ""
  },
  {
    "longitude": -4.36358,
    "latitude": 48.09692,
    "name": "Aire Picnic",
    "city": "29 Douarnenez (Ouest Dtr�boul",
    "description": "1 table)"
  },
  {
    "longitude": 5.23339,
    "latitude": 48.02192,
    "name": "Aire Picnic",
    "city": "52 Marnay Sur Marnd619 (3 tables)",
    "description": ""
  },
  {
    "longitude": -0.99611,
    "latitude": 48.54083,
    "name": "Aire Picnic",
    "city": "D976 Alenco (10 tables)",
    "description": ""
  },
  {
    "longitude": 1.50626,
    "latitude": 47.62434,
    "name": "Aire Picnic",
    "city": "41 D112a Chambord",
    "description": ""
  },
  {
    "longitude": 6.03279,
    "latitude": 46.81058,
    "name": "Aire Picnic",
    "city": "39 Censeau",
    "description": ""
  },
  {
    "longitude": 1.25678,
    "latitude": 47.05375,
    "name": "Aire Picnic",
    "city": "37 Villedomain",
    "description": ""
  },
  {
    "longitude": 5.27305,
    "latitude": 48.94395,
    "name": "Aire Picnic",
    "city": "55 N23 Voisacr� (2 tables)",
    "description": ""
  },
  {
    "longitude": -0.66082,
    "latitude": 49.0799,
    "name": "Aire Picnic",
    "city": "14 Villers Bocag (Parking Camping Car)",
    "description": ""
  },
  {
    "longitude": -2.18721,
    "latitude": 48.42675,
    "name": "Aire Picnic",
    "city": "22 Air du Pays Dpl�lan176 (5 tables)",
    "description": ""
  },
  {
    "longitude": -3.47999,
    "latitude": 48.82477,
    "name": "Aire Picnic",
    "city": "22 D788 (4 tables - Statues)",
    "description": ""
  },
  {
    "longitude": -4.26017,
    "latitude": 48.4483,
    "name": "Aire Picnic",
    "city": "29 Landerneau (3 tables + Chemidhalage)",
    "description": ""
  },
  {
    "longitude": -0.83801,
    "latitude": 46.16991,
    "name": "Aire Picnic",
    "city": "17 Rd 115 (3 tables)",
    "description": ""
  },
  {
    "longitude": -3.55098,
    "latitude": 47.76542,
    "name": "Aire Picnic",
    "city": "29 Clohars-Carno�t (17 Place de L'oc�an - 2 tables)",
    "description": ""
  },
  {
    "longitude": -3.97901,
    "latitude": 48.00727,
    "name": "Aire Picnic",
    "city": "29 Ergu�-Gab�ric (Acces Fontaindkerdevot 1 table)",
    "description": ""
  },
  {
    "longitude": 2.48414,
    "latitude": 50.80468,
    "name": "Aire Picnic",
    "city": "59 D218 (3 tables + Point Dvue)",
    "description": ""
  },
  {
    "longitude": 7.04417,
    "latitude": 43.61222,
    "name": "Aire Picnic",
    "city": "06 Valmasqu (5t)",
    "description": ""
  },
  {
    "longitude": 6.03995,
    "latitude": 48.81257,
    "name": "Aire Picnic",
    "city": "54 Dieulouard (N411)",
    "description": ""
  },
  {
    "longitude": 0.95196,
    "latitude": 45.84559,
    "name": "Aire Picnic",
    "city": "17 les Prises du Mitant (2 tables)",
    "description": ""
  },
  {
    "longitude": 5.45261,
    "latitude": 49.16876,
    "name": "Aire Picnic",
    "city": "55 D913 (5 tables Sous les Arbres + Sympa)",
    "description": ""
  },
  {
    "longitude": -3.19651,
    "latitude": 47.84048,
    "name": "Aire Picnic",
    "city": "56 Languidic (Chapellsaint-Urlo",
    "description": "1 table)"
  },
  {
    "longitude": 2.23525,
    "latitude": 50.89242,
    "name": "Aire Picnic",
    "city": "D300 (3 Ou 4 tables)",
    "description": ""
  },
  {
    "longitude": 0.42244,
    "latitude": 46.7022,
    "name": "Aire Picnic",
    "city": "86 Dissay (5 tables",
    "description": "Jeux)"
  },
  {
    "longitude": 0.75444,
    "latitude": 45.14985,
    "name": "Aire Picnic",
    "city": "47 N113 St Jeadthurac (6 tables)",
    "description": ""
  },
  {
    "longitude": 0.64596,
    "latitude": 42.95849,
    "name": "Aire Picnic",
    "city": "31 Fronsac D33 (7 tables + WC + Bar)",
    "description": ""
  },
  {
    "longitude": 4.99151,
    "latitude": 48.17761,
    "name": "Aire Picnic",
    "city": "52 D619/Blaisy (1 table)",
    "description": ""
  },
  {
    "longitude": 5.65517,
    "latitude": 48.45755,
    "name": "Aire Picnic",
    "city": "88 D966/Domr�my-La-Pucelle (Greux) (2 tables)",
    "description": ""
  },
  {
    "longitude": -4.1134,
    "latitude": 47.86308,
    "name": "Aire Picnic",
    "city": "29 Combrit (Pointdcombrit)",
    "description": ""
  },
  {
    "longitude": 5.42815,
    "latitude": 49.17945,
    "name": "Aire Picnic",
    "city": "55 D112 (6 tables Esousbois)",
    "description": ""
  },
  {
    "longitude": 2.55745,
    "latitude": 48.5872,
    "name": "Aire Picnic",
    "city": "77 Nandy (For�t D'arqueil",
    "description": "3 tables)"
  },
  {
    "longitude": 5.41945,
    "latitude": 49.35071,
    "name": "Aire Picnic",
    "city": "55 (1 Tabl+ Ch�ncentenaire)",
    "description": ""
  },
  {
    "longitude": 6.64139,
    "latitude": 43.73944,
    "name": "Aire Picnic",
    "city": "83 Verdo5",
    "description": ""
  },
  {
    "longitude": -0.0771,
    "latitude": 47.62422,
    "name": "Aire Picnic",
    "city": "49 Clefs (3 tables)",
    "description": ""
  },
  {
    "longitude": 2.29975,
    "latitude": 43.41378,
    "name": "Aire Picnic",
    "city": "11 les Martys (2 tables)",
    "description": ""
  },
  {
    "longitude": 6.87083,
    "latitude": 43.4525,
    "name": "Aire Picnic",
    "city": "83 Esterel 4",
    "description": ""
  },
  {
    "longitude": 4.54549,
    "latitude": 49.1827,
    "name": "Aire Picnic",
    "city": "51 D977 (4 tables)",
    "description": ""
  },
  {
    "longitude": 4.33623,
    "latitude": 45.916,
    "name": "Aire Picnic",
    "city": "42 N7 Vers Sud (2 tables)",
    "description": ""
  },
  {
    "longitude": -4.15611,
    "latitude": 48.13421,
    "name": "Aire Picnic",
    "city": "29 Cast (D7 1 table)",
    "description": ""
  },
  {
    "longitude": 5.6552,
    "latitude": 49.30792,
    "name": "Aire Picnic",
    "city": "55 N18 (1 table)",
    "description": ""
  },
  {
    "longitude": -4.70872,
    "latitude": 48.05327,
    "name": "Aire Picnic",
    "city": "29 Beuzec-Cap-Sizu (Nord Baides Tr�pass�es",
    "description": "tables)"
  },
  {
    "longitude": 5.5657,
    "latitude": 44.56704,
    "name": "Aire Picnic",
    "city": "26 D93 Beaurieres (3 tables)",
    "description": ""
  },
  {
    "longitude": -2.13687,
    "latitude": 48.61588,
    "name": "Aire Picnic",
    "city": "22 D786 (2 tables)",
    "description": ""
  },
  {
    "longitude": -0.8346,
    "latitude": 45.50112,
    "name": "Aire Picnic",
    "city": "17 St-Seurin-D Uzet 5 tables",
    "description": ""
  },
  {
    "longitude": -4.50783,
    "latitude": 48.50224,
    "name": "Aire Picnic",
    "city": "29 Bourg-Blanc (Nord Bourg",
    "description": "tables)"
  },
  {
    "longitude": 6.77562,
    "latitude": 46.20789,
    "name": "Aire Picnic",
    "city": "74 D338 les Lindarets (Montriond) (4 tables)",
    "description": ""
  },
  {
    "longitude": -1.06525,
    "latitude": 46.65347,
    "name": "Aire Picnic",
    "city": "85 Retenudl'anglguignard Touchegray (10 tables+WC)",
    "description": ""
  },
  {
    "longitude": 7.35694,
    "latitude": 43.91833,
    "name": "Aire Picnic",
    "city": "06 Peira Cava 2",
    "description": ""
  },
  {
    "longitude": 6.94722,
    "latitude": 43.53556,
    "name": "Aire Picnic",
    "city": "06 Mandelieu",
    "description": ""
  },
  {
    "longitude": 3.76187,
    "latitude": 45.10685,
    "name": "Aire Picnic",
    "city": "43 N102 Loudes (4 tables Ombrag�s)",
    "description": ""
  },
  {
    "longitude": -3.65715,
    "latitude": 48.64517,
    "name": "Aire Picnic",
    "city": "22 D786 (2 tables + Info)",
    "description": ""
  },
  {
    "longitude": -4.65571,
    "latitude": 48.03505,
    "name": "Aire Picnic",
    "city": "29 Plogoff (D784 2 tables)",
    "description": ""
  },
  {
    "longitude": -4.41634,
    "latitude": 48.08047,
    "name": "Aire Picnic",
    "city": "29 Poullan-Sur-Mer (Bourg",
    "description": "table (S))"
  },
  {
    "longitude": 0.34206,
    "latitude": 47.54125,
    "name": "[Picnic Nv] 37 D959",
    "city": "",
    "description": ""
  },
  {
    "longitude": -2.05634,
    "latitude": 48.02134,
    "name": "Aire Picnic",
    "city": "35 N24 (Airdpaimpont-Broc�liande)",
    "description": ""
  },
  {
    "longitude": 6.07361,
    "latitude": 46.06333,
    "name": "Aire Picnic",
    "city": "74 N201 (3 tables Epierres)",
    "description": ""
  },
  {
    "longitude": 0.72758,
    "latitude": 49.55759,
    "name": "Aire Picnic",
    "city": "76 D490",
    "description": ""
  },
  {
    "longitude": 5.10946,
    "latitude": 45.75224,
    "name": "Aire Picnic",
    "city": "38 Janneyrias (26-30 D517) 6 tables",
    "description": ""
  },
  {
    "longitude": -4.16327,
    "latitude": 47.90142,
    "name": "Aire Picnic",
    "city": "29 Plomeli (Lestr�meur 2 tables)",
    "description": ""
  },
  {
    "longitude": -0.44606,
    "latitude": 42.92443,
    "name": "Aire Picnic",
    "city": "64 Laruns D934 5 tables)",
    "description": ""
  },
  {
    "longitude": 3.47143,
    "latitude": 43.30007,
    "name": "Aire Picnic",
    "city": "34 Agde",
    "description": ""
  },
  {
    "longitude": 5.66102,
    "latitude": 48.73554,
    "name": "Aire Picnic",
    "city": "55 D39 (3 tables Et Jeux)",
    "description": ""
  },
  {
    "longitude": 6.63972,
    "latitude": 43.74194,
    "name": "Aire Picnic",
    "city": "83 Verdo4",
    "description": ""
  },
  {
    "longitude": 2.31549,
    "latitude": 43.38412,
    "name": "Aire Picnic",
    "city": "11 Cuxac (les Grifouls -1 tables)",
    "description": ""
  },
  {
    "longitude": 0.0215,
    "latitude": 47.06085,
    "name": "Aire Picnic",
    "city": "86 N147 (4 tables + Point Info)",
    "description": ""
  },
  {
    "longitude": 0.69173,
    "latitude": 42.90514,
    "name": "[Picnic Nv] 31 N125 Saint B�at (5 tables)",
    "city": "",
    "description": ""
  },
  {
    "longitude": -3.75526,
    "latitude": 47.85933,
    "name": "Aire Picnic",
    "city": "29 D24 Pont-Ave (Entr�bourg)",
    "description": ""
  },
  {
    "longitude": 1.06188,
    "latitude": 46.16095,
    "name": "Aire Picnic",
    "city": "87 St Ouesur Gartempe",
    "description": ""
  },
  {
    "longitude": -3.16278,
    "latitude": 47.83538,
    "name": "Aire Picnic",
    "city": "56 Languidic (N24 1 table)",
    "description": ""
  },
  {
    "longitude": -3.95295,
    "latitude": 48.28813,
    "name": "Aire Picnic",
    "city": "29 D785 (5 tables)",
    "description": ""
  },
  {
    "longitude": -3.83821,
    "latitude": 48.17339,
    "name": "Aire Picnic",
    "city": "29 D72 Ch�teauneuf-Du-Faou",
    "description": ""
  },
  {
    "longitude": 5.71519,
    "latitude": 46.45566,
    "name": "Aire Picnic",
    "city": "39 D470 (3 tables)",
    "description": ""
  },
  {
    "longitude": 3.73618,
    "latitude": 46.62931,
    "name": "Aire Picnic",
    "city": "71 Bourbolancy D973/D979 Carrefour Des Alouettes (6 tables)",
    "description": ""
  },
  {
    "longitude": 0.3096,
    "latitude": 48.81002,
    "name": "Aire Picnic",
    "city": "61 Airdbeaulieu Saint Evroult Dmontfort N138 2 tables",
    "description": ""
  },
  {
    "longitude": 4.9035,
    "latitude": 48.6178,
    "name": "Aire Picnic",
    "city": "52 Valcourt (2 tables)",
    "description": ""
  },
  {
    "longitude": -0.7553,
    "latitude": 46.21387,
    "name": "Aire Picnic",
    "city": "17 R11 (tables",
    "description": "WC"
  },
  {
    "longitude": 2.18847,
    "latitude": 48.79407,
    "name": "Aire Picnic",
    "city": "78 V�lizy-Villacoublay (Est �tang 3 tables)",
    "description": ""
  },
  {
    "longitude": -3.849,
    "latitude": 48.35044,
    "name": "Aire Picnic",
    "city": "29 Brennilis (Sud Bourg",
    "description": "1 table)"
  },
  {
    "longitude": 0.79925,
    "latitude": 47.36428,
    "name": "Aire Picnic",
    "city": "37 V�retz",
    "description": ""
  },
  {
    "longitude": 6.22917,
    "latitude": 43.79389,
    "name": "Aire Picnic",
    "city": "83 Saintcroix 2",
    "description": ""
  },
  {
    "longitude": 7.38806,
    "latitude": 43.98167,
    "name": "Aire Picnic",
    "city": "06 Col Turini 3",
    "description": ""
  },
  {
    "longitude": 5.31269,
    "latitude": 48.83163,
    "name": "Aire Picnic",
    "city": "55 D901 (4 tables)",
    "description": ""
  },
  {
    "longitude": -3.5728,
    "latitude": 48.67502,
    "name": "Aire Picnic",
    "city": "22 D786 (2 tables)",
    "description": ""
  },
  {
    "longitude": -2.13263,
    "latitude": 47.72461,
    "name": "Aire Picnic",
    "city": "56 Gl�nac (7 tables)",
    "description": ""
  },
  {
    "longitude": -4.53504,
    "latitude": 48.55337,
    "name": "Aire Picnic",
    "city": "29 D28 (4 tables)",
    "description": ""
  },
  {
    "longitude": 3.76385,
    "latitude": 48.65423,
    "name": "Aire Picnic",
    "city": "51 Allemanchlaunay D 373 (1 tables)",
    "description": ""
  },
  {
    "longitude": 1.60627,
    "latitude": 42.83629,
    "name": "Aire Picnic",
    "city": "09 N20/E9 (4 tables) Pres Dtarascon-Sur Ariege",
    "description": ""
  },
  {
    "longitude": 7.31056,
    "latitude": 44.10722,
    "name": "Aire Picnic",
    "city": "06 Bor�o7",
    "description": ""
  },
  {
    "longitude": -3.95624,
    "latitude": 48.30298,
    "name": "Aire Picnic",
    "city": "29 D785 (2 tables)",
    "description": ""
  },
  {
    "longitude": 7.32028,
    "latitude": 43.98389,
    "name": "Aire Picnic",
    "city": "06 Vall�v�subid2565",
    "description": ""
  },
  {
    "longitude": 4.40056,
    "latitude": 45.89364,
    "name": "Aire Picnic",
    "city": "69 N7 (3 tables)",
    "description": ""
  },
  {
    "longitude": -0.88643,
    "latitude": 49.34787,
    "name": "Aire Picnic",
    "city": "14 D517 Formigny (3 tables + Bellvue)",
    "description": ""
  },
  {
    "longitude": 4.61175,
    "latitude": 46.95269,
    "name": "Aire Picnic",
    "city": "21 Nolay (D973)",
    "description": ""
  },
  {
    "longitude": 5.20963,
    "latitude": 48.04125,
    "name": "Aire Picnic",
    "city": "N19 - Parking (Directionord)",
    "description": ""
  },
  {
    "longitude": 5.70035,
    "latitude": 48.934,
    "name": "Aire Picnic",
    "city": "55 D908 (2 tables)",
    "description": ""
  },
  {
    "longitude": 2.21078,
    "latitude": 48.58233,
    "name": "Aire Picnic",
    "city": "91 Bruyeres-Le-Ch�tel (A 1 table)",
    "description": ""
  },
  {
    "longitude": 6.65939,
    "latitude": 45.92057,
    "name": "Aire Picnic",
    "city": "74 Passy (Chemin du Mont-Blanc Plage)",
    "description": ""
  },
  {
    "longitude": 0.05214,
    "latitude": 44.2554,
    "name": "Aire Picnic",
    "city": "47 Pompogn (Ombrag�",
    "description": "3 tables"
  },
  {
    "longitude": 2.31034,
    "latitude": 50.46173,
    "name": "Aire Picnic",
    "city": "62 D70 (1 table)",
    "description": ""
  },
  {
    "longitude": 4.75509,
    "latitude": 45.49219,
    "name": "Aire Picnic",
    "city": "69 D59 Condrieux (1 tables)",
    "description": ""
  },
  {
    "longitude": -3.19352,
    "latitude": 48.45964,
    "name": "Aire Picnic",
    "city": "22 D8 (2 tables)",
    "description": ""
  },
  {
    "longitude": 5.46989,
    "latitude": 49.25238,
    "name": "Aire Picnic",
    "city": "55 D24 (3 tables + Fontaine)",
    "description": ""
  },
  {
    "longitude": -3.98111,
    "latitude": 48.00596,
    "name": "Aire Picnic",
    "city": "29 Ergu�-Gab�ric (Chapelldkerd�vot",
    "description": "4 tables)"
  },
  {
    "longitude": -2.18661,
    "latitude": 48.42127,
    "name": "Aire Picnic",
    "city": "22 Air du Pays Dpl�lan176 (5 tables)",
    "description": ""
  },
  {
    "longitude": -2.39218,
    "latitude": 48.625,
    "name": "Aire Picnic",
    "city": "22 Villag (2 tables)",
    "description": ""
  },
  {
    "longitude": -4.61692,
    "latitude": 48.04741,
    "name": "Aire Picnic",
    "city": "29 Cl�den-Cap-Sizu (Chapelldlangroas table)",
    "description": ""
  },
  {
    "longitude": -3.72418,
    "latitude": 47.99367,
    "name": "Aire Picnic",
    "city": "29 Sca�r (Toulc'hoat tables)",
    "description": ""
  },
  {
    "longitude": 7.29167,
    "latitude": 44.00667,
    "name": "Aire Picnic",
    "city": "06 Roquebillier5",
    "description": ""
  },
  {
    "longitude": -3.12698,
    "latitude": 48.21459,
    "name": "Aire Picnic",
    "city": "22 Saint-Gelven (Pres Abbaye Bon Repos - tables)",
    "description": ""
  },
  {
    "longitude": 5.71175,
    "latitude": 46.45174,
    "name": "Aire Picnic",
    "city": "39 D470 (3 tables)",
    "description": ""
  },
  {
    "longitude": -3.96484,
    "latitude": 48.23745,
    "name": "Aire Picnic",
    "city": "29 Pleybe (Nord Bourg)",
    "description": ""
  },
  {
    "longitude": 0.84975,
    "latitude": 48.05426,
    "name": "Aire Picnic",
    "city": "41 D117 (1 table)",
    "description": ""
  },
  {
    "longitude": -2.35798,
    "latitude": 47.99383,
    "name": "Aire Picnic",
    "city": "56 Loyat (Chapelldtr�gadoret",
    "description": "2 tables)"
  },
  {
    "longitude": -3.17887,
    "latitude": 48.78747,
    "name": "Aire Picnic",
    "city": "22 D21 (2 tables)",
    "description": ""
  },
  {
    "longitude": 6.68313,
    "latitude": 44.62373,
    "name": "Aire Picnic",
    "city": "05 D902 Vars (3 tables Et Vuvall�dla Durance)",
    "description": ""
  },
  {
    "longitude": 6.83206,
    "latitude": 44.03863,
    "name": "Aire Picnic",
    "city": "06 D2202 Daluis (2 tables Et les Gorges Rouges du Var)",
    "description": ""
  },
  {
    "longitude": -1.05001,
    "latitude": 46.03619,
    "name": "Aire Picnic",
    "city": "17 N137 (3 tables) Pres Dyves 17340",
    "description": ""
  },
  {
    "longitude": 0.02243,
    "latitude": 49.13959,
    "name": "Aire Picnic",
    "city": "14 Corbon D613 1 table",
    "description": ""
  },
  {
    "longitude": -4.21804,
    "latitude": 47.88025,
    "name": "Aire Picnic",
    "city": "29 Pont-L'abb� (Maisodu Tourismbigouden)",
    "description": ""
  },
  {
    "longitude": 3.65569,
    "latitude": 45.15084,
    "name": "Aire Picnic",
    "city": "43 N102 Fix-Saint-Geneys (3 tables Ombrag�s)",
    "description": ""
  },
  {
    "longitude": 2.26848,
    "latitude": 48.77859,
    "name": "Aire Picnic",
    "city": "92 Lplessis-Robinso (Parc Henri Sellier",
    "description": "4 tables)"
  },
  {
    "longitude": -4.16019,
    "latitude": 47.85085,
    "name": "Aire Picnic",
    "city": "29 Ile-Tudy (Au Sillon",
    "description": "tables)"
  },
  {
    "longitude": 6.80722,
    "latitude": 43.88222,
    "name": "Aire Picnic",
    "city": "06 St Jeannet Chap",
    "description": ""
  },
  {
    "longitude": 5.86209,
    "latitude": 49.28567,
    "name": "Aire Picnic",
    "city": "54 N43 (3 tables)",
    "description": ""
  },
  {
    "longitude": -4.11308,
    "latitude": 48.605,
    "name": "Aire Picnic",
    "city": "29 Plouz�v�d� (Chapelldberven)",
    "description": ""
  },
  {
    "longitude": 5.11833,
    "latitude": 47.44333,
    "name": "Aire Picnic",
    "city": "N74 (Vers Lnord)- 3 tables",
    "description": ""
  },
  {
    "longitude": 1.0212,
    "latitude": 48.47068,
    "name": "Aire Picnic",
    "city": "28 La Loupd103/D920 2 tables)",
    "description": ""
  },
  {
    "longitude": 6.15278,
    "latitude": 43.75833,
    "name": "Aire Picnic",
    "city": "83 Saintcroix 7",
    "description": ""
  },
  {
    "longitude": -4.24441,
    "latitude": 48.15639,
    "name": "Aire Picnic",
    "city": "29 Plo�ve (Ouest Bourg table)",
    "description": ""
  },
  {
    "longitude": 6.69722,
    "latitude": 44.24639,
    "name": "Aire Picnic",
    "city": "04 Allos 1",
    "description": ""
  },
  {
    "longitude": 2.17833,
    "latitude": 48.76142,
    "name": "Aire Picnic",
    "city": "78 Jouy-En-Josas (Bois Chauveaux)",
    "description": ""
  },
  {
    "longitude": -4.3893,
    "latitude": 48.08625,
    "name": "Aire Picnic",
    "city": "29 D7 Douarnenez > Poullan-Sur-Mer",
    "description": ""
  },
  {
    "longitude": -4.55861,
    "latitude": 48.01032,
    "name": "Aire Picnic",
    "city": "29 Esquibie (Rudsainte-Evett1 table)",
    "description": ""
  },
  {
    "longitude": 1.06737,
    "latitude": 49.88228,
    "name": "Aire Picnic",
    "city": "76 N10",
    "description": ""
  },
  {
    "longitude": 7.05139,
    "latitude": 43.60778,
    "name": "Aire Picnic",
    "city": "06 Valmasqu (5t)",
    "description": ""
  },
  {
    "longitude": -4.67395,
    "latitude": 48.05045,
    "name": "Aire Picnic",
    "city": "29 Cl�den-Cap-Sizu (Croix Dkersaudy)",
    "description": ""
  },
  {
    "longitude": -2.94598,
    "latitude": 48.47957,
    "name": "Aire Picnic",
    "city": "22 Quinti (2 tables Dans La For�t)",
    "description": ""
  },
  {
    "longitude": -4.10185,
    "latitude": 47.93557,
    "name": "Aire Picnic",
    "city": "29 Gouesnach Chapellsaint-Cadou",
    "description": ""
  },
  {
    "longitude": 3.15274,
    "latitude": 46.88829,
    "name": "Aire Picnic",
    "city": "58 Magny-Cours (3 tables)",
    "description": ""
  },
  {
    "longitude": -3.68679,
    "latitude": 47.83532,
    "name": "Aire Picnic",
    "city": "29 Riec-Sur-Belo (Sud Bourg",
    "description": "1 table)"
  },
  {
    "longitude": -4.43142,
    "latitude": 47.99081,
    "name": "Aire Picnic",
    "city": "29 Ploz�vet (Bourg",
    "description": "tables)"
  },
  {
    "longitude": -3.52632,
    "latitude": 48.77684,
    "name": "Aire Picnic",
    "city": "22 D21 (2 tables)",
    "description": ""
  },
  {
    "longitude": -3.16053,
    "latitude": 48.69614,
    "name": "Aire Picnic",
    "city": "22 Pontrieux (4 tables - les Lavoirs",
    "description": "WC"
  },
  {
    "longitude": 3.96705,
    "latitude": 45.19704,
    "name": "Aire Picnic",
    "city": "43 Vorey D103 (2 tables)",
    "description": ""
  },
  {
    "longitude": 6.99345,
    "latitude": 44.08887,
    "name": "Aire Picnic",
    "city": "06 D28 Beuil",
    "description": ""
  },
  {
    "longitude": 2.19837,
    "latitude": 48.79833,
    "name": "Aire Picnic",
    "city": "78 V�lizy-Villacoublay (�tang Dl'ursine-2 tables)",
    "description": ""
  },
  {
    "longitude": 4.80318,
    "latitude": 45.1781,
    "name": "Aire Picnic",
    "city": "07 N86 Sarras (3 tables)",
    "description": ""
  },
  {
    "longitude": -2.33663,
    "latitude": 48.61867,
    "name": "Aire Picnic",
    "city": "22 Saintaidd786 (5 tables)",
    "description": ""
  },
  {
    "longitude": 7.03667,
    "latitude": 43.59722,
    "name": "Aire Picnic",
    "city": "06 Valmasqu (6t)",
    "description": ""
  },
  {
    "longitude": -1.98036,
    "latitude": 48.38649,
    "name": "Aire Picnic",
    "city": "22 Evrad2/D39 (3 tables)",
    "description": ""
  },
  {
    "longitude": 6.82374,
    "latitude": 44.40623,
    "name": "Aire Picnic",
    "city": "04 Chemidu Lac Des Sagnes (2 tablescoiperdu !)",
    "description": ""
  },
  {
    "longitude": -1.30955,
    "latitude": 44.02907,
    "name": "Aire Picnic",
    "city": "40 Lit Et Mixd88 (8 tables)",
    "description": ""
  },
  {
    "longitude": 5.61434,
    "latitude": 49.05462,
    "name": "Aire Picnic",
    "city": "55 D113 [1 Tabl)",
    "description": ""
  },
  {
    "longitude": 4.65124,
    "latitude": 44.42426,
    "name": "Aire Picnic",
    "city": "07 N86 St Monta (2 tables)",
    "description": ""
  },
  {
    "longitude": -2.95195,
    "latitude": 48.0786,
    "name": "Aire Picnic",
    "city": "56 D768 (2 tables)",
    "description": ""
  },
  {
    "longitude": 2.28634,
    "latitude": 48.74627,
    "name": "Aire Picnic",
    "city": "92 Antony (Parc Georges Heller A - table)",
    "description": ""
  },
  {
    "longitude": 6.84167,
    "latitude": 43.43,
    "name": "Aire Picnic",
    "city": "83 Esterel 2",
    "description": ""
  },
  {
    "longitude": 7.02917,
    "latitude": 43.60111,
    "name": "Aire Picnic",
    "city": "06 Valmasqu (30t)",
    "description": ""
  },
  {
    "longitude": -1.1773,
    "latitude": 45.69378,
    "name": "Aire Picnic",
    "city": "17 La Palmyr (4 tables Sous les Arbres)",
    "description": ""
  },
  {
    "longitude": 6.93917,
    "latitude": 43.79444,
    "name": "Aire Picnic",
    "city": "06 Gr�oliere",
    "description": ""
  },
  {
    "longitude": -0.39333,
    "latitude": 48.26512,
    "name": "Aire Picnic",
    "city": "53 Bais D 35 (2 tables)",
    "description": ""
  },
  {
    "longitude": -0.41187,
    "latitude": 46.53996,
    "name": "Aire Picnic",
    "city": "79 les Groseillers (2 tables)",
    "description": ""
  },
  {
    "longitude": -4.68947,
    "latitude": 48.04826,
    "name": "Aire Picnic",
    "city": "29 Cl�den-Cap-Sizu (Chapellsaint-Tugdal)",
    "description": ""
  },
  {
    "longitude": 1.60629,
    "latitude": 43.22467,
    "name": "Aire Picnic",
    "city": "09 N20/E9 (6 tables+WC) Saverdun",
    "description": ""
  },
  {
    "longitude": -0.10825,
    "latitude": 48.22182,
    "name": "Aire Picnic",
    "city": "72 Mont Saint Jead 105 (4 tables)",
    "description": ""
  },
  {
    "longitude": 1.59186,
    "latitude": 49.4661,
    "name": "Aire Picnic",
    "city": "76 Gournay Ebray",
    "description": ""
  },
  {
    "longitude": 3.92951,
    "latitude": 45.04334,
    "name": "Aire Picnic",
    "city": "43 Brives-Charensac (Pres Camping",
    "description": "Bord Dl'eau"
  },
  {
    "longitude": 2.00057,
    "latitude": 45.36914,
    "name": "Aire Picnic",
    "city": "19 N89 Rosiers D'egletons (tables Eb�ton",
    "description": "Ombrag�)"
  },
  {
    "longitude": -4.31437,
    "latitude": 48.23685,
    "name": "Aire Picnic",
    "city": "29 Argol (D163 3 tables)",
    "description": ""
  },
  {
    "longitude": 1.60292,
    "latitude": 43.15056,
    "name": "Aire Picnic",
    "city": "09 N20/E9 (2 tables+WC) Pamiers",
    "description": ""
  },
  {
    "longitude": 7.16944,
    "latitude": 47.51667,
    "name": "Aire Picnic",
    "city": "68 D10b (2 tables)",
    "description": ""
  },
  {
    "longitude": 1.2709,
    "latitude": 49.57896,
    "name": "Aire Picnic",
    "city": "50 St Vaast de La Hougue 6 tables",
    "description": ""
  },
  {
    "longitude": -2.79608,
    "latitude": 48.13717,
    "name": "Aire Picnic",
    "city": "22 Loud�ac (Point Roug tables)",
    "description": ""
  },
  {
    "longitude": -0.50084,
    "latitude": 48.94429,
    "name": "Aire Picnic",
    "city": "14 St R�my Sur Orn (Les Fosses D'enfer)",
    "description": ""
  },
  {
    "longitude": -3.72209,
    "latitude": 48.12575,
    "name": "Aire Picnic",
    "city": "56 Roudouallec Bourg",
    "description": ""
  },
  {
    "longitude": -4.07673,
    "latitude": 48.17275,
    "name": "Aire Picnic",
    "city": "29 D770 Sud Ch�teauli (1 table)",
    "description": ""
  },
  {
    "longitude": 3.92796,
    "latitude": 44.75676,
    "name": "Aire Picnic",
    "city": "43 N102",
    "description": ""
  },
  {
    "longitude": 2.35721,
    "latitude": 43.26282,
    "name": "Aire Picnic",
    "city": "11 Villegailhenc (3 tables)",
    "description": ""
  },
  {
    "longitude": -4.70182,
    "latitude": 48.05857,
    "name": "Aire Picnic",
    "city": "29 Cl�den-Cap-Sizu (� Keriolet",
    "description": "1 table)"
  },
  {
    "longitude": -3.55021,
    "latitude": 47.76604,
    "name": "Aire Picnic",
    "city": "29 Clohars-Carno�t (Place de L'oc�an - 2 tables)",
    "description": ""
  },
  {
    "longitude": 2.51422,
    "latitude": 48.98268,
    "name": "Aire Picnic",
    "city": "93 Tremblay-Les-Gonesss (2 tables)",
    "description": ""
  },
  {
    "longitude": 5.99798,
    "latitude": 47.68824,
    "name": "Aire Picnic",
    "city": "70 Port Sur Saonn19/E54 (1 tables)",
    "description": ""
  },
  {
    "longitude": 5.40587,
    "latitude": 49.27228,
    "name": "Aire Picnic",
    "city": "55 D905 (3 tables Esous Bois)",
    "description": ""
  },
  {
    "longitude": -0.76204,
    "latitude": 46.74862,
    "name": "Aire Picnic",
    "city": "85 Montournais Etang 3 tables (WC)",
    "description": ""
  },
  {
    "longitude": 6.84312,
    "latitude": 44.05016,
    "name": "Aire Picnic",
    "city": "06 D2202 Daluis (2 tables Et les Gorges Rouges du Var)",
    "description": ""
  },
  {
    "longitude": 1.30562,
    "latitude": 49.46033,
    "name": "Aire Picnic",
    "city": "50 Azeville Batteries D'azeville D269 4 tables",
    "description": ""
  },
  {
    "longitude": -1.09083,
    "latitude": 48.58618,
    "name": "Aire Picnic",
    "city": "50 D977 (Parigny - 1 table)",
    "description": ""
  },
  {
    "longitude": -4.3418,
    "latitude": 47.83745,
    "name": "Aire Picnic",
    "city": "29 Plomeur (Kerfeunteun An Dorchen - 1 table)",
    "description": ""
  },
  {
    "longitude": 2.75957,
    "latitude": 44.79394,
    "name": "Aire Picnic",
    "city": "12 Stgenevievsur Argenc (Bod du Lac",
    "description": "3 tables)"
  },
  {
    "longitude": -4.21814,
    "latitude": 47.86686,
    "name": "Aire Picnic",
    "city": "29 Pont-L'abb� (Bourg Bord Riviere",
    "description": "4 tables)"
  },
  {
    "longitude": -3.87353,
    "latitude": 48.51192,
    "name": "Aire Picnic",
    "city": "29 D785 (5 tables)",
    "description": ""
  },
  {
    "longitude": -1.09924,
    "latitude": 48.32667,
    "name": "Aire Picnic",
    "city": "35 La Chapelljansorn12 (3 tables)",
    "description": ""
  },
  {
    "longitude": -0.43785,
    "latitude": 42.91003,
    "name": "Aire Picnic",
    "city": "64 Laruns D934 3 tables)",
    "description": ""
  },
  {
    "longitude": 4.57332,
    "latitude": 45.90504,
    "name": "Aire Picnic",
    "city": "69 L�gny (D338) (2 tables)",
    "description": ""
  },
  {
    "longitude": -0.93379,
    "latitude": 45.44052,
    "name": "Aire Picnic",
    "city": "33 Jau Phardrichard (5 tables",
    "description": "WC)"
  },
  {
    "longitude": 0.03268,
    "latitude": 44.19531,
    "name": "Aire Picnic",
    "city": "47 Houeill�s (Ombrag�",
    "description": "4 tables"
  },
  {
    "longitude": -1.83004,
    "latitude": 48.07003,
    "name": "Aire Picnic",
    "city": "35 Mordelles D34 4 tables)",
    "description": ""
  },
  {
    "longitude": 5.26088,
    "latitude": 48.72726,
    "name": "Aire Picnic",
    "city": "55 D120a (3 tables",
    "description": "eux)"
  },
  {
    "longitude": -4.06885,
    "latitude": 48.11427,
    "name": "Aire Picnic",
    "city": "29 Briec (Chapellsaint-Venec",
    "description": "1 table)"
  },
  {
    "longitude": -0.88959,
    "latitude": 45.26967,
    "name": "Aire Picnic",
    "city": "33 St-Germain-Esteuil (2 table)",
    "description": ""
  },
  {
    "longitude": -4.4755,
    "latitude": 48.04226,
    "name": "Aire Picnic",
    "city": "29 D765 Comfort >> Pont-Croix",
    "description": ""
  },
  {
    "longitude": -4.07671,
    "latitude": 48.48785,
    "name": "Aire Picnic",
    "city": "29 D30 (1 table)",
    "description": ""
  },
  {
    "longitude": 2.64951,
    "latitude": 50.23608,
    "name": "Aire Picnic",
    "city": "62 N25 Beaumetz les Loges (Qlq tables)",
    "description": ""
  },
  {
    "longitude": 4.67301,
    "latitude": 48.42913,
    "name": "Aire Picnic",
    "city": "10 Epoth�mont (D400)",
    "description": ""
  },
  {
    "longitude": 4.82438,
    "latitude": 45.07634,
    "name": "Aire Picnic",
    "city": "07 St Jeadmuzols (tables Jeux)",
    "description": ""
  },
  {
    "longitude": 1.61641,
    "latitude": 50.44778,
    "name": "Aire Picnic",
    "city": "62 D940 (3 tables)",
    "description": ""
  },
  {
    "longitude": -4.05275,
    "latitude": 48.5695,
    "name": "Aire Picnic",
    "city": "29 D69 Roscoff >> Landivisiau",
    "description": ""
  },
  {
    "longitude": -2.50926,
    "latitude": 48.19792,
    "name": "Aire Picnic",
    "city": "22 Larena (Chapellsaint-Yves",
    "description": "1 table)"
  },
  {
    "longitude": 2.41014,
    "latitude": 48.62363,
    "name": "Aire Picnic",
    "city": "91 Courcouronnes (4 tables)",
    "description": ""
  },
  {
    "longitude": 3.11425,
    "latitude": 45.588,
    "name": "Aire Picnic",
    "city": "63 Montaigut Lblanc (3 tables",
    "description": "Poubelles"
  },
  {
    "longitude": -0.42512,
    "latitude": 44.70168,
    "name": "Aire Picnic",
    "city": "33 Portets (3 tables",
    "description": "WC)"
  },
  {
    "longitude": -3.0646,
    "latitude": 48.75407,
    "name": "Aire Picnic",
    "city": "22 D15 (1 table",
    "description": "entier Botanique)"
  },
  {
    "longitude": -3.8298,
    "latitude": 47.80761,
    "name": "Aire Picnic",
    "city": "29 Tr�gunc (Saint-Philibert 1 table)",
    "description": ""
  },
  {
    "longitude": -0.14237,
    "latitude": 48.18881,
    "name": "Aire Picnic",
    "city": "72 Lgrez D304 (4 tables)",
    "description": ""
  },
  {
    "longitude": 1.35545,
    "latitude": 43.06747,
    "name": "Aire Picnic",
    "city": "D119 09 Lmas D'azil (Buvette)",
    "description": ""
  },
  {
    "longitude": 6.0996,
    "latitude": 45.60841,
    "name": "Aire Picnic",
    "city": "73 Ailloljeune-Villag (2 tables+Jeux)",
    "description": ""
  },
  {
    "longitude": 5.67039,
    "latitude": 43.23518,
    "name": "[Picnic]13 Ceyrest (D3 3 tables Ombrag�es)",
    "city": "",
    "description": ""
  },
  {
    "longitude": 6.96977,
    "latitude": 44.09097,
    "name": "Aire Picnic",
    "city": "06 Rtdu Camp Beuil les Launes (6 tables)",
    "description": ""
  },
  {
    "longitude": 4.87302,
    "latitude": 48.59775,
    "name": "Aire Picnic",
    "city": "52 Eclaron",
    "description": ""
  },
  {
    "longitude": -1.40226,
    "latitude": 46.39297,
    "name": "Aire Picnic",
    "city": "85 Angles D2747 4 tables)",
    "description": ""
  },
  {
    "longitude": -4.12659,
    "latitude": 47.88197,
    "name": "Aire Picnic",
    "city": "29 Combrit (Pont Dcornouaille)",
    "description": ""
  },
  {
    "longitude": -4.64059,
    "latitude": 48.04245,
    "name": "Aire Picnic",
    "city": "29 Cl�den-Cap-Sizu (Trouguennour 1 table)",
    "description": ""
  },
  {
    "longitude": 1.41419,
    "latitude": 47.63373,
    "name": "Aire Picnic",
    "city": "41 D951 Snt. Claudddiray",
    "description": ""
  },
  {
    "longitude": 6.17694,
    "latitude": 43.74944,
    "name": "Aire Picnic",
    "city": "83 Saintcroix 4",
    "description": ""
  },
  {
    "longitude": -3.39417,
    "latitude": 48.54414,
    "name": "Aire Picnic",
    "city": "22 Belle-Isle-En-Terr (2 tables - Bord Dl'eau)",
    "description": ""
  },
  {
    "longitude": -0.35091,
    "latitude": 47.4145,
    "name": "Aire Picnic",
    "city": "49 D952 (2 tables)",
    "description": ""
  },
  {
    "longitude": 2.29464,
    "latitude": 48.63547,
    "name": "Aire Picnic",
    "city": "91 Saint-Michel-Sur-Orge (Promenade de L'orge - tables)",
    "description": ""
  },
  {
    "longitude": -4.49377,
    "latitude": 48.04015,
    "name": "Aire Picnic",
    "city": "29 Pont-Croix Bord du Goyen",
    "description": ""
  },
  {
    "longitude": 1.92047,
    "latitude": 48.8012,
    "name": "Aire Picnic",
    "city": "78 Plaisir (Bois Dla Grandcroix",
    "description": "3 tables)"
  },
  {
    "longitude": -4.23827,
    "latitude": 47.87963,
    "name": "Aire Picnic",
    "city": "29 Plon�our-Lanver (Chapellbonnnouvell4 tables)",
    "description": ""
  },
  {
    "longitude": 6.78278,
    "latitude": 43.63444,
    "name": "Aire Picnic",
    "city": "83 Montauroux",
    "description": ""
  },
  {
    "longitude": -0.83798,
    "latitude": 47.03857,
    "name": "Aire Picnic",
    "city": "49 Cholet Lac Dribou (5 tables",
    "description": "WC"
  },
  {
    "longitude": -3.73104,
    "latitude": 47.93605,
    "name": "Aire Picnic",
    "city": "29 D765 Rosporde> Bannalec",
    "description": ""
  },
  {
    "longitude": 5.54244,
    "latitude": 49.07992,
    "name": "Aire Picnic",
    "city": "55 D21 (4 tables Esous Bois)",
    "description": ""
  },
  {
    "longitude": 5.72402,
    "latitude": 46.39456,
    "name": "Aire Picnic",
    "city": "39 D27 (3 tables)",
    "description": ""
  },
  {
    "longitude": -4.29851,
    "latitude": 48.09119,
    "name": "Aire Picnic",
    "city": "29 Douarnenez (Plagdu Ris",
    "description": "3 tables)"
  },
  {
    "longitude": 0.13199,
    "latitude": 47.23859,
    "name": "Aire Picnic",
    "city": "37 N152 Chouzsur Loir (6 tables)",
    "description": ""
  },
  {
    "longitude": 6.92917,
    "latitude": 44.09538,
    "name": "Aire Picnic",
    "city": "06 Valberg (1 table)",
    "description": ""
  },
  {
    "longitude": 5.0022,
    "latitude": 46.84047,
    "name": "Aire Picnic",
    "city": "71 N73 (Parking 2 tables)",
    "description": ""
  },
  {
    "longitude": -4.12293,
    "latitude": 47.87474,
    "name": "Aire Picnic",
    "city": "29 Combrit (Pres Otsi 2 tables)",
    "description": ""
  },
  {
    "longitude": 0.99085,
    "latitude": 49.40938,
    "name": "Aire Picnic",
    "city": "76 Sahurs (2 tables)",
    "description": ""
  },
  {
    "longitude": 2.15716,
    "latitude": 48.82224,
    "name": "Aire Picnic",
    "city": "92 Marnes-La-Coquette (All�e Cavaliere de Jardy - table",
    "description": ""
  },
  {
    "longitude": -4.22478,
    "latitude": 48.19244,
    "name": "Aire Picnic",
    "city": "29 Plomodier (D47)",
    "description": ""
  },
  {
    "longitude": -0.40551,
    "latitude": 49.05649,
    "name": "Aire Picnic",
    "city": "14 D562",
    "description": "St Laurent Dcondel (2 A 3 tables)"
  },
  {
    "longitude": 7.13944,
    "latitude": 44.18889,
    "name": "Aire Picnic",
    "city": "06 Isola2000 [2]",
    "description": ""
  },
  {
    "longitude": 6.64227,
    "latitude": 46.24398,
    "name": "Aire Picnic",
    "city": "73 D902",
    "description": "Bas-Thex (3 tables)"
  },
  {
    "longitude": 2.30091,
    "latitude": 43.3673,
    "name": "Aire Picnic",
    "city": "11 Cuxac (2 tables)",
    "description": ""
  },
  {
    "longitude": 0.96681,
    "latitude": 43.17378,
    "name": "Aire Picnic",
    "city": "31 N117 Boussens (Frites)",
    "description": ""
  },
  {
    "longitude": 1.0013,
    "latitude": 46.13078,
    "name": "Aire Picnic",
    "city": "87 Bellac (2 tables)",
    "description": ""
  },
  {
    "longitude": 5.8025,
    "latitude": 45.45528,
    "name": "Aire Picnic",
    "city": "73 D1006 (3 tables Epierre)",
    "description": ""
  },
  {
    "longitude": 1.27556,
    "latitude": 48.03667,
    "name": "Aire Picnic",
    "city": "28 Douy (D111.4",
    "description": "1 Tablpres Terraidboules)"
  },
  {
    "longitude": 2.44297,
    "latitude": 48.66955,
    "name": "Aire Picnic",
    "city": "91 Draveil (Vers Ermitag1 Tabldans For�t)",
    "description": ""
  },
  {
    "longitude": 4.17444,
    "latitude": 49.6426,
    "name": "Aire Picnic",
    "city": "08 D946/Lradois (2 tables)",
    "description": ""
  },
  {
    "longitude": 3.74696,
    "latitude": 46.56779,
    "name": "Aire Picnic",
    "city": "71 St Aubis/Loird979 (4 tables)",
    "description": ""
  },
  {
    "longitude": 6.97806,
    "latitude": 43.72167,
    "name": "Aire Picnic",
    "city": "06 Gourdon",
    "description": ""
  },
  {
    "longitude": 2.23883,
    "latitude": 48.79478,
    "name": "Aire Picnic",
    "city": "92 Meudo (�tang Dla Garenne",
    "description": "1 table)"
  },
  {
    "longitude": -3.71058,
    "latitude": 47.92355,
    "name": "Aire Picnic",
    "city": "29 D4 Bannalec > Pont-Aven",
    "description": ""
  },
  {
    "longitude": -3.49575,
    "latitude": 48.56795,
    "name": "Aire Picnic",
    "city": "29 D11 (2 tables)",
    "description": ""
  },
  {
    "longitude": -0.45571,
    "latitude": 47.21642,
    "name": "Aire Picnic",
    "city": "49 Aubign� Sur Layo3 tables",
    "description": ""
  },
  {
    "longitude": -3.7709,
    "latitude": 47.79318,
    "name": "Aire Picnic",
    "city": "29 N�vez (Ouest Rospico 1 table)",
    "description": ""
  },
  {
    "longitude": 5.61055,
    "latitude": 48.94081,
    "name": "Aire Picnic",
    "city": "55 D901 (1 table)",
    "description": ""
  },
  {
    "longitude": 1.06839,
    "latitude": 49.88318,
    "name": "Aire Picnic",
    "city": "76 N27",
    "description": ""
  },
  {
    "longitude": 5.18433,
    "latitude": 49.38667,
    "name": "Aire Picnic",
    "city": "55 Dun-Sur-Meus (3 tables �glisduhaut)",
    "description": ""
  },
  {
    "longitude": 2.57092,
    "latitude": 50.86196,
    "name": "Aire Picnic",
    "city": "59 D947 Routdbray-Dunes (2 tables)",
    "description": ""
  },
  {
    "longitude": -3.75706,
    "latitude": 47.85962,
    "name": "Aire Picnic",
    "city": "29 Pont-Ave (Rudrust�pha3 tables)",
    "description": ""
  },
  {
    "longitude": -2.1144,
    "latitude": 48.07147,
    "name": "Aire Picnic",
    "city": "35 D71 1 Tabl (Pres du Ch�ndes Hindres",
    "description": "Arbrremarquable)"
  },
  {
    "longitude": -4.39888,
    "latitude": 47.9378,
    "name": "Aire Picnic",
    "city": "29 Pouldreuzic (Sud Penhors 3 tables)",
    "description": ""
  },
  {
    "longitude": -3.43699,
    "latitude": 48.80741,
    "name": "Aire Picnic",
    "city": "22 D788 (2 tables)",
    "description": ""
  },
  {
    "longitude": 5.65551,
    "latitude": 49.30814,
    "name": "Aire Picnic",
    "city": "55 N18 (5 tables)",
    "description": ""
  },
  {
    "longitude": 0.14641,
    "latitude": 46.45799,
    "name": "Aire Picnic",
    "city": "86 Lusignad611 (8t)",
    "description": ""
  },
  {
    "longitude": 2.86018,
    "latitude": 47.31782,
    "name": "Aire Picnic",
    "city": "18 M�n�tr�ol-Sous-Sancerr (196 La Petitpointe",
    "description": "Terraidsport"
  },
  {
    "longitude": 4.84504,
    "latitude": 45.01502,
    "name": "Aire Picnic",
    "city": "26 La Rochdglu (Tabljeux Plad Eau)",
    "description": ""
  },
  {
    "longitude": 1.24404,
    "latitude": 47.95532,
    "name": "Aire Picnic",
    "city": "41 Saint-Jean-Froidmentel (D136",
    "description": "1 table)"
  },
  {
    "longitude": -2.43981,
    "latitude": 48.41912,
    "name": "Aire Picnic",
    "city": "22 N12 (Camora- 6 tables",
    "description": "WC)"
  },
  {
    "longitude": -1.94274,
    "latitude": 48.30349,
    "name": "Aire Picnic",
    "city": "35 Longaulnay D68 (3 tables)",
    "description": ""
  },
  {
    "longitude": 6.58527,
    "latitude": 46.06907,
    "name": "Aire Picnic",
    "city": "74 Cluses (2 tables)",
    "description": ""
  },
  {
    "longitude": -1.10015,
    "latitude": 48.586,
    "name": "Aire Picnic",
    "city": "50 Parigny (Lieu Dit Dla Rechangeri- 2 tables)",
    "description": ""
  },
  {
    "longitude": 2.29326,
    "latitude": 48.87783,
    "name": "Aire Picnic",
    "city": "75 Paris Xvii",
    "description": ""
  },
  {
    "longitude": 5.86609,
    "latitude": 49.24473,
    "name": "Aire Picnic",
    "city": "54 D906 (2 tables)",
    "description": ""
  },
  {
    "longitude": -2.33195,
    "latitude": 48.53033,
    "name": "Aire Picnic",
    "city": "22 D768 (3 tables)",
    "description": ""
  },
  {
    "longitude": 5.13238,
    "latitude": 48.33152,
    "name": "Aire Picnic",
    "city": "N67 - Parking (Directiosud)",
    "description": ""
  },
  {
    "longitude": -4.7517,
    "latitude": 48.35974,
    "name": "Aire Picnic",
    "city": "29 D67 (7 tables)",
    "description": ""
  },
  {
    "longitude": 0.68345,
    "latitude": 48.15108,
    "name": "Aire Picnic",
    "city": "72 Cherr� (Pres Sortia11",
    "description": "1 table)"
  },
  {
    "longitude": -1.38082,
    "latitude": 47.25518,
    "name": "Aire Picnic",
    "city": "44 Nantes (5 tables)",
    "description": ""
  },
  {
    "longitude": 5.60128,
    "latitude": 48.86927,
    "name": "Aire Picnic",
    "city": "55 D907 (3 tables)",
    "description": ""
  },
  {
    "longitude": 0.72536,
    "latitude": 46.4031,
    "name": "Aire Picnic",
    "city": "86 Lussac les Chateaux (3 tables)",
    "description": ""
  },
  {
    "longitude": -3.77507,
    "latitude": 47.79516,
    "name": "Aire Picnic",
    "city": "29 N�vez (Kerasco�t 2 tables)",
    "description": ""
  },
  {
    "longitude": 7.10694,
    "latitude": 44.08917,
    "name": "Aire Picnic",
    "city": "06 St Sauveur/Tin�e",
    "description": ""
  },
  {
    "longitude": 7.01333,
    "latitude": 43.59667,
    "name": "Aire Picnic",
    "city": "06 Etang Fond Merlmougins (6t)",
    "description": ""
  },
  {
    "longitude": 1.48122,
    "latitude": 48.41018,
    "name": "Aire Picnic",
    "city": "28 Barjouvill (Bourg)",
    "description": ""
  },
  {
    "longitude": 4.71843,
    "latitude": 48.43307,
    "name": "Aire Picnic",
    "city": "52 Louz (1 Tabld400 Est du Bourg)",
    "description": ""
  },
  {
    "longitude": 4.51853,
    "latitude": 49.61324,
    "name": "Aire Picnic",
    "city": "08 Faissault (Ex N51)",
    "description": ""
  },
  {
    "longitude": 4.9215,
    "latitude": 44.8656,
    "name": "Aire Picnic",
    "city": "26 Domaindlorient (tables Jeux Riviere)",
    "description": ""
  },
  {
    "longitude": 1.51741,
    "latitude": 47.63783,
    "name": "Aire Picnic",
    "city": "41 D112 Chambord",
    "description": ""
  },
  {
    "longitude": -2.47028,
    "latitude": 48.60223,
    "name": "Aire Picnic",
    "city": "22 D786 (5 tables)",
    "description": ""
  },
  {
    "longitude": 5.77349,
    "latitude": 47.74475,
    "name": "Aire Picnic",
    "city": "70 Cintrey N19/E54 (3 tables)",
    "description": ""
  },
  {
    "longitude": -0.82756,
    "latitude": 47.02024,
    "name": "Aire Picnic",
    "city": "49 Cholet Lac du Verdo (5 tables",
    "description": "WC"
  },
  {
    "longitude": -0.37712,
    "latitude": 42.96763,
    "name": "Aire Picnic",
    "city": "64 Eaux Bonnes D918 3 tables)",
    "description": ""
  },
  {
    "longitude": 0.18929,
    "latitude": 45.83721,
    "name": "Aire Picnic",
    "city": "16 Maine de Boixe Rn10 (10 tables)",
    "description": ""
  },
  {
    "longitude": -3.09794,
    "latitude": 48.4644,
    "name": "Aire Picnic",
    "city": "22 D767 (3 tables)",
    "description": ""
  },
  {
    "longitude": 5.29178,
    "latitude": 47.91048,
    "name": "Aire Picnic",
    "city": "N19 - 3 tables (Directionord)",
    "description": ""
  },
  {
    "longitude": 5.56422,
    "latitude": 49.04322,
    "name": "Aire Picnic",
    "city": "55 D3a (3 tables 1 Tonellesous Bois)",
    "description": ""
  },
  {
    "longitude": 3.68397,
    "latitude": 46.71936,
    "name": "Aire Picnic",
    "city": "71 Cronat D979 (2 tables)",
    "description": ""
  },
  {
    "longitude": 6.65444,
    "latitude": 43.74889,
    "name": "Aire Picnic",
    "city": "83 Verdo1",
    "description": ""
  },
  {
    "longitude": 0.7891,
    "latitude": 49.42977,
    "name": "Aire Picnic",
    "city": "76 D913",
    "description": ""
  },
  {
    "longitude": 5.15512,
    "latitude": 48.07907,
    "name": "Aire Picnic",
    "city": "52 Chamarandes-Choignes D619 (5 tables)",
    "description": ""
  },
  {
    "longitude": 5.17798,
    "latitude": 46.96475,
    "name": "Aire Picnic",
    "city": "71 La Villeneuvn73 (Airdrepos 1 table)",
    "description": ""
  },
  {
    "longitude": 0.18681,
    "latitude": 46.35027,
    "name": "Aire Picnic",
    "city": "86 Payre Rn 10 5 tables",
    "description": ""
  },
  {
    "longitude": 1.96302,
    "latitude": 48.76578,
    "name": "Aire Picnic",
    "city": "78 Elancourt (Pres Commanderi1 table)",
    "description": ""
  },
  {
    "longitude": 5.87311,
    "latitude": 47.71822,
    "name": "Aire Picnic",
    "city": "70 Gourgeon19/E54 (1 tables)",
    "description": ""
  },
  {
    "longitude": 1.20249,
    "latitude": 44.85892,
    "name": "Aire Picnic",
    "city": "24 D57 Sarlat-La Can�da (2 tables)",
    "description": ""
  },
  {
    "longitude": 2.44259,
    "latitude": 48.67026,
    "name": "Aire Picnic",
    "city": "91 Draveil (Vers Ermitag1 Tabldans For�t)",
    "description": ""
  },
  {
    "longitude": -4.62067,
    "latitude": 48.02959,
    "name": "Aire Picnic",
    "city": "29 Primeli (D784",
    "description": "1 table)"
  },
  {
    "longitude": 7.08361,
    "latitude": 47.81861,
    "name": "Aire Picnic",
    "city": "68 N66 (2 tables)",
    "description": ""
  },
  {
    "longitude": 0.80715,
    "latitude": 46.33685,
    "name": "Aire Picnic",
    "city": "86 Moulimes (6 tables",
    "description": "C)"
  },
  {
    "longitude": -4.05005,
    "latitude": 48.0292,
    "name": "Aire Picnic",
    "city": "29 Ergu�-Gab�ric (Parking Stagala 1 table)",
    "description": ""
  },
  {
    "longitude": 5.85442,
    "latitude": 45.663,
    "name": "Aire Picnic",
    "city": "73 Charpignat (Lbourget-Du-Lac) (4 tables)",
    "description": ""
  },
  {
    "longitude": -4.25486,
    "latitude": 47.86295,
    "name": "Aire Picnic",
    "city": "Plomeur (Chapellnd Dtr�minou 1 table)",
    "description": ""
  },
  {
    "longitude": -2.37963,
    "latitude": 48.62629,
    "name": "Aire Picnic",
    "city": "22 D786 (2 tables)",
    "description": ""
  },
  {
    "longitude": 4.45566,
    "latitude": 49.54291,
    "name": "Aire Picnic",
    "city": "08 Novy-Chevrieres (Ex N51)",
    "description": ""
  },
  {
    "longitude": 6.76433,
    "latitude": 46.20282,
    "name": "Aire Picnic",
    "city": "74 D338",
    "description": "les Lindarets2 (Montriond) (1 table)"
  },
  {
    "longitude": 1.15198,
    "latitude": 49.30625,
    "name": "Aire Picnic",
    "city": "27 Pont Dl'arch (2 tables)",
    "description": ""
  },
  {
    "longitude": 5.39729,
    "latitude": 49.33824,
    "name": "Aire Picnic",
    "city": "55 D905 (2 tables)",
    "description": ""
  },
  {
    "longitude": -3.20111,
    "latitude": 48.53324,
    "name": "Aire Picnic",
    "city": "22 D787 (2 tables)",
    "description": ""
  },
  {
    "longitude": 0.23635,
    "latitude": 47.45316,
    "name": "[Picnic Nv] 37 Rd49 (Jeux)",
    "city": "",
    "description": ""
  },
  {
    "longitude": -1.09532,
    "latitude": 45.9425,
    "name": "Aire Picnic",
    "city": "17 Port-Des-Barques ( tables",
    "description": "WC"
  },
  {
    "longitude": -0.90858,
    "latitude": 48.25968,
    "name": "Aire Picnic",
    "city": "53 D31 (1 table)",
    "description": ""
  },
  {
    "longitude": -2.24659,
    "latitude": 48.61626,
    "name": "Aire Picnic",
    "city": "22 D19 (2 tables)",
    "description": ""
  },
  {
    "longitude": 0.75667,
    "latitude": 46.64388,
    "name": "Aire Picnic",
    "city": "86 La Puy (4t",
    "description": "WC"
  },
  {
    "longitude": 0.10531,
    "latitude": 46.95879,
    "name": "Aire Picnic",
    "city": "86 D347 Airdbriand (2 tables",
    "description": "C)"
  },
  {
    "longitude": 4.82571,
    "latitude": 45.72157,
    "name": "Aire Picnic",
    "city": "69 Lyo7 Parc Dgerland (34 tables Fontaines)",
    "description": ""
  },
  {
    "longitude": 1.49319,
    "latitude": 49.66883,
    "name": "Aire Picnic",
    "city": "50 Maupertus S/Mer D116 1 table",
    "description": ""
  },
  {
    "longitude": 7.35611,
    "latitude": 43.93167,
    "name": "Aire Picnic",
    "city": "06 Peira Cava 4",
    "description": ""
  },
  {
    "longitude": -4.18529,
    "latitude": 47.93585,
    "name": "Aire Picnic",
    "city": "29 D785 Quimper > Pont-L'abb� (5 tables)",
    "description": ""
  },
  {
    "longitude": -2.12083,
    "latitude": 48.31988,
    "name": "Aire Picnic",
    "city": "22 St Maur (6 tables)",
    "description": ""
  },
  {
    "longitude": -4.47853,
    "latitude": 48.23703,
    "name": "Aire Picnic",
    "city": "29 Crozo (Pointdu Menhir)",
    "description": ""
  },
  {
    "longitude": -0.98902,
    "latitude": 46.93311,
    "name": "Aire Picnic",
    "city": "85 Chambretaud D160 3 tables)",
    "description": ""
  },
  {
    "longitude": -1.33531,
    "latitude": 44.037,
    "name": "Aire Picnic",
    "city": "40 Lit Et Mixd88 (10 tables)",
    "description": ""
  },
  {
    "longitude": 5.49564,
    "latitude": 49.1184,
    "name": "Aire Picnic",
    "city": "55 D31 (6 tables Esous Bois)",
    "description": ""
  },
  {
    "longitude": 5.70143,
    "latitude": 48.99208,
    "name": "Aire Picnic",
    "city": "55 Grandru (1 table)",
    "description": ""
  },
  {
    "longitude": 0.31587,
    "latitude": 47.54158,
    "name": "[Picnic Nv] 37 D759 (Jeux)",
    "city": "",
    "description": ""
  },
  {
    "longitude": 0.8788,
    "latitude": 44.84123,
    "name": "Aire Picnic",
    "city": "24 D29 Pr�s Dalles Sur Dordognes (5 tables)",
    "description": ""
  },
  {
    "longitude": 0.94937,
    "latitude": 46.5913,
    "name": "Aire Picnic",
    "city": "36 D951 (3 tables WC)",
    "description": ""
  },
  {
    "longitude": 2.26816,
    "latitude": 48.77554,
    "name": "Aire Picnic",
    "city": "92 Ch�tenay-Malabry (1 Tablchemidu Rond-Point)",
    "description": ""
  },
  {
    "longitude": 6.89972,
    "latitude": 43.95111,
    "name": "Aire Picnic",
    "city": "06 Puget Th�niers",
    "description": ""
  },
  {
    "longitude": 2.79664,
    "latitude": 45.58285,
    "name": "Aire Picnic",
    "city": "63 D645 Vendeix (2 tables Dans 1 Viragsans Ombre)",
    "description": ""
  },
  {
    "longitude": -1.8133,
    "latitude": 46.5345,
    "name": "Aire Picnic",
    "city": "85 Olonne-Sur-Mer (3 tables)",
    "description": ""
  },
  {
    "longitude": -1.98083,
    "latitude": 48.38439,
    "name": "Aire Picnic",
    "city": "22 Evrad2/D39 Llong Des �cluses (4 tables)",
    "description": ""
  },
  {
    "longitude": 3.74902,
    "latitude": 45.0941,
    "name": "Aire Picnic",
    "city": "43 Loudes D905 (4t)",
    "description": ""
  },
  {
    "longitude": 5.69634,
    "latitude": 48.98832,
    "name": "Aire Picnic",
    "city": "55 Rulouiscotti (3 tables + Lavoir+ Vue)",
    "description": ""
  },
  {
    "longitude": -3.63664,
    "latitude": 48.67071,
    "name": "Aire Picnic",
    "city": "22 D42 (3 tables)",
    "description": ""
  },
  {
    "longitude": -4.28472,
    "latitude": 48.06398,
    "name": "Aire Picnic",
    "city": "29 D765 (Douarnenez > Quimper)",
    "description": ""
  },
  {
    "longitude": 2.32048,
    "latitude": 43.42606,
    "name": "Aire Picnic",
    "city": "11 les Martys (Bascoul - 2 tables)",
    "description": ""
  },
  {
    "longitude": -3.47992,
    "latitude": 48.83554,
    "name": "Aire Picnic",
    "city": "22 Ruaim�fournier (2 tables Granit Rose)",
    "description": ""
  },
  {
    "longitude": 7.51306,
    "latitude": 43.78556,
    "name": "Aire Picnic",
    "city": "06 Menton",
    "description": ""
  },
  {
    "longitude": -4.07027,
    "latitude": 48.29606,
    "name": "Aire Picnic",
    "city": "29 Pont-De-Buis-Les-Quimerch (Vieux Bourg Dquimerch 1 table)",
    "description": ""
  },
  {
    "longitude": 5.28168,
    "latitude": 48.84816,
    "name": "Aire Picnic",
    "city": "55 N23 Voisacr� (1 Tabl+ Histoir+ Sympa)",
    "description": ""
  },
  {
    "longitude": 1.24062,
    "latitude": 47.95574,
    "name": "Aire Picnic",
    "city": "41 Saint-Jean-Froidmentel (2-12 Rudvernouillet",
    "description": "2 tables)"
  },
  {
    "longitude": 5.41008,
    "latitude": 48.03762,
    "name": "Aire Picnic",
    "city": "52 D417/Nogent (2 tables)",
    "description": ""
  },
  {
    "longitude": 5.24989,
    "latitude": 48.00575,
    "name": "Aire Picnic",
    "city": "52 Marnay Sur Marnd619 (6 tables)",
    "description": ""
  },
  {
    "longitude": -4.23165,
    "latitude": 48.16671,
    "name": "Aire Picnic",
    "city": "29 Plo�ven (D63 - 2 tables)",
    "description": ""
  },
  {
    "longitude": 1.52084,
    "latitude": 48.42885,
    "name": "Aire Picnic",
    "city": "28 Gellainvill (Pres Bois Dla Motte)",
    "description": ""
  },
  {
    "longitude": 2.87843,
    "latitude": 45.11231,
    "name": "Aire Picnic",
    "city": "15 Murat (2 tables)",
    "description": ""
  },
  {
    "longitude": -2.90063,
    "latitude": 48.66624,
    "name": "Aire Picnic",
    "city": "22 D786 (3 tables)",
    "description": ""
  },
  {
    "longitude": -3.54131,
    "latitude": 48.79833,
    "name": "Aire Picnic",
    "city": "22 D788 (4 tables + Info)",
    "description": ""
  },
  {
    "longitude": -1.92141,
    "latitude": 48.17529,
    "name": "Aire Picnic",
    "city": "35 N12 (5 tables",
    "description": "WC)"
  },
  {
    "longitude": -0.00778,
    "latitude": 49.1394,
    "name": "Aire Picnic",
    "city": "14 Notrdamd'estr�es D613 (1 tables)",
    "description": ""
  },
  {
    "longitude": -4.25113,
    "latitude": 47.81367,
    "name": "Aire Picnic",
    "city": "29 Plobannalec (Sitdqu�larn",
    "description": "1 table)"
  },
  {
    "longitude": 3.37104,
    "latitude": 46.85619,
    "name": "Aire Picnic",
    "city": "58 Druy Parigny D981 (2 tables)",
    "description": ""
  },
  {
    "longitude": -2.9031,
    "latitude": 48.57444,
    "name": "Aire Picnic",
    "city": "22 D6 (4 tables)",
    "description": ""
  },
  {
    "longitude": 6.63056,
    "latitude": 43.74722,
    "name": "Aire Picnic",
    "city": "83 Verdo7",
    "description": ""
  },
  {
    "longitude": 2.16061,
    "latitude": 48.75302,
    "name": "Aire Picnic",
    "city": "78 Jouy-En-Josas (Chemidu Petit Viltai1 table)",
    "description": ""
  },
  {
    "longitude": 4.6039,
    "latitude": 45.81806,
    "name": "Aire Picnic",
    "city": "42 La Tourettd389 (8 tables)",
    "description": ""
  },
  {
    "longitude": 2.15169,
    "latitude": 48.82025,
    "name": "Aire Picnic",
    "city": "92 Marnes-La-Coquette (Route de L'imp�ratrice - table)",
    "description": ""
  },
  {
    "longitude": -4.3984,
    "latitude": 47.95897,
    "name": "Aire Picnic",
    "city": "29 Ploz�vet (Chapellsaint-Demet 2 tables)",
    "description": ""
  },
  {
    "longitude": 7.22007,
    "latitude": 47.84413,
    "name": "Aire Picnic",
    "city": "68 Berrwiller (2 tables)",
    "description": ""
  },
  {
    "longitude": 2.32617,
    "latitude": 43.3164,
    "name": "Aire Picnic",
    "city": "11 Conques (2 tables)",
    "description": ""
  },
  {
    "longitude": -4.77087,
    "latitude": 48.45634,
    "name": "Aire Picnic",
    "city": "29 Rudu Gou�rou (2 tables - Facmer)",
    "description": ""
  },
  {
    "longitude": -4.11367,
    "latitude": 47.91466,
    "name": "Aire Picnic",
    "city": "29 D234 Gouesnach Entr�bourg",
    "description": ""
  },
  {
    "longitude": 0.72861,
    "latitude": 48.06439,
    "name": "Aire Picnic",
    "city": "72 Vibray (Avenumichel Verdier 1 table)",
    "description": ""
  },
  {
    "longitude": 5.39821,
    "latitude": 44.72243,
    "name": "Aire Picnic",
    "city": "26 D93 Molieres (3 tables",
    "description": "WC)"
  },
  {
    "longitude": 7.07944,
    "latitude": 47.85306,
    "name": "Aire Picnic",
    "city": "68 D13 (2 tables Ombrag�es)",
    "description": ""
  },
  {
    "longitude": -3.91799,
    "latitude": 47.85677,
    "name": "Aire Picnic",
    "city": "29 Concarneau (Pointdu Cabellou 2 tables)",
    "description": ""
  },
  {
    "longitude": -4.18381,
    "latitude": 48.31208,
    "name": "Aire Picnic",
    "city": "29 D18 Sizu>> Lfaou",
    "description": ""
  },
  {
    "longitude": 5.02633,
    "latitude": 48.76397,
    "name": "Aire Picnic",
    "city": "55 D997 (2 tables)",
    "description": ""
  },
  {
    "longitude": 7.33167,
    "latitude": 43.72583,
    "name": "Aire Picnic",
    "city": "06 Grd Cornichbeaulieu",
    "description": ""
  },
  {
    "longitude": 5.72611,
    "latitude": 48.04611,
    "name": "Aire Picnic",
    "city": "N429 (3 tables)",
    "description": ""
  },
  {
    "longitude": -2.84829,
    "latitude": 47.93606,
    "name": "Aire Picnic",
    "city": "56 D767 1 table",
    "description": ""
  },
  {
    "longitude": -4.33865,
    "latitude": 48.00068,
    "name": "Aire Picnic",
    "city": "29 Landudec (Bourg",
    "description": "1 table)"
  },
  {
    "longitude": 7.35444,
    "latitude": 43.98417,
    "name": "Aire Picnic",
    "city": "06 La Bollenv�subi2",
    "description": ""
  },
  {
    "longitude": 5.57448,
    "latitude": 49.11618,
    "name": "Aire Picnic",
    "city": "55 D903 (1 Tabl)",
    "description": ""
  },
  {
    "longitude": 4.97117,
    "latitude": 49.10048,
    "name": "Aire Picnic",
    "city": "51 N3 (Airrepos 5 tables + Point Info)",
    "description": ""
  },
  {
    "longitude": -4.10277,
    "latitude": 48.42097,
    "name": "Aire Picnic",
    "city": "29 D764 (1 table)",
    "description": ""
  },
  {
    "longitude": 5.6398,
    "latitude": 48.89652,
    "name": "Aire Picnic",
    "city": "55 D119 (2 tables)",
    "description": ""
  },
  {
    "longitude": 6.84139,
    "latitude": 43.50667,
    "name": "Aire Picnic",
    "city": "83 Esterel 1",
    "description": ""
  },
  {
    "longitude": -0.87912,
    "latitude": 46.00626,
    "name": "Aire Picnic",
    "city": "17 Cir�-D'aunis (3 tables)",
    "description": ""
  },
  {
    "longitude": -3.73491,
    "latitude": 48.36669,
    "name": "Aire Picnic",
    "city": "29 D769 (2 tables Sous Bois)",
    "description": ""
  },
  {
    "longitude": -0.41832,
    "latitude": 46.60537,
    "name": "Aire Picnic",
    "city": "79 Secondigny (3 tables)",
    "description": ""
  },
  {
    "longitude": 6.62944,
    "latitude": 43.74056,
    "name": "Aire Picnic",
    "city": "83 Verdo6",
    "description": ""
  },
  {
    "longitude": 2.27305,
    "latitude": 48.63539,
    "name": "Aire Picnic",
    "city": "91 Monthl�ry (Tour - 2 tables)",
    "description": ""
  },
  {
    "longitude": 2.27832,
    "latitude": 48.75372,
    "name": "Aire Picnic",
    "city": "91 Verrieres-Le-Buisso (Parc Dla Noisette",
    "description": "3 tables)"
  },
  {
    "longitude": 0.5555,
    "latitude": 48.39127,
    "name": "Aire Picnic",
    "city": "61 D938 (3 tables)",
    "description": ""
  },
  {
    "longitude": 0.74098,
    "latitude": 49.51,
    "name": "Aire Picnic",
    "city": "76 D490",
    "description": ""
  },
  {
    "longitude": -0.59383,
    "latitude": 47.33135,
    "name": "Aire Picnic",
    "city": "49 Beaulieu Sur Layod160 3 tables + WC)",
    "description": ""
  },
  {
    "longitude": 6.60279,
    "latitude": 45.8507,
    "name": "Aire Picnic",
    "city": "74 Lvillard (Megeve) (6 tables)",
    "description": ""
  },
  {
    "longitude": -4.35273,
    "latitude": 47.91318,
    "name": "Aire Picnic",
    "city": "29 Plova (Chapelldlanguidou",
    "description": "2 tables)"
  },
  {
    "longitude": 5.2296,
    "latitude": 43.85923,
    "name": "Aire Picnic",
    "city": "84 Goult (2 tables Eau Village)",
    "description": ""
  },
  {
    "longitude": -3.23627,
    "latitude": 48.32117,
    "name": "Aire Picnic",
    "city": "22 D8 (1 tables)",
    "description": ""
  },
  {
    "longitude": 2.0836,
    "latitude": 48.78235,
    "name": "Aire Picnic",
    "city": "78 Guyancourt (Chemin Des Etangs - tables)",
    "description": ""
  },
  {
    "longitude": 0.96397,
    "latitude": 45.89019,
    "name": "Aire Picnic",
    "city": "17 L'houm� (3 tables)",
    "description": ""
  },
  {
    "longitude": 7.06222,
    "latitude": 43.62778,
    "name": "Aire Picnic",
    "city": "06 Mouans Sartoux 3",
    "description": ""
  },
  {
    "longitude": 2.42957,
    "latitude": 48.67236,
    "name": "Aire Picnic",
    "city": "91 Draveil (Ch�nd'antin",
    "description": "4 tables)"
  },
  {
    "longitude": -0.73294,
    "latitude": 46.31319,
    "name": "Aire Picnic",
    "city": "85 Damvix (Jeux)",
    "description": ""
  },
  {
    "longitude": 0.61367,
    "latitude": 49.8522,
    "name": "Aire Picnic",
    "city": "76 D79",
    "description": ""
  },
  {
    "longitude": -4.11511,
    "latitude": 48.20082,
    "name": "Aire Picnic",
    "city": "29 Din�ault (Lchap",
    "description": "2 tables)"
  },
  {
    "longitude": 4.48528,
    "latitude": 49.04653,
    "name": "Aire Picnic",
    "city": "51 D994 (2 tables - Camp D'attila)",
    "description": ""
  },
  {
    "longitude": -0.6144,
    "latitude": 47.98375,
    "name": "Aire Picnic",
    "city": "53 D20",
    "description": "21 Bois Dbergault (10 tables"
  },
  {
    "longitude": 5.40737,
    "latitude": 49.13122,
    "name": "Aire Picnic",
    "city": "55 Belleray (3 tables",
    "description": "WC"
  },
  {
    "longitude": 5.71599,
    "latitude": 46.38806,
    "name": "Aire Picnic",
    "city": "39 D27 (2 tables)",
    "description": ""
  },
  {
    "longitude": -1.27422,
    "latitude": 48.34397,
    "name": "Aire Picnic",
    "city": "35 Romagnd812 (4 tables)",
    "description": ""
  },
  {
    "longitude": -4.36833,
    "latitude": 47.82472,
    "name": "Aire Picnic",
    "city": "29 Penmarch (1 Tablrochers Saint-Gu�nol�)",
    "description": ""
  },
  {
    "longitude": -4.37417,
    "latitude": 47.94782,
    "name": "Aire Picnic",
    "city": "29 Pouldreuzic (D40 2 tables)",
    "description": ""
  },
  {
    "longitude": -0.56913,
    "latitude": 45.29148,
    "name": "Aire Picnic",
    "city": "33 N137 (7 tables+WC) Pres Dst Caprais Dblaye",
    "description": ""
  },
  {
    "longitude": 1.60284,
    "latitude": 50.17985,
    "name": "Aire Picnic",
    "city": "80 D940 (2 tables)",
    "description": ""
  },
  {
    "longitude": 7.37111,
    "latitude": 43.96917,
    "name": "Aire Picnic",
    "city": "06 Peira Cava 7",
    "description": ""
  },
  {
    "longitude": 1.0925,
    "latitude": 47.03139,
    "name": "[Picnic]85 D753 (2 tables)",
    "city": "",
    "description": ""
  },
  {
    "longitude": -0.02242,
    "latitude": 47.24084,
    "name": "Aire Picnic",
    "city": "49 D947 Routdmontsoreau (3 tables",
    "description": "WC"
  },
  {
    "longitude": 3.47503,
    "latitude": 46.27682,
    "name": "Aire Picnic",
    "city": "03 Rn7 Langy (1 table+WC+Point D'eau Gratuit)",
    "description": ""
  },
  {
    "longitude": 5.36121,
    "latitude": 49.54583,
    "name": "Aire Picnic",
    "city": "55 N43 (1 table)",
    "description": ""
  },
  {
    "longitude": 5.29334,
    "latitude": 46.74887,
    "name": "Aire Picnic",
    "city": "39 D970",
    "description": ""
  },
  {
    "longitude": 3.36363,
    "latitude": 46.36963,
    "name": "Aire Picnic",
    "city": "03 La Fert�-Hauterive (Rn7-1 table)",
    "description": ""
  },
  {
    "longitude": 1.61577,
    "latitude": 50.38423,
    "name": "Aire Picnic",
    "city": "62 D940 (3 tables)",
    "description": ""
  },
  {
    "longitude": -3.54889,
    "latitude": 48.7875,
    "name": "Aire Picnic",
    "city": "22 D21 (3 tables Esous Bois)",
    "description": ""
  },
  {
    "longitude": 5.64475,
    "latitude": 48.90326,
    "name": "Aire Picnic",
    "city": "55 D162 (1 Tabl)",
    "description": ""
  },
  {
    "longitude": -1.67912,
    "latitude": 48.05716,
    "name": "Aire Picnic",
    "city": "35 N137 (Aire du Hil)",
    "description": ""
  },
  {
    "longitude": 6.46528,
    "latitude": 43.20972,
    "name": "Aire Picnic",
    "city": "83 La Mole",
    "description": ""
  },
  {
    "longitude": 6.67731,
    "latitude": 44.63099,
    "name": "Aire Picnic",
    "city": "05 D902 Guillestr (1 tablet Vu Vall�dla Durance)",
    "description": ""
  },
  {
    "longitude": 0.16494,
    "latitude": 48.60602,
    "name": "Aire Picnic",
    "city": "61 S�es N138",
    "description": ""
  },
  {
    "longitude": -0.42133,
    "latitude": 43.03619,
    "name": "Aire Picnic",
    "city": "64 D290/Aste-B�o (4 tables)",
    "description": ""
  },
  {
    "longitude": 6.64806,
    "latitude": 43.78556,
    "name": "Aire Picnic",
    "city": "83 Verdo12",
    "description": ""
  },
  {
    "longitude": 0.49679,
    "latitude": 46.55969,
    "name": "Aire Picnic",
    "city": "86 St Julied951 (8t)",
    "description": ""
  },
  {
    "longitude": 4.72494,
    "latitude": 48.43413,
    "name": "Aire Picnic",
    "city": "52 Louz (Pres �glis1 table)",
    "description": ""
  },
  {
    "longitude": -0.15046,
    "latitude": 44.56246,
    "name": "Aire Picnic",
    "city": "33 Castets Edorthd226 (5 tables Au Bord du Canal)",
    "description": ""
  },
  {
    "longitude": 6.09646,
    "latitude": 46.83162,
    "name": "Aire Picnic",
    "city": "25 Frasne",
    "description": ""
  },
  {
    "longitude": -3.93752,
    "latitude": 48.11257,
    "name": "Aire Picnic",
    "city": "29 Eder (Chapellsaint-Jea1 table)",
    "description": ""
  },
  {
    "longitude": 5.25068,
    "latitude": 48.03785,
    "name": "Aire Picnic",
    "city": "N19 - 2 tables (Directionord)",
    "description": ""
  },
  {
    "longitude": 5.62903,
    "latitude": 48.86111,
    "name": "Aire Picnic",
    "city": "55 D907 (1 Tabl)",
    "description": ""
  },
  {
    "longitude": 0.24539,
    "latitude": 47.90271,
    "name": "Aire Picnic",
    "city": "72 Mulsanne (Rue de La Chesnaie - 2 tables)",
    "description": ""
  },
  {
    "longitude": 0.89585,
    "latitude": 47.33494,
    "name": "Aire Picnic",
    "city": "37 Ath�e-Sur-Cher",
    "description": ""
  },
  {
    "longitude": -0.4388,
    "latitude": 47.3542,
    "name": "Aire Picnic",
    "city": "49 Brissac Quinc� (3 tables",
    "description": "WC)"
  },
  {
    "longitude": -1.08516,
    "latitude": 45.8425,
    "name": "Aire Picnic",
    "city": "17 Marennes D3 (4 tables)",
    "description": ""
  },
  {
    "longitude": -0.24348,
    "latitude": 47.18882,
    "name": "Aire Picnic",
    "city": "49 D960",
    "description": ""
  },
  {
    "longitude": -1.23045,
    "latitude": 48.57823,
    "name": "Aire Picnic",
    "city": "50 Barragdv�zins (Lac",
    "description": "Pr�au"
  },
  {
    "longitude": 5.33944,
    "latitude": 49.24328,
    "name": "Aire Picnic",
    "city": "55 D964 (3 tables)",
    "description": ""
  },
  {
    "longitude": -2.81652,
    "latitude": 47.70977,
    "name": "Aire Picnic",
    "city": "56 D779",
    "description": ""
  },
  {
    "longitude": -1.12158,
    "latitude": 46.82637,
    "name": "Aire Picnic",
    "city": "85 Vendrennes D160 10 tables)",
    "description": ""
  },
  {
    "longitude": 7.28083,
    "latitude": 44.00917,
    "name": "Aire Picnic",
    "city": "06 Roquebillier7",
    "description": ""
  },
  {
    "longitude": -4.38298,
    "latitude": 47.95949,
    "name": "Aire Picnic",
    "city": "29 Pouldreuzic (Chapelldlababan",
    "description": "2 tables)"
  },
  {
    "longitude": -3.17887,
    "latitude": 48.48872,
    "name": "Aire Picnic",
    "city": "22 D8 (2 tables)",
    "description": ""
  },
  {
    "longitude": 0.65472,
    "latitude": 48.0175,
    "name": "Aire Picnic",
    "city": "72 Semur-En-Vallo (4 tables Au Bord Dl'�tang)",
    "description": ""
  },
  {
    "longitude": 6.51859,
    "latitude": 43.71317,
    "name": "Aire Picnic",
    "city": "83 Comps-Sur-Artuby (3 tables)",
    "description": ""
  },
  {
    "longitude": -0.1485,
    "latitude": 49.1196,
    "name": "Aire Picnic",
    "city": "14 les Pedouzes D613 (4 tables)",
    "description": ""
  },
  {
    "longitude": -3.79695,
    "latitude": 47.82607,
    "name": "Aire Picnic",
    "city": "29 N�vez (Nord Bourg",
    "description": "2 tables)"
  },
  {
    "longitude": 0.14513,
    "latitude": 47.16657,
    "name": "Aire Picnic",
    "city": "37 D751",
    "description": ""
  },
  {
    "longitude": -3.73367,
    "latitude": 48.36672,
    "name": "Aire Picnic",
    "city": "29 D769 (4 tables)",
    "description": ""
  },
  {
    "longitude": 0.89839,
    "latitude": 49.36707,
    "name": "Aire Picnic",
    "city": "27 Caumont (Prees �glis2 tables)",
    "description": ""
  },
  {
    "longitude": 2.28787,
    "latitude": 48.74551,
    "name": "Aire Picnic",
    "city": "92 Antony (Parc Georges Heller B - table)",
    "description": ""
  },
  {
    "longitude": -3.9826,
    "latitude": 48.19277,
    "name": "Aire Picnic",
    "city": "29 Pleybe (Pont-Coblant 2 tables)",
    "description": ""
  },
  {
    "longitude": 1.23333,
    "latitude": 47.99972,
    "name": "Aire Picnic",
    "city": "28 Cloyes Sur Lloir (1 table)",
    "description": ""
  },
  {
    "longitude": 4.63814,
    "latitude": 45.548,
    "name": "Aire Picnic",
    "city": "42 St Joseph D342 (2 tables)",
    "description": ""
  },
  {
    "longitude": -4.68588,
    "latitude": 48.04859,
    "name": "Aire Picnic",
    "city": "29 Cl�den-Cap-Sizu>> Chapellsaint-Tugdal",
    "description": ""
  },
  {
    "longitude": 6.08336,
    "latitude": 45.61586,
    "name": "Aire Picnic",
    "city": "73 Ailloljeune- (2 tables+Ruisseau)",
    "description": ""
  },
  {
    "longitude": 6.09336,
    "latitude": 45.61282,
    "name": "Aire Picnic",
    "city": "73 Ailloljeune- (1 table+Ruisseau)",
    "description": ""
  },
  {
    "longitude": 0.0799,
    "latitude": 47.91947,
    "name": "Aire Picnic",
    "city": "72 Ro�z�-Sur-Sarthd23]",
    "description": ""
  },
  {
    "longitude": 7.36556,
    "latitude": 43.95639,
    "name": "Aire Picnic",
    "city": "06 Peira Cava Rtterr6",
    "description": ""
  },
  {
    "longitude": -0.48207,
    "latitude": 48.98961,
    "name": "Aire Picnic",
    "city": "14 Thury Harcourt (Placdla Gare)",
    "description": ""
  },
  {
    "longitude": -0.15325,
    "latitude": 47.14273,
    "name": "Aire Picnic",
    "city": "49 Montreuil-Bellay (Entrsaumur Et Thouars",
    "description": "4 tables"
  },
  {
    "longitude": 6.68389,
    "latitude": 46.20149,
    "name": "Aire Picnic",
    "city": "74 D229 Montriond (2 tables)",
    "description": ""
  },
  {
    "longitude": 7.30194,
    "latitude": 44.10944,
    "name": "Aire Picnic",
    "city": "06 Bor�o4",
    "description": ""
  },
  {
    "longitude": 4.0953,
    "latitude": 49.21606,
    "name": "Aire Picnic",
    "city": "51 Taissy (Pres �glise)",
    "description": ""
  },
  {
    "longitude": -2.48644,
    "latitude": 47.9506,
    "name": "Aire Picnic",
    "city": "56 La Croix-H�ll�a (Chapellsaint-Maud�",
    "description": "1 table)"
  },
  {
    "longitude": 1.16112,
    "latitude": 49.3051,
    "name": "Aire Picnic",
    "city": "27 Pont Dl'arch (1 table)",
    "description": ""
  },
  {
    "longitude": 3.82824,
    "latitude": 48.58721,
    "name": "Aire Picnic",
    "city": "52 Anglurd373 (4 tables)",
    "description": ""
  },
  {
    "longitude": -4.69649,
    "latitude": 48.03951,
    "name": "Aire Picnic",
    "city": "29 Plogoff (Kerveur",
    "description": "2 tables)"
  },
  {
    "longitude": -1.49139,
    "latitude": 49.28696,
    "name": "Aire Picnic",
    "city": "50 Lithaire (Plan D'eau du Mont Castre)",
    "description": ""
  },
  {
    "longitude": 2.244,
    "latitude": 48.75967,
    "name": "Aire Picnic",
    "city": "91 Verrieres-Le-Buisso (Carrefour Dl'ob�lisqu tables)",
    "description": ""
  },
  {
    "longitude": 4.49586,
    "latitude": 45.87537,
    "name": "Aire Picnic",
    "city": "69 Pontcharra Sur Turdin (2 tables)",
    "description": ""
  },
  {
    "longitude": 7.03611,
    "latitude": 43.59833,
    "name": "Aire Picnic",
    "city": "06 Valmasqu (5t)",
    "description": ""
  },
  {
    "longitude": 0.06798,
    "latitude": 47.21411,
    "name": "Aire Picnic",
    "city": "49 D751 (3 tables Au Bord Dloire)",
    "description": ""
  },
  {
    "longitude": -2.22608,
    "latitude": 48.05768,
    "name": "Aire Picnic",
    "city": "56 Concoret (Arbrremarquabl; 3 tables)",
    "description": ""
  },
  {
    "longitude": -4.70764,
    "latitude": 48.3582,
    "name": "Aire Picnic",
    "city": "29 D789 (4 tables)",
    "description": ""
  },
  {
    "longitude": -2.85563,
    "latitude": 47.94924,
    "name": "Aire Picnic",
    "city": "56 D767 1 table",
    "description": ""
  },
  {
    "longitude": 2.33398,
    "latitude": 43.44061,
    "name": "Aire Picnic",
    "city": "81 Mazamet (St Sarail 3 tables)",
    "description": ""
  },
  {
    "longitude": 7.0975,
    "latitude": 43.67972,
    "name": "Aire Picnic",
    "city": "06 La Colle/Loup",
    "description": ""
  },
  {
    "longitude": 4.55474,
    "latitude": 49.2424,
    "name": "Aire Picnic",
    "city": "51 D977 (2 tables + Point Info + Sympa)",
    "description": ""
  },
  {
    "longitude": 7.2775,
    "latitude": 44.00694,
    "name": "Aire Picnic",
    "city": "06 Roquebillier8",
    "description": ""
  },
  {
    "longitude": 2.07453,
    "latitude": 48.96088,
    "name": "Aire Picnic",
    "city": "78 Saint-Germain-En-Lay (2 tables)",
    "description": ""
  },
  {
    "longitude": -0.15593,
    "latitude": 47.13677,
    "name": "Aire Picnic",
    "city": "49 D88 (3 tables - Sympa)",
    "description": ""
  },
  {
    "longitude": -0.24694,
    "latitude": 49.1743,
    "name": "Aire Picnic",
    "city": "14 D�mouvill (Plusieurs tables)",
    "description": ""
  },
  {
    "longitude": 4.33954,
    "latitude": 45.91685,
    "name": "Aire Picnic",
    "city": "42 N7 Vers Nord (2 tables)",
    "description": ""
  },
  {
    "longitude": -1.01844,
    "latitude": 48.44038,
    "name": "Aire Picnic",
    "city": "53 D31 (St Mars Sur La Futai- 2 tables)",
    "description": ""
  },
  {
    "longitude": -3.65212,
    "latitude": 47.8195,
    "name": "Aire Picnic",
    "city": "29 D24 Mo�lan-Sur-Mer",
    "description": ""
  },
  {
    "longitude": 0.86241,
    "latitude": 45.08165,
    "name": "Aire Picnic",
    "city": "24 La Douz (3 tables)",
    "description": ""
  },
  {
    "longitude": -1.58336,
    "latitude": 47.11106,
    "name": "Aire Picnic",
    "city": "44 D65 Pont Saint Marti (Lplessis",
    "description": "3 tables)"
  },
  {
    "longitude": -1.21938,
    "latitude": 44.14567,
    "name": "Aire Picnic",
    "city": "40 Mimizad652 (2 tables)",
    "description": ""
  },
  {
    "longitude": 6.72972,
    "latitude": 43.84333,
    "name": "Aire Picnic",
    "city": "06 St Auban",
    "description": ""
  },
  {
    "longitude": 3.65793,
    "latitude": 46.73933,
    "name": "Aire Picnic",
    "city": "58 Tannay D979 (2 tables)",
    "description": ""
  },
  {
    "longitude": 0.81869,
    "latitude": 48.15793,
    "name": "Aire Picnic",
    "city": "72 Saint-Ulphac (Pres Bourg",
    "description": "1 table)"
  },
  {
    "longitude": 0.17134,
    "latitude": 47.29008,
    "name": "Aire Picnic",
    "city": "37 D35 (Tres Sympa)",
    "description": ""
  },
  {
    "longitude": -3.1302,
    "latitude": 48.78215,
    "name": "Aire Picnic",
    "city": "22 D786 (3 tables)",
    "description": ""
  },
  {
    "longitude": -3.19857,
    "latitude": 48.77999,
    "name": "Aire Picnic",
    "city": "22 D786 (6 tables)",
    "description": ""
  },
  {
    "longitude": 4.71377,
    "latitude": 44.59597,
    "name": "Aire Picnic",
    "city": "07 N86 Rochemaur (3 tables)",
    "description": ""
  },
  {
    "longitude": 2.94254,
    "latitude": 45.52131,
    "name": "Aire Picnic",
    "city": "63 D5 Besset Saint Anastais (4 tables Bellvue)",
    "description": ""
  },
  {
    "longitude": 2.94404,
    "latitude": 45.52119,
    "name": "Aire Picnic",
    "city": "63 Besse-Et-Saint-Anastaise (D978) 3 tables",
    "description": ""
  },
  {
    "longitude": 0.36145,
    "latitude": 49.49397,
    "name": "Aire Picnic",
    "city": "76 Saint-Vigor-D'ymonvill (1 Tablpres �glise)",
    "description": ""
  },
  {
    "longitude": 7.02694,
    "latitude": 43.62917,
    "name": "Aire Picnic",
    "city": "06 Mouans Sartoux 2",
    "description": ""
  },
  {
    "longitude": 5.38644,
    "latitude": 48.6981,
    "name": "Aire Picnic",
    "city": "55 N4 (10 tables)",
    "description": ""
  },
  {
    "longitude": -4.10029,
    "latitude": 47.97665,
    "name": "Aire Picnic",
    "city": "29 Quimper (Pres Odet",
    "description": "2 tables)"
  },
  {
    "longitude": 5.0851,
    "latitude": 49.32473,
    "name": "Aire Picnic",
    "city": "55 D104 - (3 tables Sympa)",
    "description": ""
  },
  {
    "longitude": 5.41278,
    "latitude": 49.09341,
    "name": "Aire Picnic",
    "city": "55 D964 (3 tables)",
    "description": ""
  },
  {
    "longitude": 1.50456,
    "latitude": 46.51877,
    "name": "Aire Picnic",
    "city": "36 Celon",
    "description": ""
  },
  {
    "longitude": 0.14461,
    "latitude": 46.45487,
    "name": "Aire Picnic",
    "city": "86 Lusignad611 (4t)",
    "description": ""
  },
  {
    "longitude": -4.2672,
    "latitude": 48.12982,
    "name": "Aire Picnic",
    "city": "29 Plon�vez-Porzay (Tr�funtec 5 tables)",
    "description": ""
  },
  {
    "longitude": 6.12528,
    "latitude": 43.72667,
    "name": "Aire Picnic",
    "city": "83 Saintcroix 6",
    "description": ""
  },
  {
    "longitude": -1.50524,
    "latitude": 43.38382,
    "name": "Aire Picnic",
    "city": "64 Ustaritz D3 (8 tables)",
    "description": ""
  },
  {
    "longitude": 0.59388,
    "latitude": 43.04331,
    "name": "Aire Picnic",
    "city": "31 Labroquierd33 (5 tables)",
    "description": ""
  },
  {
    "longitude": 1.95352,
    "latitude": 49.5869,
    "name": "Aire Picnic",
    "city": "60 Fontainlavagand901 Ouest",
    "description": ""
  },
  {
    "longitude": -4.37916,
    "latitude": 47.91515,
    "name": "Aire Picnic",
    "city": "29 Plova (Plage",
    "description": "2 tables)"
  },
  {
    "longitude": -0.24942,
    "latitude": 44.31091,
    "name": "Aire Picnic",
    "city": "33 N524",
    "description": ""
  },
  {
    "longitude": 7.31056,
    "latitude": 44.02778,
    "name": "Aire Picnic",
    "city": "06 Roquebilliere",
    "description": ""
  },
  {
    "longitude": 5.72514,
    "latitude": 47.93518,
    "name": "Aire Picnic",
    "city": "52 D26/Bourbonne-Les-Bains (4 tables",
    "description": "Parc Animalier)"
  },
  {
    "longitude": -1.81061,
    "latitude": 46.52698,
    "name": "Aire Picnic",
    "city": "85 Olonne-Sur-Mer (3 tables)",
    "description": ""
  },
  {
    "longitude": -0.49765,
    "latitude": 48.35196,
    "name": "Aire Picnic",
    "city": "53 N12 Airdes Chemin�es (9 tables)",
    "description": ""
  },
  {
    "longitude": -4.21226,
    "latitude": 47.81481,
    "name": "Aire Picnic",
    "city": "29 Plobannalec (Chapelldplonivel",
    "description": "2 tables)"
  },
  {
    "longitude": 7.4817,
    "latitude": 43.82405,
    "name": "Aire Picnic",
    "city": "06 Monti (Menton) (2 tables)",
    "description": ""
  },
  {
    "longitude": 2.65839,
    "latitude": 47.25468,
    "name": "Aire Picnic",
    "city": "18 Lfaviot (2 tables)",
    "description": ""
  },
  {
    "longitude": 2.08122,
    "latitude": 44.78136,
    "name": "Aire Picnic",
    "city": "46 Latronquier (Lac du Roc)",
    "description": ""
  },
  {
    "longitude": 0.23749,
    "latitude": 48.7312,
    "name": "Aire Picnic",
    "city": "61 Menil Froger N138 3 tables",
    "description": ""
  },
  {
    "longitude": 1.83706,
    "latitude": 46.88266,
    "name": "Aire Picnic",
    "city": "36 N151 (10 tables WC)",
    "description": ""
  },
  {
    "longitude": 2.86036,
    "latitude": 45.48279,
    "name": "Aire Picnic",
    "city": "63 D978 (Parking Bord Droutclassique: 2 tables)",
    "description": ""
  },
  {
    "longitude": -4.114,
    "latitude": 48.1767,
    "name": "Aire Picnic",
    "city": "29 D7 Cast >> Ch�teaulin",
    "description": ""
  },
  {
    "longitude": 5.13028,
    "latitude": 48.32639,
    "name": "Aire Picnic",
    "city": "N67 (Vers Lsud)- 3 tables",
    "description": ""
  },
  {
    "longitude": 2.31446,
    "latitude": 43.42464,
    "name": "Aire Picnic",
    "city": "11 les Martys (les Auberges 3 tables)",
    "description": ""
  },
  {
    "longitude": 5.38489,
    "latitude": 49.48204,
    "name": "Aire Picnic",
    "city": "55 N43 (6 tables)",
    "description": ""
  },
  {
    "longitude": 2.20904,
    "latitude": 48.58112,
    "name": "Aire Picnic",
    "city": "91 Bruyeres-Le-Ch�tel (A 1 table)",
    "description": ""
  },
  {
    "longitude": -3.84802,
    "latitude": 48.36242,
    "name": "Aire Picnic",
    "city": "29 Brennilis (Pres Dolmen",
    "description": "2 tables)"
  },
  {
    "longitude": 5.12341,
    "latitude": 48.11131,
    "name": "Aire Picnic",
    "city": "52 Chaumont D65 (2 tables)",
    "description": ""
  },
  {
    "longitude": -0.98745,
    "latitude": 46.31403,
    "name": "Aire Picnic",
    "city": "17 Marans (10 tables)",
    "description": ""
  },
  {
    "longitude": 6.6175,
    "latitude": 44.24472,
    "name": "Aire Picnic",
    "city": "04 Allos 2",
    "description": ""
  },
  {
    "longitude": 7.03556,
    "latitude": 43.60111,
    "name": "Aire Picnic",
    "city": "06 Valmasqu (5t)",
    "description": ""
  },
  {
    "longitude": 0.83675,
    "latitude": 46.64918,
    "name": "Aire Picnic",
    "city": "86 La Bussier (6t",
    "description": "WC"
  },
  {
    "longitude": 1.2253,
    "latitude": 45.03285,
    "name": "Aire Picnic",
    "city": "24 D704 St Genies (3 tables)",
    "description": ""
  },
  {
    "longitude": 1.24222,
    "latitude": 48.01361,
    "name": "Aire Picnic",
    "city": "28 Montigny Lgannelo (1 Tablau Bord Dl'�tang)",
    "description": ""
  },
  {
    "longitude": 3.17461,
    "latitude": 45.55364,
    "name": "Aire Picnic",
    "city": "63 Pardines D996 (3t)",
    "description": ""
  },
  {
    "longitude": -3.59641,
    "latitude": 48.27082,
    "name": "Aire Picnic",
    "city": "29 Carhaix-Plouguer (Pres All�des Peupliers table)",
    "description": ""
  },
  {
    "longitude": -4.40075,
    "latitude": 47.939,
    "name": "Aire Picnic",
    "city": "29 Pouldreuzic (Penhors 2 tables)",
    "description": ""
  },
  {
    "longitude": 4.79987,
    "latitude": 45.23171,
    "name": "Aire Picnic",
    "city": "07 N86 Andanc (2 tables)",
    "description": ""
  },
  {
    "longitude": 5.18873,
    "latitude": 49.38838,
    "name": "Aire Picnic",
    "city": "55 Dun-Sur-Meus (Mont��glisduhaut)",
    "description": ""
  },
  {
    "longitude": -2.62604,
    "latitude": 47.93462,
    "name": "Aire Picnic",
    "city": "56 N24 Locmin� >> Josseli (Airdla Pointe",
    "description": "WC)"
  },
  {
    "longitude": -1.65345,
    "latitude": 49.24291,
    "name": "Aire Picnic",
    "city": "50 Bretteville/Ay Plage",
    "description": ""
  },
  {
    "longitude": 7.38306,
    "latitude": 43.97278,
    "name": "Aire Picnic",
    "city": "06 Col Turini 1",
    "description": ""
  },
  {
    "longitude": 6.64194,
    "latitude": 43.74639,
    "name": "Aire Picnic",
    "city": "83 Verdo3",
    "description": ""
  },
  {
    "longitude": -4.42753,
    "latitude": 48.05007,
    "name": "Aire Picnic",
    "city": "29 Comfort (�glise",
    "description": "1 Tabl)"
  },
  {
    "longitude": -2.23981,
    "latitude": 48.12286,
    "name": "Aire Picnic",
    "city": "35 D166 Saint-M�en-Le-Grand >> Plo�rmel",
    "description": ""
  },
  {
    "longitude": 4.69159,
    "latitude": 43.7684,
    "name": "Aire Picnic",
    "city": "13 Tarasco (D32) (1 table)",
    "description": ""
  },
  {
    "longitude": -0.57578,
    "latitude": 45.30323,
    "name": "Aire Picnic",
    "city": "33 N137 (2 tables)Pres Dst Palais",
    "description": ""
  },
  {
    "longitude": 2.82728,
    "latitude": 45.46565,
    "name": "Aire Picnic",
    "city": "63 D203 (Parking Bord Droutclassique: 4 tables)",
    "description": ""
  },
  {
    "longitude": -3.70226,
    "latitude": 48.41256,
    "name": "Aire Picnic",
    "city": "29 D42 (5 tables - Ancienngare)",
    "description": ""
  },
  {
    "longitude": 0.08207,
    "latitude": 47.20649,
    "name": "Aire Picnic",
    "city": "37 D751 (3 tables + Point Info)",
    "description": ""
  },
  {
    "longitude": -4.09603,
    "latitude": 48.21226,
    "name": "Aire Picnic",
    "city": "29 Port-Launay (Guily-Glaz",
    "description": "1 table)"
  },
  {
    "longitude": -1.81294,
    "latitude": 46.53765,
    "name": "Aire Picnic",
    "city": "85 Olonne-Sur-Mer (3 tables)",
    "description": ""
  },
  {
    "longitude": 5.13333,
    "latitude": 48.12694,
    "name": "Aire Picnic",
    "city": "N67 (Entrenord Dchaumon)- 4 tables + Toilettes",
    "description": ""
  },
  {
    "longitude": 1.03313,
    "latitude": 44.85129,
    "name": "Aire Picnic",
    "city": "24 D703 Marnac (+ D7 tables",
    "description": "Tres Ombrag�e)"
  },
  {
    "longitude": 5.65381,
    "latitude": 49.04171,
    "name": "Aire Picnic",
    "city": "55 D908 (2 tables)",
    "description": ""
  },
  {
    "longitude": 5.06358,
    "latitude": 48.55073,
    "name": "Aire Picnic",
    "city": "N67 - 1 Tabl (Directionord)",
    "description": ""
  },
  {
    "longitude": 0.24252,
    "latitude": 48.73111,
    "name": "Aire Picnic",
    "city": "61 Airdbeaulieu Ginai N138 3 tables",
    "description": ""
  },
  {
    "longitude": -0.5966,
    "latitude": 46.70933,
    "name": "Aire Picnic",
    "city": "79 Moncoutant (2 tables)",
    "description": ""
  },
  {
    "longitude": -0.74769,
    "latitude": 43.28412,
    "name": "Aire Picnic",
    "city": "64 Gurs D936 1 table)",
    "description": ""
  },
  {
    "longitude": -3.79055,
    "latitude": 47.84262,
    "name": "Aire Picnic",
    "city": "29 D77 Nizo>> N�vez",
    "description": ""
  },
  {
    "longitude": 2.38838,
    "latitude": 47.03917,
    "name": "Aire Picnic",
    "city": "18 N144 (4 tables)",
    "description": ""
  },
  {
    "longitude": 1.05001,
    "latitude": 43.19906,
    "name": "Aire Picnic",
    "city": "31 D10",
    "description": ""
  },
  {
    "longitude": 6.89083,
    "latitude": 43.44389,
    "name": "Aire Picnic",
    "city": "83 Esterel 3",
    "description": ""
  },
  {
    "longitude": -1.84913,
    "latitude": 48.4831,
    "name": "Aire Picnic",
    "city": "35 Ltrochet (For�t du Mesnil - 6 tables)",
    "description": ""
  },
  {
    "longitude": -0.81877,
    "latitude": 47.04065,
    "name": "Aire Picnic",
    "city": "49 Mazieres Emauges (3 tables)",
    "description": ""
  },
  {
    "longitude": -1.08856,
    "latitude": 48.52531,
    "name": "Aire Picnic",
    "city": "50 D977 (4 tables)",
    "description": ""
  },
  {
    "longitude": 3.3974,
    "latitude": 46.31526,
    "name": "Aire Picnic",
    "city": "03 Varennes-Sur-Allier (Square de Vouroux-4 tables +WC)",
    "description": ""
  },
  {
    "longitude": -0.72556,
    "latitude": 49.34588,
    "name": "Aire Picnic",
    "city": "14 Commes (3 tables)",
    "description": ""
  },
  {
    "longitude": 0.02916,
    "latitude": 47.22451,
    "name": "Aire Picnic",
    "city": "49 Routdturquant (+Point Info",
    "description": "WC"
  },
  {
    "longitude": -1.86716,
    "latitude": 48.16665,
    "name": "Aire Picnic",
    "city": "35 Saint-Gilles (Airarmor & Argoat tables)",
    "description": ""
  },
  {
    "longitude": 5.23378,
    "latitude": 48.02107,
    "name": "Aire Picnic",
    "city": "N19 - 2 tables (Directionord)",
    "description": ""
  },
  {
    "longitude": -3.74733,
    "latitude": 47.83825,
    "name": "Aire Picnic",
    "city": "29 Riec-Sur-Belo (Chapellste-Tr�mor 1 table)",
    "description": ""
  },
  {
    "longitude": 2.28521,
    "latitude": 48.76739,
    "name": "Aire Picnic",
    "city": "92 Ch�tenay-Malabry (A Coul�vert3 tables)",
    "description": ""
  },
  {
    "longitude": 1.23426,
    "latitude": 49.30882,
    "name": "Aire Picnic",
    "city": "27 Poses (2 tables)",
    "description": ""
  },
  {
    "longitude": 0.64826,
    "latitude": 47.6572,
    "name": "[Picnic Nv] 37 D29 (Centrbourg",
    "city": "WC",
    "description": "Jeux)"
  },
  {
    "longitude": 0.06932,
    "latitude": 48.05025,
    "name": "Aire Picnic",
    "city": "72 Degr� (Plac�glise",
    "description": "3 tables)"
  },
  {
    "longitude": 7.37722,
    "latitude": 43.97556,
    "name": "Aire Picnic",
    "city": "06 Col Turini 2",
    "description": ""
  },
  {
    "longitude": 1.2957,
    "latitude": 46.03284,
    "name": "Aire Picnic",
    "city": "87 Lac Saint Pardoux (tables",
    "description": "Jeux"
  },
  {
    "longitude": 4.47488,
    "latitude": 48.97906,
    "name": "Aire Picnic",
    "city": "51 N3 (4 tables + Petit Mais Sympa)",
    "description": ""
  },
  {
    "longitude": -4.52163,
    "latitude": 48.58428,
    "name": "Aire Picnic",
    "city": "29 Lannilis (Poulfougou",
    "description": "1 table)"
  },
  {
    "longitude": 6.83278,
    "latitude": 44.04083,
    "name": "Aire Picnic",
    "city": "06 Grges Daluis 2",
    "description": ""
  },
  {
    "longitude": -0.86737,
    "latitude": 47.19341,
    "name": "Aire Picnic",
    "city": "49 Jallais Rudu Pont Piau (4 tables Au Pres Dl'eau)",
    "description": ""
  },
  {
    "longitude": -4.4239,
    "latitude": 47.9638,
    "name": "Aire Picnic",
    "city": "29 Ploz�vet Menhir Droits Dl Hommplagdcant2 tables",
    "description": ""
  },
  {
    "longitude": -0.61781,
    "latitude": 46.75266,
    "name": "Aire Picnic",
    "city": "79 St Jouidmilly (2 tables)",
    "description": ""
  },
  {
    "longitude": 6.84306,
    "latitude": 44.04972,
    "name": "Aire Picnic",
    "city": "06 Grges Daluis 4",
    "description": ""
  },
  {
    "longitude": -3.22861,
    "latitude": 48.44962,
    "name": "Aire Picnic",
    "city": "22 D69 (1 table)",
    "description": ""
  },
  {
    "longitude": 2.24611,
    "latitude": 48.76555,
    "name": "Aire Picnic",
    "city": "92 Ch�tenay-Malabry (1 Tablpres For�t)",
    "description": ""
  },
  {
    "longitude": 2.05225,
    "latitude": 47.08552,
    "name": "Aire Picnic",
    "city": "18 Reuilly (10 tables WC)",
    "description": ""
  },
  {
    "longitude": 5.36238,
    "latitude": 49.54367,
    "name": "Aire Picnic",
    "city": "55 N43 (1 table)",
    "description": ""
  },
  {
    "longitude": 3.67793,
    "latitude": 49.73539,
    "name": "Aire Picnic",
    "city": "02 D645/Bois-Les-Pargny (4 tables",
    "description": "For�t Dmarle)"
  },
  {
    "longitude": -0.72997,
    "latitude": 43.75762,
    "name": "Aire Picnic",
    "city": "40 Lac Dnerbis 4 tables",
    "description": ""
  },
  {
    "longitude": 6.80694,
    "latitude": 43.79694,
    "name": "Aire Picnic",
    "city": "06 Thorenc",
    "description": ""
  },
  {
    "longitude": -1.08431,
    "latitude": 46.52161,
    "name": "Aire Picnic",
    "city": "85 St Jeadbeugn� D137/E3 3 tables)",
    "description": ""
  },
  {
    "longitude": -1.87461,
    "latitude": 48.1671,
    "name": "Aire Picnic",
    "city": "35 N12 (6 tables",
    "description": "C"
  },
  {
    "longitude": 7.37028,
    "latitude": 44.00111,
    "name": "Aire Picnic",
    "city": "06 Col Turini 8",
    "description": ""
  },
  {
    "longitude": 4.33483,
    "latitude": 48.30191,
    "name": "Aire Picnic",
    "city": "10 Geraudot D43 (10 tables+Plagsurveillewc+Aj)",
    "description": ""
  },
  {
    "longitude": 5.45675,
    "latitude": 49.38966,
    "name": "Aire Picnic",
    "city": "55 D102 (1 Tabl+ Info)",
    "description": ""
  },
  {
    "longitude": 0.88063,
    "latitude": 47.33945,
    "name": "Aire Picnic",
    "city": "37 Ath�e-Sur-Cher",
    "description": ""
  },
  {
    "longitude": 0.51241,
    "latitude": 47.28339,
    "name": "Aire Picnic",
    "city": "37 D751 (5 tables Esous Bois)",
    "description": ""
  },
  {
    "longitude": 4.15515,
    "latitude": 49.1895,
    "name": "Aire Picnic",
    "city": "51 D944 (2 tables)",
    "description": ""
  },
  {
    "longitude": 0.30084,
    "latitude": 47.26413,
    "name": "Aire Picnic",
    "city": "37 D16 Rue de Langeais (2 tables)",
    "description": ""
  },
  {
    "longitude": -0.26636,
    "latitude": 47.38324,
    "name": "Aire Picnic",
    "city": "49 D952 (2 tables)",
    "description": ""
  },
  {
    "longitude": 4.43746,
    "latitude": 46.4129,
    "name": "Aire Picnic",
    "city": "71 Verosvres Rn79/E62 (2 tables)",
    "description": ""
  },
  {
    "longitude": 1.8148,
    "latitude": 42.55456,
    "name": "Aire Picnic",
    "city": "66 N320 Portets Puymorens (4 tables)",
    "description": ""
  },
  {
    "longitude": -4.37466,
    "latitude": 47.79775,
    "name": "Aire Picnic",
    "city": "29 Penmarch (Phar1 table)",
    "description": ""
  },
  {
    "longitude": -3.87817,
    "latitude": 48.45842,
    "name": "Aire Picnic",
    "city": "29 D785 (2 tables + Info)",
    "description": ""
  },
  {
    "longitude": 0.46394,
    "latitude": 47.25986,
    "name": "Aire Picnic",
    "city": "37 Azay Lrideau (WC)",
    "description": ""
  },
  {
    "longitude": 4.62914,
    "latitude": 45.92388,
    "name": "Aire Picnic",
    "city": "69 Frontenas (D338) (1 table)",
    "description": ""
  },
  {
    "longitude": -0.57291,
    "latitude": 45.35776,
    "name": "Aire Picnic",
    "city": "17 Mirambeau Rn137 (4 tables)",
    "description": ""
  },
  {
    "longitude": 0.52601,
    "latitude": 46.47511,
    "name": "Aire Picnic",
    "city": "86 Fleur� (2 tables",
    "description": "WC)"
  },
  {
    "longitude": 1.61766,
    "latitude": 50.44588,
    "name": "Aire Picnic",
    "city": "62 D940 (4 tables)",
    "description": ""
  },
  {
    "longitude": -4.34076,
    "latitude": 47.98454,
    "name": "Aire Picnic",
    "city": "29 Landudec (D143 - 1 table)",
    "description": ""
  },
  {
    "longitude": 3.69638,
    "latitude": 46.24867,
    "name": "Aire Picnic",
    "city": "03 D990 Droiturier (3 tables)",
    "description": ""
  },
  {
    "longitude": 5.13151,
    "latitude": 49.46447,
    "name": "Aire Picnic",
    "city": "55 D947 (2 tables + Sympa)",
    "description": ""
  },
  {
    "longitude": 3.46311,
    "latitude": 46.837,
    "name": "Aire Picnic",
    "city": "58 Decizd981 Au Bord du Canal (6 tables)",
    "description": ""
  },
  {
    "longitude": 5.2502,
    "latitude": 48.0081,
    "name": "Aire Picnic",
    "city": "52 Marnay Sur Marnn19 (5t)",
    "description": ""
  },
  {
    "longitude": -0.00343,
    "latitude": 49.28386,
    "name": "Aire Picnic",
    "city": "14 Gonneville-Sur-Mer (D163- tables)",
    "description": ""
  },
  {
    "longitude": 0.16579,
    "latitude": 47.15909,
    "name": "Aire Picnic",
    "city": "37 D751 (2 tables]",
    "description": ""
  },
  {
    "longitude": 7.03889,
    "latitude": 43.605,
    "name": "Aire Picnic",
    "city": "06 Valmasqu (30t)",
    "description": ""
  },
  {
    "longitude": 7.04139,
    "latitude": 43.6025,
    "name": "Aire Picnic",
    "city": "06 Valmasqu (5t)",
    "description": ""
  },
  {
    "longitude": 2.28492,
    "latitude": 48.77121,
    "name": "Aire Picnic",
    "city": "92 Ch�tenay-Malabry (A Coul�vert2 tables)",
    "description": ""
  },
  {
    "longitude": -4.2127,
    "latitude": 48.1005,
    "name": "Aire Picnic",
    "city": "29 Locronan",
    "description": ""
  },
  {
    "longitude": -0.87334,
    "latitude": 46.36156,
    "name": "Aire Picnic",
    "city": "61 Cond� Sur Huisnd923 3 tables)",
    "description": ""
  },
  {
    "longitude": -5.64847,
    "latitude": 48.62475,
    "name": "Aire Picnic",
    "city": "55 D 964 (3 tables)",
    "description": ""
  },
  {
    "longitude": 6.13889,
    "latitude": 43.72417,
    "name": "Aire Picnic",
    "city": "83 Saintcroix 5",
    "description": ""
  },
  {
    "longitude": 0.31872,
    "latitude": 47.28624,
    "name": "Aire Picnic",
    "city": "37 D35 (1 table)",
    "description": ""
  },
  {
    "longitude": 1.61618,
    "latitude": 50.38439,
    "name": "Aire Picnic",
    "city": "62 D940 (2 tables)",
    "description": ""
  },
  {
    "longitude": -2.36244,
    "latitude": 48.65169,
    "name": "Aire Picnic",
    "city": "22 D34a (2 tables)",
    "description": ""
  },
  {
    "longitude": 6.38469,
    "latitude": 44.53547,
    "name": "Aire Picnic",
    "city": "05 N94 Saint Apollinair (5 tables Et Vusur Lac)",
    "description": ""
  },
  {
    "longitude": 0.093,
    "latitude": 47.19762,
    "name": "Aire Picnic",
    "city": "37 D751 (5 tables)",
    "description": ""
  },
  {
    "longitude": -4.37362,
    "latitude": 47.80503,
    "name": "Aire Picnic",
    "city": "29 Pennmarch (Pres Chapellnd Dla Joi2 tables)",
    "description": ""
  },
  {
    "longitude": 5.28943,
    "latitude": 47.91396,
    "name": "Aire Picnic",
    "city": "52 Humes Jorquenay N19/E54 (5 tables)",
    "description": ""
  },
  {
    "longitude": 2.25027,
    "latitude": 48.7516,
    "name": "Aire Picnic",
    "city": "91 Verrieres-Le-Buisso (Carrefour Mautausin",
    "description": "2 tables)"
  },
  {
    "longitude": 2.3237,
    "latitude": 50.05135,
    "name": "[Picnic]62 La Vigogne Rn25 (4 tables)",
    "city": "",
    "description": ""
  },
  {
    "longitude": 7.04944,
    "latitude": 43.60444,
    "name": "Aire Picnic",
    "city": "06 Valmasqu (5t)",
    "description": ""
  },
  {
    "longitude": 0.07259,
    "latitude": 47.08634,
    "name": "Aire Picnic",
    "city": "86 D39 (3 tables + Point Info)",
    "description": ""
  },
  {
    "longitude": -4.063,
    "latitude": 48.19017,
    "name": "Aire Picnic",
    "city": "29 Saint-Coulitz (�glise",
    "description": "1 table)"
  },
  {
    "longitude": -4.20315,
    "latitude": 48.04026,
    "name": "Aire Picnic",
    "city": "29 Guengat (Fontaindu Bourg",
    "description": "1 table)"
  },
  {
    "longitude": 2.28206,
    "latitude": 48.7517,
    "name": "Aire Picnic",
    "city": "92 Antony (Coul�verte",
    "description": "3 tables)"
  },
  {
    "longitude": 6.61778,
    "latitude": 43.76556,
    "name": "Aire Picnic",
    "city": "83 Verdo11",
    "description": ""
  },
  {
    "longitude": 3.79918,
    "latitude": 48.60806,
    "name": "Aire Picnic",
    "city": "51 Allemanchlaunay D 373 (3 tables)",
    "description": ""
  },
  {
    "longitude": 3.79918,
    "latitude": 48.60806,
    "name": "Aire Picnic",
    "city": "51 Allemanchlaunay D 373 (3 tables)",
    "description": ""
  },
  {
    "longitude": 1.96373,
    "latitude": 48.76383,
    "name": "Aire Picnic",
    "city": "78 Elancourt (Pres Commanderi4 tables)",
    "description": ""
  },
  {
    "longitude": -4.75363,
    "latitude": 48.4672,
    "name": "Aire Picnic",
    "city": "29 Rudl' Aber (1 tables - Vusur Port)",
    "description": ""
  },
  {
    "longitude": -1.85194,
    "latitude": 46.6027,
    "name": "Aire Picnic",
    "city": "85 Br�tignolles-Sur-Mer (3 tables)",
    "description": ""
  },
  {
    "longitude": -3.74598,
    "latitude": 47.81991,
    "name": "Aire Picnic",
    "city": "29 N�vez (Port Dkerdruc 1 table)",
    "description": ""
  },
  {
    "longitude": 6.62694,
    "latitude": 44.17917,
    "name": "Aire Picnic",
    "city": "04 Colmars",
    "description": ""
  },
  {
    "longitude": -0.02164,
    "latitude": 47.03419,
    "name": "Aire Picnic",
    "city": "86 D39 (3 tables)",
    "description": ""
  },
  {
    "longitude": 7.29583,
    "latitude": 43.95167,
    "name": "Aire Picnic",
    "city": "06 P�lasque",
    "description": ""
  },
  {
    "longitude": 6.85694,
    "latitude": 44.07639,
    "name": "Aire Picnic",
    "city": "06 Guillaume",
    "description": ""
  },
  {
    "longitude": 5.97529,
    "latitude": 45.68194,
    "name": "Aire Picnic",
    "city": "73 Mont Revard (Aix les Bains) (2 tables)",
    "description": ""
  },
  {
    "longitude": 0.98419,
    "latitude": 49.32246,
    "name": "Aire Picnic",
    "city": "76 Orival D64 Rtdmoulineaux (2 tables)",
    "description": ""
  },
  {
    "longitude": -4.74616,
    "latitude": 48.54427,
    "name": "Aire Picnic",
    "city": "29 D127 (1 tables)",
    "description": ""
  },
  {
    "longitude": -4.34786,
    "latitude": 48.10187,
    "name": "Aire Picnic",
    "city": "29 Douarnenez (Sables Blancs 2 tables)",
    "description": ""
  },
  {
    "longitude": 7.03694,
    "latitude": 43.59806,
    "name": "Aire Picnic",
    "city": "06 Valmasqu (5t)",
    "description": ""
  },
  {
    "longitude": 6.64472,
    "latitude": 43.76444,
    "name": "Aire Picnic",
    "city": "83 Verdo10",
    "description": ""
  },
  {
    "longitude": -4.56031,
    "latitude": 48.00693,
    "name": "Aire Picnic",
    "city": "29 Esquibie (Rudla Cal1 table)",
    "description": ""
  },
  {
    "longitude": 6.84687,
    "latitude": 45.91307,
    "name": "Aire Picnic",
    "city": "74 Lac Des Gaillands (Camonix)",
    "description": ""
  },
  {
    "longitude": 0.39257,
    "latitude": 47.2283,
    "name": "Aire Picnic",
    "city": "37 D751 (3 tables Ebordurdsous-Bois)",
    "description": ""
  },
  {
    "longitude": 6.84111,
    "latitude": 44.04389,
    "name": "Aire Picnic",
    "city": "06 Grges Daluis 1",
    "description": ""
  },
  {
    "longitude": 0.04378,
    "latitude": 49.13012,
    "name": "Aire Picnic",
    "city": "14 Bieville-Qu�ti�ville D613 3 tables",
    "description": ""
  },
  {
    "longitude": 2.58485,
    "latitude": 45.60808,
    "name": "Aire Picnic",
    "city": "63 D987 Avez (2 tables Pres Petit Pont Sur La Dordogne)",
    "description": ""
  },
  {
    "longitude": -4.31269,
    "latitude": 48.55986,
    "name": "Aire Picnic",
    "city": "29 D32 (1 tables)",
    "description": ""
  },
  {
    "longitude": 0.4181,
    "latitude": 47.3301,
    "name": "Aire Picnic",
    "city": "37 N152 (WC)",
    "description": ""
  },
  {
    "longitude": 5.03032,
    "latitude": 48.58032,
    "name": "Aire Picnic",
    "city": "N67 - Parking (Directionord)",
    "description": ""
  },
  {
    "longitude": 0.20056,
    "latitude": 46.7865,
    "name": "Aire Picnic",
    "city": "86 Fontaindes Femmes (4t)",
    "description": ""
  },
  {
    "longitude": 1.45801,
    "latitude": 48.75292,
    "name": "Aire Picnic",
    "city": "28 Cherisy N12 Nord 4 tables",
    "description": ""
  },
  {
    "longitude": 2.46898,
    "latitude": 48.42332,
    "name": "Aire Picnic",
    "city": "91 Milly-La-For�t (Lguichet 2 tables)",
    "description": ""
  },
  {
    "longitude": 7.33278,
    "latitude": 43.98583,
    "name": "Aire Picnic",
    "city": "06 La Bollenv�subi1",
    "description": ""
  },
  {
    "longitude": -3.95122,
    "latitude": 47.9156,
    "name": "Aire Picnic",
    "city": "29 D783 Concarneau > Quimper",
    "description": ""
  },
  {
    "longitude": 1.57938,
    "latitude": 42.97575,
    "name": "Aire Picnic",
    "city": "09 Cos D117 Directiofoix 2 tables",
    "description": ""
  },
  {
    "longitude": 7.29833,
    "latitude": 43.99972,
    "name": "Aire Picnic",
    "city": "06 Roquebillier2",
    "description": ""
  },
  {
    "longitude": 2.49044,
    "latitude": 50.46304,
    "name": "Aire Picnic",
    "city": "62 N41 (3 tables)",
    "description": ""
  },
  {
    "longitude": 1.56198,
    "latitude": 50.19085,
    "name": "Aire Picnic",
    "city": "80 D3 (2 tables",
    "description": "Rustique)"
  },
  {
    "longitude": 7.29778,
    "latitude": 44.11139,
    "name": "Aire Picnic",
    "city": "06 Bor�o3",
    "description": ""
  },
  {
    "longitude": -0.43753,
    "latitude": 47.41835,
    "name": "Aire Picnic",
    "city": "49 D952 (2 tables)",
    "description": ""
  },
  {
    "longitude": -4.41366,
    "latitude": 47.99339,
    "name": "Aire Picnic",
    "city": "29 Ploz�vet (D784",
    "description": "tables)"
  },
  {
    "longitude": -2.94908,
    "latitude": 48.46765,
    "name": "Aire Picnic",
    "city": "22 Quinti (Sur La D7)",
    "description": ""
  },
  {
    "longitude": 7.30944,
    "latitude": 44.10944,
    "name": "Aire Picnic",
    "city": "06 Bor�o6",
    "description": ""
  },
  {
    "longitude": -3.35544,
    "latitude": 48.74921,
    "name": "Aire Picnic",
    "city": "22 D786 (3 tables)",
    "description": ""
  },
  {
    "longitude": 6.73581,
    "latitude": 46.21055,
    "name": "Aire Picnic",
    "city": "74 D228 Montriond",
    "description": ""
  },
  {
    "longitude": 7.2175,
    "latitude": 47.77333,
    "name": "Aire Picnic",
    "city": "68 N66 (2 tables)",
    "description": ""
  },
  {
    "longitude": 7.36333,
    "latitude": 43.92806,
    "name": "Aire Picnic",
    "city": "06 Peira Cava 3",
    "description": ""
  },
  {
    "longitude": -3.89888,
    "latitude": 47.99411,
    "name": "Aire Picnic",
    "city": "29 Elliant (Pres Piscin3 tables)",
    "description": ""
  },
  {
    "longitude": 5.12745,
    "latitude": 48.34208,
    "name": "Aire Picnic",
    "city": "N67 - Parking (Directionord)",
    "description": ""
  },
  {
    "longitude": 5.53689,
    "latitude": 48.88804,
    "name": "Aire Picnic",
    "city": "55 Chemidu Canal (2 tables",
    "description": "WC"
  },
  {
    "longitude": -4.16703,
    "latitude": 47.84584,
    "name": "Aire Picnic",
    "city": "29 Ile-Tudy (Bord Plagpres Bourg",
    "description": "tables)"
  },
  {
    "longitude": -4.03933,
    "latitude": 48.02255,
    "name": "Aire Picnic",
    "city": "29 Ergu�-Gab�ric (Chapellsaint-Gu�nol� 2 tables)",
    "description": ""
  },
  {
    "longitude": 0.34835,
    "latitude": 44.63929,
    "name": "Aire Picnic",
    "city": "47 Rumagnd933 (5 tables)",
    "description": ""
  },
  {
    "longitude": -0.27777,
    "latitude": 47.64305,
    "name": "Aire Picnic",
    "city": "49 N23 Aires Des Loges (6 tables",
    "description": "WC)"
  },
  {
    "longitude": 7.03167,
    "latitude": 43.62111,
    "name": "Aire Picnic",
    "city": "06 Mouans Sartoux 1",
    "description": ""
  },
  {
    "longitude": 5.34893,
    "latitude": 49.37094,
    "name": "Aire Picnic",
    "city": "55 D102 (1 Tabl+ Info)",
    "description": ""
  },
  {
    "longitude": 1.85297,
    "latitude": 45.78004,
    "name": "Aire Picnic",
    "city": "87 Lac Vassivier (8 tables)",
    "description": ""
  },
  {
    "longitude": 0.13486,
    "latitude": 46.89627,
    "name": "Aire Picnic",
    "city": "86 N147 Guesnes (+De10 tables)",
    "description": ""
  },
  {
    "longitude": -1.41819,
    "latitude": 43.70608,
    "name": "Aire Picnic",
    "city": "40 Seignossd79 (30 tables)",
    "description": ""
  },
  {
    "longitude": 1.23833,
    "latitude": 48.01222,
    "name": "Aire Picnic",
    "city": "28 Montigny Lgannelo (3 tables Au Bord Dl'�tang)",
    "description": ""
  },
  {
    "longitude": 0.48904,
    "latitude": 48.52425,
    "name": "Aire Picnic",
    "city": "61 Courgeo�t",
    "description": ""
  },
  {
    "longitude": 2.91487,
    "latitude": 46.83303,
    "name": "Aire Picnic",
    "city": "18 Sancoins Quai du Canal 7 tables)",
    "description": ""
  },
  {
    "longitude": 2.1137,
    "latitude": 49.46782,
    "name": "[Picnic]60 Tille D1001 (4 tables)",
    "city": "",
    "description": ""
  },
  {
    "longitude": -1.51915,
    "latitude": 48.42291,
    "name": "Aire Picnic",
    "city": "35 D796 (2 tables)",
    "description": ""
  },
  {
    "longitude": -1.09676,
    "latitude": 46.2989,
    "name": "Aire Picnic",
    "city": "17 Charrod105 Rudu Chateau (2 tables)",
    "description": ""
  },
  {
    "longitude": 5.15695,
    "latitude": 48.07865,
    "name": "Aire Picnic",
    "city": "N19 - Parking (Directionord)",
    "description": ""
  },
  {
    "longitude": -1.94344,
    "latitude": 47.84973,
    "name": "Aire Picnic",
    "city": "35 Lieuroetang du Patis 4 tables)",
    "description": ""
  },
  {
    "longitude": 7.23056,
    "latitude": 43.87861,
    "name": "Aire Picnic",
    "city": "06 Lcros Utelle",
    "description": ""
  },
  {
    "longitude": 2.88893,
    "latitude": 47.39325,
    "name": "Aire Picnic",
    "city": "18 Bannay D955 Au Bord du Latt�ral Dla Loir (3 tables)",
    "description": ""
  },
  {
    "longitude": -1.07929,
    "latitude": 45.56253,
    "name": "Aire Picnic",
    "city": "33 Lverdoplagocean (20 tables",
    "description": "WC)"
  },
  {
    "longitude": 6.68352,
    "latitude": 44.61974,
    "name": "Aire Picnic",
    "city": "05 D902 Vars (2 tables Et Vuvall�dla Durance)",
    "description": ""
  },
  {
    "longitude": 2.65046,
    "latitude": 50.23683,
    "name": "Aire Picnic",
    "city": "62 N25 Beaumetz les Loges (Qlq tables)",
    "description": ""
  },
  {
    "longitude": 6.38214,
    "latitude": 44.53566,
    "name": "Aire Picnic",
    "city": "05 N94 Saint Apollinair (4 tables Et Vusur Lac)",
    "description": ""
  },
  {
    "longitude": -4.35629,
    "latitude": 48.23607,
    "name": "Aire Picnic",
    "city": "29 D�viatiodtelgruc",
    "description": ""
  },
  {
    "longitude": -4.38663,
    "latitude": 48.24594,
    "name": "Aire Picnic",
    "city": "29 D887 Telgruc >> Crozon",
    "description": ""
  },
  {
    "longitude": -3.74988,
    "latitude": 47.93716,
    "name": "Aire Picnic",
    "city": "29 Bannalec (Pres Chapellsainte-V�ronique",
    "description": "2 tables)"
  },
  {
    "longitude": 6.96334,
    "latitude": 44.08766,
    "name": "Aire Picnic",
    "city": "06 les Launes (Beuil) (2 tables)",
    "description": ""
  },
  {
    "longitude": 3.43048,
    "latitude": 46.26902,
    "name": "Aire Picnic",
    "city": "03 Cr�chy (N209-1 table)",
    "description": ""
  },
  {
    "longitude": -4.41849,
    "latitude": 47.95908,
    "name": "Aire Picnic",
    "city": "29 Ploz�vet (Kerbouro2 tables)",
    "description": ""
  },
  {
    "longitude": 0.47551,
    "latitude": 47.3511,
    "name": "[Picnic Nv] 37 N2152",
    "city": "",
    "description": ""
  },
  {
    "longitude": 7.38972,
    "latitude": 44.05556,
    "name": "Aire Picnic",
    "city": "06 Belv�dere",
    "description": ""
  },
  {
    "longitude": 3.72097,
    "latitude": 43.50858,
    "name": "Aire Picnic",
    "city": "34 D613 Gigea (4 tables)",
    "description": ""
  },
  {
    "longitude": -3.57742,
    "latitude": 48.78368,
    "name": "Aire Picnic",
    "city": "22 D788 (3 tables)",
    "description": ""
  },
  {
    "longitude": 0.04142,
    "latitude": 48.0575,
    "name": "Aire Picnic",
    "city": "72 La Quint (1 table)",
    "description": ""
  },
  {
    "longitude": -1.3915,
    "latitude": 47.06852,
    "name": "Aire Picnic",
    "city": "44 Aigrefeuillsur Maind 137 (7 tables)",
    "description": ""
  },
  {
    "longitude": -3.53579,
    "latitude": 48.7588,
    "name": "Aire Picnic",
    "city": "22 D65 (2 tables)",
    "description": ""
  },
  {
    "longitude": -4.42687,
    "latitude": 47.98753,
    "name": "Aire Picnic",
    "city": "29 Ploz�vet (Bourg 2 tables)",
    "description": ""
  },
  {
    "longitude": 5.8854,
    "latitude": 46.1188,
    "name": "Aire Picnic",
    "city": "01 Leaz N206 (3t)",
    "description": ""
  },
  {
    "longitude": -2.30929,
    "latitude": 48.02925,
    "name": "Aire Picnic",
    "city": "56 N�ant-Sur-Yvel D766",
    "description": ""
  },
  {
    "longitude": 5.38871,
    "latitude": 46.74418,
    "name": "Aire Picnic",
    "city": "39 D470",
    "description": ""
  },
  {
    "longitude": 5.17348,
    "latitude": 49.53141,
    "name": "Aire Picnic",
    "city": "55 Martincourt-Sur-Meuse",
    "description": ""
  },
  {
    "longitude": 3.89661,
    "latitude": 44.77596,
    "name": "Aire Picnic",
    "city": "43 N102 (4 tables)",
    "description": ""
  },
  {
    "longitude": 6.21111,
    "latitude": 43.78083,
    "name": "Aire Picnic",
    "city": "83 Saintcroix 3",
    "description": ""
  },
  {
    "longitude": -3.04828,
    "latitude": 48.20595,
    "name": "Aire Picnic",
    "city": "22 Caurel (WC)",
    "description": ""
  },
  {
    "longitude": -0.94322,
    "latitude": 43.38951,
    "name": "Aire Picnic",
    "city": "64 Sauveterrdbeard936 1 table)",
    "description": ""
  },
  {
    "longitude": -0.46166,
    "latitude": 49.32781,
    "name": "Aire Picnic",
    "city": "14 Courseulles Sur Mer (1 Tabl+ Pelouse)",
    "description": ""
  },
  {
    "longitude": -1.79458,
    "latitude": 47.13354,
    "name": "Aire Picnic",
    "city": "44 D751 Port Saint Per (La Terguerie",
    "description": "3 tables)"
  },
  {
    "longitude": -0.74371,
    "latitude": 47.00607,
    "name": "Aire Picnic",
    "city": "49 Maul�vrier 3 tables",
    "description": ""
  },
  {
    "longitude": 6.16306,
    "latitude": 43.76389,
    "name": "Aire Picnic",
    "city": "83 Saintcroix 9",
    "description": ""
  },
  {
    "longitude": 0.32028,
    "latitude": 47.28654,
    "name": "Aire Picnic",
    "city": "37 D35 (1 table)",
    "description": ""
  },
  {
    "longitude": -2.36283,
    "latitude": 47.91837,
    "name": "Aire Picnic",
    "city": "56 N24 Plo�rmel (Airdbroc�liande)",
    "description": ""
  },
  {
    "longitude": -0.79594,
    "latitude": 47.67035,
    "name": "Aire Picnic",
    "city": "49 D863 (WC)",
    "description": ""
  },
  {
    "longitude": -2.35141,
    "latitude": 47.36314,
    "name": "Aire Picnic",
    "city": "44 K�rhinet (5 tables)",
    "description": ""
  },
  {
    "longitude": -3.76763,
    "latitude": 47.85536,
    "name": "Aire Picnic",
    "city": "29 D783 Tr�gunc >> Pont-Ave (WC)",
    "description": ""
  },
  {
    "longitude": -4.52455,
    "latitude": 48.56668,
    "name": "Aire Picnic",
    "city": "29 D28 (2 tables",
    "description": "C"
  },
  {
    "longitude": 5.9171,
    "latitude": 44.2309,
    "name": "Aire Picnic",
    "city": "04 Sisteron85 (2t)",
    "description": ""
  },
  {
    "longitude": -2.44807,
    "latitude": 47.79979,
    "name": "Aire Picnic",
    "city": "56 N166 (Airdu Maquis Dla Nouette)",
    "description": ""
  },
  {
    "longitude": -2.47969,
    "latitude": 48.59508,
    "name": "Aire Picnic",
    "city": "22 D786 (3 tables",
    "description": "WC)"
  },
  {
    "longitude": 4.66548,
    "latitude": 49.39367,
    "name": "Aire Picnic",
    "city": "08 D946/Vouziers (4 tables)",
    "description": ""
  },
  {
    "longitude": 5.70622,
    "latitude": 47.7685,
    "name": "Aire Picnic",
    "city": "70 La Rochelln19/E54 (2 tables)",
    "description": ""
  },
  {
    "longitude": 7.29417,
    "latitude": 44.1125,
    "name": "Aire Picnic",
    "city": "06 Bor�o2",
    "description": ""
  },
  {
    "longitude": -2.91087,
    "latitude": 47.89517,
    "name": "Aire Picnic",
    "city": "56 Plumeli (Chapellsaint-Jeadu Poteau)",
    "description": ""
  },
  {
    "longitude": 2.4074,
    "latitude": 48.29911,
    "name": "Aire Picnic",
    "city": "45 Malesherbes (1 table)",
    "description": ""
  },
  {
    "longitude": -1.81163,
    "latitude": 46.52914,
    "name": "Aire Picnic",
    "city": "85 Olonne-Sur-Mer (3 tables)",
    "description": ""
  },
  {
    "longitude": -1.17634,
    "latitude": 44.52149,
    "name": "Aire Picnic",
    "city": "33 Plagdlaouga Cazaux (15 tables Ombrag�es+WC)",
    "description": ""
  },
  {
    "longitude": 2.28941,
    "latitude": 48.74601,
    "name": "Aire Picnic",
    "city": "92 Antony (Parc Georges Heller D - 2 tables)",
    "description": ""
  },
  {
    "longitude": -2.89407,
    "latitude": 48.38026,
    "name": "Aire Picnic",
    "city": "22 D7 (2 tables)",
    "description": ""
  },
  {
    "longitude": -4.26125,
    "latitude": 48.13529,
    "name": "Aire Picnic",
    "city": "29 Plon�vez-Porzay (Sainte-Anne-La-Palud 5 tables + WC)",
    "description": ""
  },
  {
    "longitude": -1.39232,
    "latitude": 43.79303,
    "name": "Aire Picnic",
    "city": "40 Vieux-Boucau-Les-Bains Routdes Lacs D652 10 tables)",
    "description": ""
  },
  {
    "longitude": -0.74202,
    "latitude": 46.99158,
    "name": "Aire Picnic",
    "city": "79 Saint Pierrdes Echaubrognes (2 tables=",
    "description": ""
  },
  {
    "longitude": 7.03528,
    "latitude": 43.60194,
    "name": "Aire Picnic",
    "city": "06 Valmasqu (30t)",
    "description": ""
  },
  {
    "longitude": -4.03595,
    "latitude": 48.18934,
    "name": "Aire Picnic",
    "city": "29 Ch�teauli (�clusdl'auln2 tables)",
    "description": ""
  },
  {
    "longitude": 0.16786,
    "latitude": 48.09938,
    "name": "Aire Picnic",
    "city": "72 Airdla Bazog138 8 tables",
    "description": ""
  },
  {
    "longitude": 0.41341,
    "latitude": 44.24754,
    "name": "Aire Picnic",
    "city": "47 Clermont-Dessous",
    "description": ""
  },
  {
    "longitude": 0.27804,
    "latitude": 47.4681,
    "name": "[Picnic Nv] 37 D66",
    "city": "",
    "description": ""
  },
  {
    "longitude": -4.01312,
    "latitude": 47.89977,
    "name": "Aire Picnic",
    "city": "29 D44 Fouesnant (WC)",
    "description": ""
  },
  {
    "longitude": -3.81785,
    "latitude": 48.22093,
    "name": "Aire Picnic",
    "city": "29 D36 Plon�vez-Du-Faou",
    "description": ""
  },
  {
    "longitude": 4.80745,
    "latitude": 43.95224,
    "name": "Aire Picnic",
    "city": "84 Avigno (Mont�des Moulins) (7 tables)",
    "description": ""
  },
  {
    "longitude": 0.32303,
    "latitude": 44.56924,
    "name": "Aire Picnic",
    "city": "47 Peyrierd933 (5 tables)",
    "description": ""
  },
  {
    "longitude": 1.27283,
    "latitude": 48.04276,
    "name": "Aire Picnic",
    "city": "28 Douy",
    "description": "Au Bord Dl'�tang"
  },
  {
    "longitude": -0.26597,
    "latitude": 46.64043,
    "name": "Aire Picnic",
    "city": "79 Parthenay ( tables",
    "description": "WC"
  },
  {
    "longitude": -0.08682,
    "latitude": 47.09655,
    "name": "Aire Picnic",
    "city": "49 N147 (Point Info",
    "description": "WC)"
  },
  {
    "longitude": -2.66654,
    "latitude": 47.90996,
    "name": "Aire Picnic",
    "city": "56 Bul�o (Chapellsainte-Anne)",
    "description": ""
  },
  {
    "longitude": 2.7926,
    "latitude": 45.7685,
    "name": "Aire Picnic",
    "city": "63 Gelles D204 (3t)",
    "description": ""
  },
  {
    "longitude": -4.09926,
    "latitude": 48.19587,
    "name": "Aire Picnic",
    "city": "29 Ch�teauli (Jardidu Ruisseau 1 table)",
    "description": ""
  },
  {
    "longitude": 5.3896,
    "latitude": 49.19105,
    "name": "Aire Picnic",
    "city": "55 D913b (4 tables)",
    "description": ""
  },
  {
    "longitude": -3.01313,
    "latitude": 48.20959,
    "name": "Aire Picnic",
    "city": "22 Mur Dbretagn (Airdjeu)",
    "description": ""
  },
  {
    "longitude": 2.20434,
    "latitude": 48.80286,
    "name": "Aire Picnic",
    "city": "92 Chavill (Tour Tv 1 table)",
    "description": ""
  },
  {
    "longitude": -0.0744,
    "latitude": 47.26941,
    "name": "Aire Picnic",
    "city": "49 N152 (1 table)",
    "description": ""
  },
  {
    "longitude": 4.87087,
    "latitude": 48.22867,
    "name": "Aire Picnic",
    "city": "52 D619/Colombey-Les-Deux-Eglises (3 tables)",
    "description": ""
  },
  {
    "longitude": 5.35666,
    "latitude": 47.88611,
    "name": "Aire Picnic",
    "city": "D74 (2 Tabbles)",
    "description": ""
  },
  {
    "longitude": 2.2366,
    "latitude": 48.74218,
    "name": "Aire Picnic",
    "city": "91 Verrieres-Le-Buisso (Lsalvert",
    "description": "1 table)"
  },
  {
    "longitude": 2.2887,
    "latitude": 48.74547,
    "name": "Aire Picnic",
    "city": "92 Antony (Parc Georges Heller C - table)",
    "description": ""
  },
  {
    "longitude": -3.79991,
    "latitude": 47.80052,
    "name": "Aire Picnic",
    "city": "29 N�vez (Kercanic)",
    "description": ""
  },
  {
    "longitude": 0.79174,
    "latitude": 49.43369,
    "name": "Aire Picnic",
    "city": "76 D913",
    "description": ""
  },
  {
    "longitude": -4.41933,
    "latitude": 48.24804,
    "name": "Aire Picnic",
    "city": "29 Crozo (Tal Ar Groaz 1 table) Crozon)",
    "description": ""
  },
  {
    "longitude": 7.14194,
    "latitude": 44.03611,
    "name": "Aire Picnic",
    "city": "06 Mari (Tin�e)",
    "description": ""
  },
  {
    "longitude": 5.30554,
    "latitude": 44.76287,
    "name": "Aire Picnic",
    "city": "26 D93 Saint Auba (5 tables Bord Dla Drome",
    "description": "WC)"
  },
  {
    "longitude": 5.34234,
    "latitude": 48.0573,
    "name": "Aire Picnic",
    "city": "52 D417/Nogent (2 tables",
    "description": "Panneau Tourisme)"
  },
  {
    "longitude": 5.33527,
    "latitude": 49.25831,
    "name": "Aire Picnic",
    "city": "55 D964 (3 tables)",
    "description": ""
  },
  {
    "longitude": 7.0475,
    "latitude": 44.17361,
    "name": "Aire Picnic",
    "city": "06 Isola",
    "description": ""
  },
  {
    "longitude": -4.44974,
    "latitude": 47.98035,
    "name": "Aire Picnic",
    "city": "29 Ploz�vet (Hent Kost An Aod - 2 tables)",
    "description": ""
  },
  {
    "longitude": -0.24706,
    "latitude": 47.36072,
    "name": "Aire Picnic",
    "city": "49 D952 (2 tables)",
    "description": ""
  },
  {
    "longitude": 1.27611,
    "latitude": 48.035,
    "name": "Aire Picnic",
    "city": "28 Douy (2 tables Dans Lpr� Au Bord Dla Riviere)",
    "description": ""
  },
  {
    "longitude": 7.28667,
    "latitude": 44.00972,
    "name": "Aire Picnic",
    "city": "06 Roquebillier6",
    "description": ""
  },
  {
    "longitude": 5.58552,
    "latitude": 49.11431,
    "name": "Aire Picnic",
    "city": "55 D903 (1 Tabl)",
    "description": ""
  },
  {
    "longitude": 4.17657,
    "latitude": 45.85952,
    "name": "Aire Picnic",
    "city": "42 Saint-Marcel-De-F�lines (D5) 2 tables",
    "description": ""
  },
  {
    "longitude": 1.61871,
    "latitude": 49.00517,
    "name": "Aire Picnic",
    "city": "78 Rosny Sur Seinrn13 (7 tables)",
    "description": ""
  },
  {
    "longitude": -4.72001,
    "latitude": 48.55786,
    "name": "Aire Picnic",
    "city": "29 D127 (2 tables",
    "description": "ord Dmer)"
  },
  {
    "longitude": 4.75912,
    "latitude": 46.10198,
    "name": "Aire Picnic",
    "city": "69 Port Dbellevill (3 tables - Toilettes)",
    "description": ""
  },
  {
    "longitude": 7.36472,
    "latitude": 44.00194,
    "name": "Aire Picnic",
    "city": "06 Col Turini 7",
    "description": ""
  },
  {
    "longitude": 7.30611,
    "latitude": 44.10889,
    "name": "Aire Picnic",
    "city": "06 Bor�o5",
    "description": ""
  },
  {
    "longitude": -2.86092,
    "latitude": 48.55239,
    "name": "Aire Picnic",
    "city": "22 D6 (2 tables)",
    "description": ""
  },
  {
    "longitude": -0.01751,
    "latitude": 47.25015,
    "name": "Aire Picnic",
    "city": "49 N152 (WC)",
    "description": ""
  },
  {
    "longitude": -3.98288,
    "latitude": 48.19168,
    "name": "Aire Picnic",
    "city": "29 Gou�zec (Rivaulne",
    "description": "WC)"
  },
  {
    "longitude": 0.92815,
    "latitude": 45.12899,
    "name": "Aire Picnic",
    "city": "24 N89 (3 tables",
    "description": "WC)"
  },
  {
    "longitude": 1.38221,
    "latitude": 49.00827,
    "name": "Aire Picnic",
    "city": "27 Pacy Sur Eurrn13 (6 tables)",
    "description": ""
  },
  {
    "longitude": 5.65814,
    "latitude": 49.23017,
    "name": "Aire Picnic",
    "city": "55 N18 (2 tables)",
    "description": ""
  },
  {
    "longitude": 7.51515,
    "latitude": 43.93832,
    "name": "Aire Picnic",
    "city": "06 Bonnauberg (Breil Sur Roya) (2 tables)",
    "description": ""
  },
  {
    "longitude": 5.5938,
    "latitude": 46.5728,
    "name": "Aire Picnic",
    "city": "39 D52 (1 table)",
    "description": ""
  },
  {
    "longitude": 5.29639,
    "latitude": 47.90667,
    "name": "Aire Picnic",
    "city": "N19 (Vers Lnord)- 3 tables",
    "description": ""
  },
  {
    "longitude": 0.46581,
    "latitude": 49.36348,
    "name": "Aire Picnic",
    "city": "27 Toutainville D675 4 tables",
    "description": ""
  },
  {
    "longitude": -4.42727,
    "latitude": 47.99366,
    "name": "Aire Picnic",
    "city": "29 Ploz�vet (Chapelltrinit�",
    "description": "tables)"
  },
  {
    "longitude": -4.57801,
    "latitude": 48.05423,
    "name": "Aire Picnic",
    "city": "29 D43 (2 tables)",
    "description": ""
  },
  {
    "longitude": 4.71883,
    "latitude": 44.4408,
    "name": "Aire Picnic",
    "city": "26 Donzer (5 tables Toilettes)",
    "description": ""
  },
  {
    "longitude": 1.96935,
    "latitude": 48.75616,
    "name": "Aire Picnic",
    "city": "78 Elancourt (Bois Dla Villedieu table)",
    "description": ""
  },
  {
    "longitude": -3.61627,
    "latitude": 48.68371,
    "name": "Aire Picnic",
    "city": "22 Rudpoul Guioch (2 tables",
    "description": "Bord Mer)"
  },
  {
    "longitude": -4.07174,
    "latitude": 47.90932,
    "name": "Aire Picnic",
    "city": "29 Clohars-Fouesnant (Chapelldu Drennec 1 table)",
    "description": ""
  },
  {
    "longitude": -4.50232,
    "latitude": 48.49201,
    "name": "Aire Picnic",
    "city": "29 Bourg-Blanc (Sud Bourg",
    "description": "tables)"
  },
  {
    "longitude": 5.06457,
    "latitude": 48.74964,
    "name": "Aire Picnic",
    "city": "55 D2 (3 tables",
    "description": "etits Jeux"
  },
  {
    "longitude": -1.76716,
    "latitude": 46.82218,
    "name": "Aire Picnic",
    "city": "85 St Christoph (3 tables",
    "description": "WC)"
  },
  {
    "longitude": -0.61548,
    "latitude": 46.7058,
    "name": "Aire Picnic",
    "city": "79 Moutiers Sous Chantemerl (3 tables)",
    "description": ""
  },
  {
    "longitude": -4.63301,
    "latitude": 48.35887,
    "name": "Aire Picnic",
    "city": "29 D789 (2 tables + Info)",
    "description": ""
  },
  {
    "longitude": -4.66444,
    "latitude": 48.06971,
    "name": "Aire Picnic",
    "city": "29 Cl�den-Cap-Sizu (Pointdbr�zellec 1 table)",
    "description": ""
  },
  {
    "longitude": -3.15986,
    "latitude": 48.21989,
    "name": "Aire Picnic",
    "city": "22 Laniscat (Le Bonnet Rouge - 2 tables)",
    "description": ""
  },
  {
    "longitude": -1.81213,
    "latitude": 46.53064,
    "name": "Aire Picnic",
    "city": "85 Olonne-Sur-Mer (3 tables)",
    "description": ""
  },
  {
    "longitude": 1.62489,
    "latitude": 48.79227,
    "name": "Aire Picnic",
    "city": "78 Maulett (D912 1 table)",
    "description": ""
  },
  {
    "longitude": -4.07751,
    "latitude": 47.86686,
    "name": "Aire Picnic",
    "city": "29 B�nodet (Letty",
    "description": "4 tables)"
  },
  {
    "longitude": 6.8325,
    "latitude": 44.03861,
    "name": "Aire Picnic",
    "city": "06 Grges Daluis 3",
    "description": ""
  },
  {
    "longitude": -4.69702,
    "latitude": 48.04159,
    "name": "Aire Picnic",
    "city": "29 Plogoff (Sud Baides Tr�pass�es",
    "description": "1 table)"
  },
  {
    "longitude": -3.97588,
    "latitude": 47.90929,
    "name": "Aire Picnic",
    "city": "29 La For�t-Fouesnant (Rudu Cranic 1 table)",
    "description": ""
  },
  {
    "longitude": 6.6425,
    "latitude": 43.73278,
    "name": "Aire Picnic",
    "city": "83 Verdo9",
    "description": ""
  },
  {
    "longitude": 0.41234,
    "latitude": 44.69058,
    "name": "Aire Picnic",
    "city": "24 Eymet D933 (2 tables)",
    "description": ""
  },
  {
    "longitude": 2.85582,
    "latitude": 45.59347,
    "name": "Aire Picnic",
    "city": "63 D996 (Col Dla Croix Morand 1 Tabltres Bellvue)",
    "description": ""
  },
  {
    "longitude": 1.53038,
    "latitude": 48.33163,
    "name": "[Picnic]35 Sens de Bretagne D794 Bord �tang (20 tables)",
    "city": "",
    "description": ""
  },
  {
    "longitude": -3.19782,
    "latitude": 48.43398,
    "name": "Aire Picnic",
    "city": "22 D8 (2 tables)",
    "description": ""
  },
  {
    "longitude": 4.68159,
    "latitude": 44.50795,
    "name": "Aire Picnic",
    "city": "07 N86 Viviers (2 tables)",
    "description": ""
  },
  {
    "longitude": 4.946,
    "latitude": 46.92243,
    "name": "Aire Picnic",
    "city": "71 Allerey Sur Saon (Airseule)",
    "description": ""
  },
  {
    "longitude": -4.27123,
    "latitude": 48.05702,
    "name": "Aire Picnic",
    "city": "29 D765 (Quimper > Douarnenez",
    "description": "1 table)"
  },
  {
    "longitude": 7.23694,
    "latitude": 44.05528,
    "name": "Aire Picnic",
    "city": "06 Venanso1",
    "description": ""
  },
  {
    "longitude": 5.38635,
    "latitude": 48.6355,
    "name": "Aire Picnic",
    "city": "55 D966/Naix-Aux-Forges (2 tables)",
    "description": ""
  },
  {
    "longitude": -2.66159,
    "latitude": 48.47981,
    "name": "Aire Picnic",
    "city": "22 Air D'yffiniac N176 N176 (6 tables)",
    "description": ""
  },
  {
    "longitude": -4.45078,
    "latitude": 47.98146,
    "name": "Aire Picnic",
    "city": "29 Ploz�vet (Rue de L'oc�an - 1 table)",
    "description": ""
  },
  {
    "longitude": 5.68204,
    "latitude": 43.23699,
    "name": "Aire Picnic",
    "city": "13 Ceyrest (D3 8 tables Ombrag�es)",
    "description": ""
  },
  {
    "longitude": 6.7211,
    "latitude": 46.20952,
    "name": "Aire Picnic",
    "city": "74 Llavanchy (Montriond) (6 tables)",
    "description": ""
  },
  {
    "longitude": -0.48283,
    "latitude": 48.04189,
    "name": "Aire Picnic",
    "city": "53 Vaiges (Sortibourg",
    "description": "Bord �tang)"
  },
  {
    "longitude": -4.16906,
    "latitude": 48.11389,
    "name": "Aire Picnic",
    "city": "29 Qu�m�n�ve (2 tables � Kergoat)",
    "description": ""
  },
  {
    "longitude": 1.78959,
    "latitude": 42.73787,
    "name": "Aire Picnic",
    "city": "09 N20/E9 (3 tables+WC) Pres Dperles Et Castelet",
    "description": ""
  },
  {
    "longitude": 6.35081,
    "latitude": 44.52494,
    "name": "Aire Picnic",
    "city": "05 N94 Prunieres (2 tables Et Vulac Dserrpon�on)",
    "description": ""
  },
  {
    "longitude": 5.45602,
    "latitude": 49.18301,
    "name": "Aire Picnic",
    "city": "55 D913 (4 tables Esous Bois)",
    "description": ""
  },
  {
    "longitude": -2.42179,
    "latitude": 47.93949,
    "name": "Aire Picnic",
    "city": "56 Taupont (Chapelldu Vieux Boug)",
    "description": ""
  },
  {
    "longitude": 3.35297,
    "latitude": 46.40687,
    "name": "Aire Picnic",
    "city": "03 La Fert�-Hauterive (Rn7-4 tables)",
    "description": ""
  },
  {
    "longitude": 2.28968,
    "latitude": 48.78654,
    "name": "Aire Picnic",
    "city": "92 Fontenay-Aux-Roses (Coul�e Verte - 1 table)",
    "description": ""
  },
  {
    "longitude": -3.39638,
    "latitude": 48.54638,
    "name": "Aire Picnic",
    "city": "22 Belle-Isle-En-Terr (1 Tabl- Bord Dl'eau)",
    "description": ""
  },
  {
    "longitude": -3.84143,
    "latitude": 48.06563,
    "name": "Aire Picnic",
    "city": "29 Coray (D50",
    "description": "2 tables)"
  },
  {
    "longitude": 7.25611,
    "latitude": 43.74167,
    "name": "Aire Picnic",
    "city": "06 Nic (Gairaut)",
    "description": ""
  },
  {
    "longitude": -1.06774,
    "latitude": 45.56279,
    "name": "Aire Picnic",
    "city": "33 Lverdoport Bloc (20 tables)",
    "description": ""
  },
  {
    "longitude": 5.31921,
    "latitude": 47.88429,
    "name": "Aire Picnic",
    "city": "52 Langres N19/E54 (3 tables)",
    "description": ""
  },
  {
    "longitude": 6.61056,
    "latitude": 43.72556,
    "name": "Aire Picnic",
    "city": "83 Verdo8",
    "description": ""
  },
  {
    "longitude": 2.46645,
    "latitude": 48.68715,
    "name": "Aire Picnic",
    "city": "91 Montgero (Carrefour Dmontgeron",
    "description": "u Moins 7 tables)"
  },
  {
    "longitude": 2.4886,
    "latitude": 48.67787,
    "name": "Aire Picnic",
    "city": "91 Soisy-Sur-Sein (Efor�t",
    "description": "1 table)"
  },
  {
    "longitude": 5.61547,
    "latitude": 48.86429,
    "name": "Aire Picnic",
    "city": "55 D907 (4 tables)",
    "description": ""
  },
  {
    "longitude": 7.05,
    "latitude": 43.59333,
    "name": "Aire Picnic",
    "city": "06 Vallauris",
    "description": ""
  },
  {
    "longitude": -2.66146,
    "latitude": 48.47881,
    "name": "Aire Picnic",
    "city": "22 Air D'yffiniac N176 (6 tables)",
    "description": ""
  },
  {
    "longitude": -0.35194,
    "latitude": 47.57916,
    "name": "Aire Picnic",
    "city": "49 Seiches Sur Lloir (3 tables",
    "description": "WC)"
  },
  {
    "longitude": -1.15833,
    "latitude": 45.68056,
    "name": "Aire Picnic",
    "city": "17 La Palmyr (� Cot� du Zoo",
    "description": "10 tables Sous les Arbres"
  },
  {
    "longitude": -2.0805,
    "latitude": 47.93339,
    "name": "Aire Picnic",
    "city": "35 Loutehel (D44 2 tables)",
    "description": ""
  },
  {
    "longitude": -3.82803,
    "latitude": 47.96103,
    "name": "Aire Picnic",
    "city": "29 Rosporde (�tang 2 tables)",
    "description": ""
  },
  {
    "longitude": -4.53986,
    "latitude": 48.0143,
    "name": "Aire Picnic",
    "city": "29 Audiern (Squarfrancis Postic 2 tables)",
    "description": ""
  },
  {
    "longitude": -0.33348,
    "latitude": 45.16969,
    "name": "Aire Picnic",
    "city": "17 Airdbedenac WC",
    "description": ""
  },
  {
    "longitude": 5.00793,
    "latitude": 48.68035,
    "name": "Aire Picnic",
    "city": "52 Chancenay (3-4 tables)",
    "description": ""
  },
  {
    "longitude": -2.09605,
    "latitude": 47.97302,
    "name": "Aire Picnic",
    "city": "35 Pl�lan-Le-Grand (Airbreil du Coq",
    "description": "tables)"
  },
  {
    "longitude": -4.12593,
    "latitude": 48.16537,
    "name": "Aire Picnic",
    "city": "29 Cast (1 Tablpres Chapellsaint-Gildas)",
    "description": ""
  },
  {
    "longitude": -4.53715,
    "latitude": 48.01797,
    "name": "Aire Picnic",
    "city": "29 Audiern (Entr�port",
    "description": "2 tables)"
  },
  {
    "longitude": -2.17625,
    "latitude": 48.57443,
    "name": "Aire Picnic",
    "city": "22 D768 (3 tables)",
    "description": ""
  },
  {
    "longitude": -4.26229,
    "latitude": 47.92032,
    "name": "Aire Picnic",
    "city": "29 Plon�our-Lanver (Chapelldlanvern)",
    "description": ""
  },
  {
    "longitude": 7.03083,
    "latitude": 43.60028,
    "name": "Aire Picnic",
    "city": "06 Valmasqu (10t",
    "description": "WC)"
  },
  {
    "longitude": 0.5164,
    "latitude": 43.29328,
    "name": "Aire Picnic",
    "city": "65 Castelnau Magnoac D929 (tables WC)",
    "description": ""
  },
  {
    "longitude": 6.36278,
    "latitude": 43.125,
    "name": "Aire Picnic",
    "city": "83 La Faviere",
    "description": ""
  },
  {
    "longitude": 6.33297,
    "latitude": 44.52975,
    "name": "Aire Picnic",
    "city": "05 N94 Prunieres (5 tables Vulac Dserrpon�on",
    "description": "WC)"
  },
  {
    "longitude": 2.27316,
    "latitude": 43.35617,
    "name": "Aire Picnic",
    "city": "11 Cuxac (Cazell1 tables)",
    "description": ""
  },
  {
    "longitude": 0.01075,
    "latitude": 47.23138,
    "name": "Aire Picnic",
    "city": "49 D947 (4 tables",
    "description": "WC)"
  },
  {
    "longitude": 3.8313,
    "latitude": 46.2,
    "name": "Aire Picnic",
    "city": "42 St Martid'estreaux N7 (7 tables + WC)",
    "description": ""
  },
  {
    "longitude": 0.80279,
    "latitude": 44.67466,
    "name": "Aire Picnic",
    "city": "33 Marcheprime A63/E05/E70 20 tables",
    "description": ""
  },
  {
    "longitude": 1.26947,
    "latitude": 48.00732,
    "name": "Aire Picnic",
    "city": "28 N10 (St Apoline-Dans les 2 Sens-2 tables Esous Bois",
    "description": ""
  },
  {
    "longitude": -2.36423,
    "latitude": 47.92001,
    "name": "Aire Picnic",
    "city": "56 Plo�rmel (Airdbroc�liand; N24)",
    "description": ""
  },
  {
    "longitude": 0.18778,
    "latitude": 45.84722,
    "name": "Aire Picnic",
    "city": "16 N10 (15 tables Esous-Bois",
    "description": "WC"
  }
]