[
  {
    "latitude": -1.17025,
    "longitude": 44.52633,
    "name": "Beach",
    "city": "La Teste de Buch",
    "description": "plage de Cazaux-Lac"
  },
  {
    "latitude": 6.4668,
    "longitude": 43.15747,
    "name": "Beach",
    "city": "Plage du Canadel",
    "description": ""
  },
  {
    "latitude": -2.12354,
    "longitude": 47.11141,
    "name": "Beach",
    "city": "Pornic",
    "description": "plage Les Grandes Vallees"
  },
  {
    "latitude": -3.98139,
    "longitude": 47.88861,
    "name": "Beach",
    "city": "Fouesnant",
    "description": "plage Cap Coz"
  },
  {
    "latitude": 8.57956,
    "longitude": 42.20764,
    "name": "Beach",
    "city": "Arone",
    "description": "plage"
  },
  {
    "latitude": -4.55328,
    "longitude": 48.21112,
    "name": "Beach",
    "city": "Crozon",
    "description": "plage de Lostmarc h"
  },
  {
    "latitude": -1.33295,
    "longitude": 46.33013,
    "name": "Beach",
    "city": "La Faute sur Mer",
    "description": "Grande plage"
  },
  {
    "latitude": -4.75951,
    "longitude": 48.36779,
    "name": "Beach",
    "city": "Le Conquet",
    "description": "plage des Sablons"
  },
  {
    "latitude": -4.95403,
    "longitude": 48.39489,
    "name": "Beach",
    "city": "Le Conquet",
    "description": "plage de Penn An Era"
  },
  {
    "latitude": 9.22085,
    "longitude": 41.3709,
    "name": "Beach",
    "city": "Sperono",
    "description": "plage"
  },
  {
    "latitude": -4.35145,
    "longitude": 48.10218,
    "name": "Beach",
    "city": "Douarnenez",
    "description": "plage Sables-Blancs"
  },
  {
    "latitude": 8.76849,
    "longitude": 42.55615,
    "name": "Beach",
    "city": "Calvi",
    "description": "plage"
  },
  {
    "latitude": 3.51974,
    "longitude": 43.28087,
    "name": "Beach",
    "city": "Cap d'Agde",
    "description": "plage du Mole"
  },
  {
    "latitude": -3.85989,
    "longitude": 47.80865,
    "name": "Beach",
    "city": "Tregunc",
    "description": "plage de Pen Loc h"
  },
  {
    "latitude": -3.88467,
    "longitude": 47.8267,
    "name": "Beach",
    "city": "Regunc",
    "description": "plage de Kerlaeren"
  },
  {
    "latitude": 4.1409,
    "longitude": 43.52648,
    "name": "Beach",
    "city": "Port Camargue",
    "description": "plage Ouest"
  },
  {
    "latitude": -1.3258,
    "longitude": 44.09278,
    "name": "Beach",
    "city": "Saint Julien en Born",
    "description": "plage de Contis"
  },
  {
    "latitude": 3.03506,
    "longitude": 42.62923,
    "name": "Beach",
    "city": "Saint Cyprien",
    "description": "plage (le village)"
  },
  {
    "latitude": 6.94127,
    "longitude": 43.52143,
    "name": "Beach",
    "city": "Mandelieu La Napoule",
    "description": "plage de la Raguette"
  },
  {
    "latitude": -2.27194,
    "longitude": 48.63894,
    "name": "Beach",
    "city": "Saint Cast le Guildo",
    "description": "plage de la Fresnaye"
  },
  {
    "latitude": -1.87326,
    "longitude": 48.69581,
    "name": "Beach",
    "city": "Plage du Verger",
    "description": ""
  },
  {
    "latitude": -2.82662,
    "longitude": 48.65043,
    "name": "Beach",
    "city": "Saint Quay-Portrieux",
    "description": "plage"
  },
  {
    "latitude": -1.60641,
    "longitude": 49.1973,
    "name": "Beach",
    "city": "Creance",
    "description": "Printania Plage"
  },
  {
    "latitude": 9.26776,
    "longitude": 41.46614,
    "name": "Beach",
    "city": "Rondinara",
    "description": "plage"
  },
  {
    "latitude": 4.87898,
    "longitude": 43.35298,
    "name": "Beach",
    "city": "Port Saint Louis du Rhone",
    "description": "plage Napoleon"
  },
  {
    "latitude": -3.24638,
    "longitude": 47.37108,
    "name": "Beach",
    "city": "Sauzon",
    "description": "plage de Port de Ster Vraz"
  },
  {
    "latitude": -3.09914,
    "longitude": 47.31588,
    "name": "Beach",
    "city": "Locmaria",
    "description": "plage des Grands Sables"
  },
  {
    "latitude": 6.5912,
    "longitude": 43.26277,
    "name": "Beach",
    "city": "Cogolin",
    "description": "plage Les Marines de Cogolin"
  },
  {
    "latitude": 6.36842,
    "longitude": 43.13677,
    "name": "Beach",
    "city": "Le Lavandou",
    "description": "plage"
  },
  {
    "latitude": 6.4756,
    "longitude": 43.15599,
    "name": "Beach",
    "city": "Le Rayol",
    "description": "plage"
  },
  {
    "latitude": -2.03874,
    "longitude": 46.76098,
    "name": "Beach",
    "city": "Saint Hilaire de Riez",
    "description": "plage des Salins"
  },
  {
    "latitude": -4.16143,
    "longitude": 47.82929,
    "name": "Beach",
    "city": "Loctudy",
    "description": "plage Langoz"
  },
  {
    "latitude": -4.48601,
    "longitude": 48.08634,
    "name": "Beach",
    "city": "Beuzec Cap Sizun",
    "description": "plage Pors Peron"
  },
  {
    "latitude": -2.55271,
    "longitude": 47.51428,
    "name": "Beach",
    "city": "Damgan",
    "description": "Petite Plage de Kervoyal"
  },
  {
    "latitude": -4.41181,
    "longitude": 47.94881,
    "name": "Beach",
    "city": "Plozevet",
    "description": "plage"
  },
  {
    "latitude": 6.85612,
    "longitude": 43.42531,
    "name": "Beach",
    "city": "Le Dramont",
    "description": "plage Pourrousset"
  },
  {
    "latitude": -3.99769,
    "longitude": 47.85264,
    "name": "Beach",
    "city": "Fouesnant",
    "description": "plage de Kermil"
  },
  {
    "latitude": -3.83874,
    "longitude": 47.79759,
    "name": "Beach",
    "city": "Tregunc",
    "description": "plage Trez Cao"
  },
  {
    "latitude": -3.20087,
    "longitude": 47.30035,
    "name": "Beach",
    "city": "Bangor",
    "description": "plage de Porh Kerel"
  },
  {
    "latitude": 8.78717,
    "longitude": 41.92005,
    "name": "Beach",
    "city": "Ricanto",
    "description": "plage"
  },
  {
    "latitude": -2.16465,
    "longitude": 47.11887,
    "name": "Beach",
    "city": "Pornic",
    "description": "plage Le Portmain"
  },
  {
    "latitude": -3.91681,
    "longitude": 48.67324,
    "name": "Beach",
    "city": "Carantec",
    "description": "plage de la Chaise du Cure"
  },
  {
    "latitude": -4.40958,
    "longitude": 48.22574,
    "name": "Beach",
    "city": "Plage du Poul",
    "description": ""
  },
  {
    "latitude": -4.22649,
    "longitude": 47.79364,
    "name": "Beach",
    "city": "Plobannalec",
    "description": "plage Kersauz"
  },
  {
    "latitude": -4.59755,
    "longitude": 48.01483,
    "name": "Beach",
    "city": "Esquibien",
    "description": "plage Cabestan"
  },
  {
    "latitude": -4.46403,
    "longitude": 48.23933,
    "name": "Beach",
    "city": "Crozon",
    "description": "plage Postolonnec"
  },
  {
    "latitude": -1.24648,
    "longitude": 44.63411,
    "name": "Beach",
    "city": "Le Cap Ferret",
    "description": "plage du Minbeau"
  },
  {
    "latitude": -2.68792,
    "longitude": 47.49825,
    "name": "Beach",
    "city": "Sarzeau",
    "description": "plage de Penvins"
  },
  {
    "latitude": -1.62886,
    "longitude": 43.41333,
    "name": "Beach",
    "city": "Saint Jean de Luz",
    "description": "plage de Lafitenia"
  },
  {
    "latitude": -3.93089,
    "longitude": 47.87969,
    "name": "Beach",
    "city": "Plage des Sables Blancs",
    "description": ""
  },
  {
    "latitude": -1.42401,
    "longitude": 43.75197,
    "name": "Beach",
    "city": "Soustons",
    "description": "plage de Chaulet"
  },
  {
    "latitude": -1.15934,
    "longitude": 46.02225,
    "name": "Beach",
    "city": "Bois Joly",
    "description": "Baby-Plage"
  },
  {
    "latitude": 5.13453,
    "longitude": 43.32984,
    "name": "Beach",
    "city": "Carry le Rouet",
    "description": "plage calanque du cap Rousset"
  },
  {
    "latitude": 5.13453,
    "longitude": 43.32984,
    "name": "Beach",
    "city": "Sausset les Pins",
    "description": "plage la Tuillerie"
  },
  {
    "latitude": -2.48591,
    "longitude": 47.51618,
    "name": "Beach",
    "city": "Plage des Granges",
    "description": ""
  },
  {
    "latitude": -3.95853,
    "longitude": 47.71623,
    "name": "Beach",
    "city": "Glenans-Penfret",
    "description": "plage"
  },
  {
    "latitude": 3.12277,
    "longitude": 42.5054,
    "name": "Beach",
    "city": "Port-Vendres",
    "description": "plage de Bernardi"
  },
  {
    "latitude": -4.48594,
    "longitude": 48.23542,
    "name": "Beach",
    "city": "Plage du Porzic",
    "description": ""
  },
  {
    "latitude": -2.22029,
    "longitude": 47.00981,
    "name": "Beach",
    "city": "Noirmoutier en l'Ile",
    "description": "plage des Dames"
  },
  {
    "latitude": 8.85783,
    "longitude": 41.53581,
    "name": "Beach",
    "city": "Tizzano",
    "description": "plage"
  },
  {
    "latitude": -1.26458,
    "longitude": 46.16099,
    "name": "Beach",
    "city": "Rivedoux-Plage",
    "description": "plage Nord"
  },
  {
    "latitude": -3.55875,
    "longitude": 48.72826,
    "name": "Beach",
    "city": "Tredrez Locquemeau",
    "description": "plage Saint Quiriou"
  },
  {
    "latitude": -3.85339,
    "longitude": 47.80269,
    "name": "Beach",
    "city": "Tregunc",
    "description": "plage Pen Loc h"
  },
  {
    "latitude": -1.53879,
    "longitude": 43.50474,
    "name": "Beach",
    "city": "Anglet",
    "description": "plage Marinella"
  },
  {
    "latitude": 8.646,
    "longitude": 42.41328,
    "name": "Beach",
    "city": "Galeria",
    "description": "plage"
  },
  {
    "latitude": -3.90591,
    "longitude": 48.65967,
    "name": "Beach",
    "city": "Plage du Clouet",
    "description": ""
  },
  {
    "latitude": 8.63606,
    "longitude": 42.12347,
    "name": "Beach",
    "city": "Stagnoli",
    "description": "plage"
  },
  {
    "latitude": -2.49331,
    "longitude": 47.46208,
    "name": "Beach",
    "city": "Plage du Marescle",
    "description": ""
  },
  {
    "latitude": -2.1463,
    "longitude": 46.86272,
    "name": "Beach",
    "city": "La Barre de Monts",
    "description": "plage de la Bergere"
  },
  {
    "latitude": 6.29746,
    "longitude": 43.1127,
    "name": "Beach",
    "city": "Bormes les Mimosas",
    "description": "plage de L Estagnol"
  },
  {
    "latitude": -1.5418,
    "longitude": 43.50224,
    "name": "Beach",
    "city": "Anglet",
    "description": "plage Les Sables d'Or"
  },
  {
    "latitude": -5.0936,
    "longitude": 48.4519,
    "name": "Beach",
    "city": "Ouessant",
    "description": "plage de Corz"
  },
  {
    "latitude": 2.49722,
    "longitude": 47.48395,
    "name": "Beach",
    "city": "Penestin",
    "description": "plage de la Source (Le Lomer)"
  },
  {
    "latitude": 9.3871,
    "longitude": 41.69059,
    "name": "Beach",
    "city": "Plage de Vardiola",
    "description": ""
  },
  {
    "latitude": -3.89266,
    "longitude": 48.67093,
    "name": "Beach",
    "city": "Plage de Tahiti",
    "description": ""
  },
  {
    "latitude": -1.17019,
    "longitude": 44.6643,
    "name": "Beach",
    "city": "Arcachon",
    "description": "plage Centrale"
  },
  {
    "latitude": 5.37529,
    "longitude": 43.25642,
    "name": "Beach",
    "city": "Marseille",
    "description": "plage Borely"
  },
  {
    "latitude": -4.54943,
    "longitude": 48.20924,
    "name": "Beach",
    "city": "Crozon",
    "description": "plage de Lostmarc h"
  },
  {
    "latitude": 4.78544,
    "longitude": 43.34769,
    "name": "Beach",
    "city": "Arles",
    "description": "plage d'Arles Ou de Piemanson"
  },
  {
    "latitude": 6.71401,
    "longitude": 43.37227,
    "name": "Beach",
    "city": "Plage du Grand Boucharel",
    "description": ""
  },
  {
    "latitude": -3.7194,
    "longitude": 47.79728,
    "name": "Beach",
    "city": "Plage Grise",
    "description": ""
  },
  {
    "latitude": -3.45592,
    "longitude": 47.64478,
    "name": "Beach",
    "city": "Plage du Rolaz",
    "description": ""
  },
  {
    "latitude": 9.07122,
    "longitude": 41.46737,
    "name": "Beach",
    "city": "Figari",
    "description": "plage"
  },
  {
    "latitude": 6.6628,
    "longitude": 43.22937,
    "name": "Beach",
    "city": "Ramatuelle",
    "description": "plage de Pampelonne"
  },
  {
    "latitude": 8.77219,
    "longitude": 41.81194,
    "name": "Beach",
    "city": "Vergia",
    "description": "plage"
  },
  {
    "latitude": -3.96374,
    "longitude": 48.689,
    "name": "Beach",
    "city": "Saint Pol de Leon",
    "description": "plage Sainte Anne"
  },
  {
    "latitude": 9.35311,
    "longitude": 41.6409,
    "name": "Beach",
    "city": "Ciprianu",
    "description": "plage"
  },
  {
    "latitude": -2.79525,
    "longitude": 47.60134,
    "name": "Beach",
    "city": "Ile d'Arz",
    "description": "plage de la Falaise"
  },
  {
    "latitude": -1.10347,
    "longitude": 45.5379,
    "name": "Beach",
    "city": "Soulac sur Mer",
    "description": "plage Les Cantines"
  },
  {
    "latitude": 6.35939,
    "longitude": 43.12235,
    "name": "Beach",
    "city": "Bormes les Mimosas",
    "description": "plage La Faviere"
  },
  {
    "latitude": -2.42124,
    "longitude": 48.64689,
    "name": "Beach",
    "city": "Erquy",
    "description": "plage des Hopitaux"
  },
  {
    "latitude": -0.22531,
    "longitude": 49.28073,
    "name": "Beach",
    "city": "Merville Franceville",
    "description": "plage de la Redoute"
  },
  {
    "latitude": -2.42133,
    "longitude": 47.27584,
    "name": "Beach",
    "city": "La Baule-Escoublac",
    "description": "plage Benoit"
  },
  {
    "latitude": 9.20038,
    "longitude": 42.72495,
    "name": "Beach",
    "city": "Saleccia",
    "description": "plage"
  },
  {
    "latitude": -2.19098,
    "longitude": 48.60693,
    "name": "Beach",
    "city": "Plage du Rougeret",
    "description": ""
  },
  {
    "latitude": -0.892,
    "longitude": 49.37529,
    "name": "Beach",
    "city": "Vierville sur Mer",
    "description": "Omaha Beach"
  },
  {
    "latitude": 9.4088,
    "longitude": 43.00537,
    "name": "Beach",
    "city": "Ersa",
    "description": "plage de la Cala"
  },
  {
    "latitude": 4.05666,
    "longitude": 43.55837,
    "name": "Beach",
    "city": "La Grande Motte",
    "description": "plage Motte du Couchant"
  },
  {
    "latitude": -2.26836,
    "longitude": 48.64074,
    "name": "Beach",
    "city": "Saint Cast le Guildo",
    "description": "plage Pissotte"
  },
  {
    "latitude": -1.25146,
    "longitude": 44.62683,
    "name": "Beach",
    "city": "Cap Ferret",
    "description": "plage des Puits de Petrole"
  },
  {
    "latitude": -1.52333,
    "longitude": 49.65632,
    "name": "Beach",
    "city": "Bretteville",
    "description": "plage de Bretteville"
  },
  {
    "latitude": 2.3926,
    "longitude": 51.05045,
    "name": "Beach",
    "city": "Malo les Bains",
    "description": "plage"
  },
  {
    "latitude": 4.40289,
    "longitude": 43.44875,
    "name": "Beach",
    "city": "Saintes Maries de la Mer",
    "description": "plage Simbeou Ouest"
  },
  {
    "latitude": 3.03563,
    "longitude": 42.73389,
    "name": "Beach",
    "city": "Sainte Marie",
    "description": "plage (le village)"
  },
  {
    "latitude": 8.83164,
    "longitude": 41.70579,
    "name": "Beach",
    "city": "Plage de Tenutella",
    "description": ""
  },
  {
    "latitude": -3.98056,
    "longitude": 47.85461,
    "name": "Beach",
    "city": "Beg-Mail",
    "description": "plage des Dunes"
  },
  {
    "latitude": -3.7203,
    "longitude": 47.80185,
    "name": "Beach",
    "city": "Moelan sur Mer",
    "description": "plage Kerfany"
  },
  {
    "latitude": -1.60031,
    "longitude": 43.43153,
    "name": "Beach",
    "city": "Bidart",
    "description": "plage de l'Uhabia (Polluted)"
  },
  {
    "latitude": -1.41356,
    "longitude": 46.22728,
    "name": "Beach",
    "city": "Loix",
    "description": "plage Grouin"
  },
  {
    "latitude": -3.92414,
    "longitude": 48.69113,
    "name": "Beach",
    "city": "Carantec",
    "description": "plage de Park An Iliz"
  },
  {
    "latitude": -3.98556,
    "longitude": 47.8722,
    "name": "Beach",
    "city": "Fouesnant",
    "description": "plage Lantecost"
  },
  {
    "latitude": 5.59869,
    "longitude": 43.16731,
    "name": "Beach",
    "city": "La Ciotat",
    "description": "anse de Figuerolle"
  },
  {
    "latitude": -3.00133,
    "longitude": 47.5678,
    "name": "Beach",
    "city": "Saint Philibert",
    "description": "plage de Kernevest"
  },
  {
    "latitude": -3.16728,
    "longitude": 47.30177,
    "name": "Beach",
    "city": "Bangor",
    "description": "plage Herlin"
  },
  {
    "latitude": 8.81619,
    "longitude": 41.71341,
    "name": "Beach",
    "city": "Taravo",
    "description": "plage"
  },
  {
    "latitude": -4.61838,
    "longitude": 48.27692,
    "name": "Beach",
    "city": "Camaret",
    "description": "anse de Pen Hat"
  },
  {
    "latitude": -1.59619,
    "longitude": 49.1284,
    "name": "Beach",
    "city": "Anneville sur Mer",
    "description": "La Plage"
  },
  {
    "latitude": 5.81834,
    "longitude": 43.06296,
    "name": "Beach",
    "city": "Plage du Trou de l'Or",
    "description": ""
  },
  {
    "latitude": -4.27259,
    "longitude": 48.1476,
    "name": "Beach",
    "city": "Plonevez Porzay",
    "description": "plage Ty an Quer"
  },
  {
    "latitude": -2.49909,
    "longitude": 47.49105,
    "name": "Beach",
    "city": "Plage du Loguy",
    "description": ""
  },
  {
    "latitude": 6.18526,
    "longitude": 43.00538,
    "name": "Beach",
    "city": "Porquerolles",
    "description": "plage d'Argent"
  },
  {
    "latitude": 6.12001,
    "longitude": 43.08099,
    "name": "Beach",
    "city": "Hyeres",
    "description": "plage du Port Helene"
  },
  {
    "latitude": -2.20366,
    "longitude": 47.12525,
    "name": "Beach",
    "city": "Prefailles",
    "description": "plage La Source"
  },
  {
    "latitude": -4.35082,
    "longitude": 48.67622,
    "name": "Beach",
    "city": "Plage du Phare",
    "description": ""
  },
  {
    "latitude": -1.91894,
    "longitude": 46.67206,
    "name": "Beach",
    "city": "Saint Gilles Croix de Vie",
    "description": "plage Jaunay"
  },
  {
    "latitude": -2.56029,
    "longitude": 47.51413,
    "name": "Beach",
    "city": "Damgan",
    "description": "Grande plage de Kervoyal"
  },
  {
    "latitude": 0.20205,
    "longitude": 49.7088,
    "name": "Beach",
    "city": "Etretat",
    "description": "plage"
  },
  {
    "latitude": -2.0217,
    "longitude": 48.65259,
    "name": "Beach",
    "city": "Saint Malo",
    "description": "plage"
  },
  {
    "latitude": 8.58779,
    "longitude": 42.15036,
    "name": "Beach",
    "city": "Cargese",
    "description": "plage du Club Med"
  },
  {
    "latitude": -1.52337,
    "longitude": 43.52802,
    "name": "Beach",
    "city": "Anglet",
    "description": "plage La Barre"
  },
  {
    "latitude": -2.59144,
    "longitude": 47.51775,
    "name": "Beach",
    "city": "Damgan",
    "description": "plage de Damgan"
  },
  {
    "latitude": -4.18101,
    "longitude": 47.80293,
    "name": "Beach",
    "city": "Loctudy",
    "description": "plage Poulluen"
  },
  {
    "latitude": 5.35668,
    "longitude": 43.23267,
    "name": "Beach",
    "city": "Marseille",
    "description": "plage de la Madrague"
  },
  {
    "latitude": 6.66826,
    "longitude": 43.24519,
    "name": "Beach",
    "city": "Plage de Tahiti",
    "description": ""
  },
  {
    "latitude": -3.83223,
    "longitude": 47.79686,
    "name": "Beach",
    "city": "Tregunc",
    "description": "plage Don"
  },
  {
    "latitude": -4.61395,
    "longitude": 48.26173,
    "name": "Beach",
    "city": "Camaret",
    "description": "plage Veryac h"
  },
  {
    "latitude": -1.01423,
    "longitude": 45.61708,
    "name": "Beach",
    "city": "Royan",
    "description": "plage La Grande Conche"
  },
  {
    "latitude": -2.19891,
    "longitude": 48.585,
    "name": "Beach",
    "city": "Saint Jacut de la Mer",
    "description": "plage du Ruet"
  },
  {
    "latitude": -3.86808,
    "longitude": 47.81208,
    "name": "Beach",
    "city": "Tregunc",
    "description": "plage Kerouiny"
  },
  {
    "latitude": 9.37349,
    "longitude": 41.67422,
    "name": "Beach",
    "city": "Pinarellu",
    "description": "plage"
  },
  {
    "latitude": -2.20971,
    "longitude": 46.95932,
    "name": "Beach",
    "city": "La Gueriniere",
    "description": "plage Sables d'Or"
  },
  {
    "latitude": 3.33547,
    "longitude": 43.26558,
    "name": "Beach",
    "city": "Serignan",
    "description": "plage"
  },
  {
    "latitude": -2.36671,
    "longitude": 47.27634,
    "name": "Beach",
    "city": "La Baule",
    "description": "plage"
  },
  {
    "latitude": -1.17086,
    "longitude": 45.22325,
    "name": "Beach",
    "city": "Hourtin",
    "description": "plage"
  },
  {
    "latitude": -1.87489,
    "longitude": 46.62631,
    "name": "Beach",
    "city": "Bretignolles sur Mer",
    "description": "plage Paree"
  },
  {
    "latitude": 6.84497,
    "longitude": 43.4164,
    "name": "Beach",
    "city": "Le Dramont",
    "description": "plage du Debarquement"
  },
  {
    "latitude": 4.97447,
    "longitude": 43.41244,
    "name": "Beach",
    "city": "Port de Bouc",
    "description": "plage des Ours"
  },
  {
    "latitude": 6.12648,
    "longitude": 43.07921,
    "name": "Beach",
    "city": "Hyeres",
    "description": "plage de L Almanarre"
  },
  {
    "latitude": -1.51544,
    "longitude": 43.54061,
    "name": "Beach",
    "city": "Plage du Metro",
    "description": ""
  },
  {
    "latitude": -2.09456,
    "longitude": 48.63378,
    "name": "Beach",
    "city": "Saint Lunaire",
    "description": "plage Fourberie"
  },
  {
    "latitude": -2.22619,
    "longitude": 47.1308,
    "name": "Beach",
    "city": "Prefailles",
    "description": "plage Les Chatelets"
  },
  {
    "latitude": -3.71868,
    "longitude": 48.70113,
    "name": "Beach",
    "city": "Guimaec",
    "description": "plage Vilin Izella"
  },
  {
    "latitude": 6.15244,
    "longitude": 43.02792,
    "name": "Beach",
    "city": "Hyeres",
    "description": "plage du Pradeau"
  },
  {
    "latitude": -1.32266,
    "longitude": 46.32324,
    "name": "Beach",
    "city": "La Faute sur Mer",
    "description": "plage des Chardons"
  },
  {
    "latitude": -1.65253,
    "longitude": 49.23994,
    "name": "Beach",
    "city": "Rochemont Plage",
    "description": ""
  },
  {
    "latitude": 3.08626,
    "longitude": 42.52371,
    "name": "Beach",
    "city": "Collioure",
    "description": "plage (village)"
  },
  {
    "latitude": 8.609,
    "longitude": 42.38683,
    "name": "Beach",
    "city": "Focolara",
    "description": "plage"
  },
  {
    "latitude": -2.47617,
    "longitude": 48.64539,
    "name": "Beach",
    "city": "Erquy",
    "description": "plage Lourtouais"
  },
  {
    "latitude": -4.328,
    "longitude": 48.67448,
    "name": "Beach",
    "city": "Brignogan-Plage",
    "description": "plage du Bilou"
  },
  {
    "latitude": -1.45533,
    "longitude": 49.6911,
    "name": "Beach",
    "city": "Fermanville",
    "description": "plage Mondrie"
  },
  {
    "latitude": -2.83654,
    "longitude": 48.6553,
    "name": "Beach",
    "city": "Saint Quay-Portrieux",
    "description": "plage"
  },
  {
    "latitude": -2.5448,
    "longitude": 47.36741,
    "name": "Beach",
    "city": "Plage du Grand Laroue",
    "description": ""
  },
  {
    "latitude": -4.66698,
    "longitude": 48.35284,
    "name": "Beach",
    "city": "Locmaria Plouzane",
    "description": "plage Tregana"
  },
  {
    "latitude": 8.78475,
    "longitude": 41.83194,
    "name": "Beach",
    "city": "Plage du Ruppione",
    "description": ""
  },
  {
    "latitude": -1.47991,
    "longitude": 46.24121,
    "name": "Beach",
    "city": "Les Portes en Re",
    "description": "plage Loge"
  },
  {
    "latitude": 3.09919,
    "longitude": 42.52356,
    "name": "Beach",
    "city": "Port-Vendres",
    "description": "plage"
  },
  {
    "latitude": -1.8608,
    "longitude": 46.61333,
    "name": "Beach",
    "city": "Bretignolles sur Mer",
    "description": "plage (Dunes)"
  },
  {
    "latitude": -3.82115,
    "longitude": 47.79695,
    "name": "Beach",
    "city": "Tregunc",
    "description": "plage Kersidan"
  },
  {
    "latitude": -2.42977,
    "longitude": 47.25973,
    "name": "Beach",
    "city": "Plage des Maures",
    "description": ""
  },
  {
    "latitude": 9.4619,
    "longitude": 42.98452,
    "name": "Beach",
    "city": "Finocchiarola",
    "description": "plage"
  },
  {
    "latitude": 5.02497,
    "longitude": 43.34588,
    "name": "Beach",
    "city": "Martigues",
    "description": "plage de la Pointe de Bonnieu"
  },
  {
    "latitude": 4.97151,
    "longitude": 43.41583,
    "name": "Beach",
    "city": "Port de Bouc",
    "description": "plage la Baumasse"
  },
  {
    "latitude": 9.10903,
    "longitude": 41.4213,
    "name": "Beach",
    "city": "Stagnolu",
    "description": "plage"
  },
  {
    "latitude": -1.23045,
    "longitude": 46.27803,
    "name": "Beach",
    "city": "L'Aiguillon sur Mer",
    "description": "plage de l'Eperon"
  },
  {
    "latitude": 9.15068,
    "longitude": 42.73168,
    "name": "Beach",
    "city": "Di Trave",
    "description": "plage"
  },
  {
    "latitude": 5.61943,
    "longitude": 43.18438,
    "name": "Beach",
    "city": "La Ciotat",
    "description": "Grande plage"
  },
  {
    "latitude": 9.22127,
    "longitude": 41.37342,
    "name": "Beach",
    "city": "Piantarella",
    "description": "plage"
  },
  {
    "latitude": -1.41961,
    "longitude": 46.18695,
    "name": "Beach",
    "city": "La Couarde sur Mer",
    "description": "plage des Aneries"
  },
  {
    "latitude": 6.93735,
    "longitude": 43.50949,
    "name": "Beach",
    "city": "Plage du Suveret",
    "description": ""
  },
  {
    "latitude": -4.77722,
    "longitude": 48.40697,
    "name": "Beach",
    "city": "Plouarzel",
    "description": "plage Porsmoguer"
  },
  {
    "latitude": -3.70331,
    "longitude": 47.78841,
    "name": "Beach",
    "city": "Moelan sur Mer",
    "description": "plage Trenez"
  },
  {
    "latitude": -4.61073,
    "longitude": 48.26153,
    "name": "Beach",
    "city": "Plage de Veryac h",
    "description": ""
  },
  {
    "latitude": -1.12722,
    "longitude": 45.51623,
    "name": "Beach",
    "city": "Soulac sur Mer",
    "description": "plage Centrale"
  },
  {
    "latitude": 2.29623,
    "longitude": 45.39595,
    "name": "Beach",
    "city": "Ligignac",
    "description": "plage Chabrat - Lac de la Triouzoune"
  },
  {
    "latitude": -1.37097,
    "longitude": 45.94124,
    "name": "Beach",
    "city": "Saint Pierre",
    "description": "plage"
  },
  {
    "latitude": -3.99352,
    "longitude": 47.85361,
    "name": "Beach",
    "city": "Fouesnant",
    "description": "Kermil"
  },
  {
    "latitude": -2.54115,
    "longitude": 47.36631,
    "name": "Beach",
    "city": "Plage du Petit Lanroue",
    "description": ""
  },
  {
    "latitude": -1.2357,
    "longitude": 45.97533,
    "name": "Beach",
    "city": "Boyardville",
    "description": "plage"
  },
  {
    "latitude": -3.27288,
    "longitude": 47.68082,
    "name": "Beach",
    "city": "Plage du Magouero",
    "description": ""
  },
  {
    "latitude": -4.56686,
    "longitude": 48.35453,
    "name": "Beach",
    "city": "Plouzane",
    "description": "plage Dellec"
  },
  {
    "latitude": -2.91368,
    "longitude": 47.54583,
    "name": "Beach",
    "city": "Arzon",
    "description": "plage Port Navalo"
  },
  {
    "latitude": -1.43196,
    "longitude": 43.7231,
    "name": "Beach",
    "city": "Seignosse",
    "description": "plage des Casernes"
  },
  {
    "latitude": -1.61925,
    "longitude": 43.42286,
    "name": "Beach",
    "city": "Plage de Senix",
    "description": ""
  },
  {
    "latitude": -2.18345,
    "longitude": 48.59852,
    "name": "Beach",
    "city": "Saint Jacut de la Mer",
    "description": "plage"
  },
  {
    "latitude": 6.1891,
    "longitude": 43.76133,
    "name": "Beach",
    "city": "Les Salles sur Verdon",
    "description": "plage Lac St Croix"
  },
  {
    "latitude": -2.8272,
    "longitude": 48.63667,
    "name": "Beach",
    "city": "Etables sur Mer",
    "description": "plage du Moulin"
  },
  {
    "latitude": -2.48896,
    "longitude": 47.40682,
    "name": "Beach",
    "city": "Mesquer",
    "description": "plage de Lanseria"
  },
  {
    "latitude": -3.39696,
    "longitude": 47.70275,
    "name": "Beach",
    "city": "Larmor-Plage",
    "description": "anse de Kerguelen"
  },
  {
    "latitude": -4.16218,
    "longitude": 47.84979,
    "name": "Beach",
    "city": "Ile Tudy",
    "description": "Grande plage"
  },
  {
    "latitude": -1.25804,
    "longitude": 44.62386,
    "name": "Beach",
    "city": "Le Cap Ferret",
    "description": "plage"
  },
  {
    "latitude": -4.48127,
    "longitude": 47.99269,
    "name": "Beach",
    "city": "Plouhinec",
    "description": "plage de Guendrez"
  },
  {
    "latitude": -4.19973,
    "longitude": 47.7989,
    "name": "Beach",
    "city": "Loctudy",
    "description": "plage des Sables Blancs"
  },
  {
    "latitude": 4.43283,
    "longitude": 43.45176,
    "name": "Beach",
    "city": "Saintes Maries de la Mer",
    "description": "plage avenue Gilbert Leroy"
  },
  {
    "latitude": 6.8577,
    "longitude": 43.42007,
    "name": "Beach",
    "city": "Le Dramont",
    "description": "plage Camp long"
  },
  {
    "latitude": -1.45115,
    "longitude": 49.69122,
    "name": "Beach",
    "city": "Fermanville",
    "description": "anse de la Mondree"
  },
  {
    "latitude": 5.04913,
    "longitude": 43.33347,
    "name": "Beach",
    "city": "Carro",
    "description": "anse du Verdon"
  },
  {
    "latitude": 7.0575,
    "longitude": 43.5509,
    "name": "Beach",
    "city": "Cannes",
    "description": "plage de la Batterie"
  },
  {
    "latitude": 8.88192,
    "longitude": 41.66464,
    "name": "Beach",
    "city": "Laurosu",
    "description": "plage"
  },
  {
    "latitude": 6.66772,
    "longitude": 43.20868,
    "name": "Beach",
    "city": "Ramatuelle",
    "description": "plage Bonne Terrasse"
  },
  {
    "latitude": -2.26905,
    "longitude": 46.96735,
    "name": "Beach",
    "city": "L Epine",
    "description": "plage Elous"
  },
  {
    "latitude": 6.63692,
    "longitude": 43.30759,
    "name": "Beach",
    "city": "Plage du Casino",
    "description": ""
  },
  {
    "latitude": 3.03447,
    "longitude": 42.75795,
    "name": "Beach",
    "city": "Toreille",
    "description": "plage"
  },
  {
    "latitude": -1.30765,
    "longitude": 44.16402,
    "name": "Beach",
    "city": "Saint Julien en Born",
    "description": "plage de Lespecier"
  },
  {
    "latitude": -1.89841,
    "longitude": 48.69153,
    "name": "Beach",
    "city": "Saint Coulomb",
    "description": "plage"
  },
  {
    "latitude": -2.4954,
    "longitude": 47.45384,
    "name": "Beach",
    "city": "Penestin",
    "description": "plage de Loscolo"
  },
  {
    "latitude": 9.49013,
    "longitude": 42.81209,
    "name": "Beach",
    "city": "Marine Sisco",
    "description": ""
  },
  {
    "latitude": -4.29812,
    "longitude": 48.09157,
    "name": "Beach",
    "city": "Douarnenez",
    "description": "plage Ry"
  },
  {
    "latitude": -1.20298,
    "longitude": 44.99643,
    "name": "Beach",
    "city": "Lacanau",
    "description": "plage Sud"
  },
  {
    "latitude": 4.419,
    "longitude": 43.44967,
    "name": "Beach",
    "city": "Saintes Maries de la Mer",
    "description": "plage de la Capitainerie"
  },
  {
    "latitude": 2.30378,
    "longitude": 45.38986,
    "name": "Beach",
    "city": "Ligignac",
    "description": "plage Le Maury - Lac de la Triouzoune"
  },
  {
    "latitude": -2.46171,
    "longitude": 48.64805,
    "name": "Beach",
    "city": "Erquy",
    "description": "plage Le Portuais"
  },
  {
    "latitude": -1.44579,
    "longitude": 43.65269,
    "name": "Beach",
    "city": "Capbreton",
    "description": "plage Centrale"
  },
  {
    "latitude": 8.74454,
    "longitude": 42.04358,
    "name": "Beach",
    "city": "Liscia",
    "description": "plage"
  },
  {
    "latitude": -1.13618,
    "longitude": 45.50353,
    "name": "Beach",
    "city": "Soulac sur Mer",
    "description": "L Amelie plage + char a voile"
  },
  {
    "latitude": 3.03503,
    "longitude": 42.68783,
    "name": "Beach",
    "city": "Le Canet",
    "description": "plage (le village)"
  },
  {
    "latitude": -2.29176,
    "longitude": 47.01109,
    "name": "Beach",
    "city": "Noirmoutier en l'Ile",
    "description": "plage Luzeronde"
  },
  {
    "latitude": 6.80673,
    "longitude": 43.4145,
    "name": "Beach",
    "city": "Saint Raphael",
    "description": "plage d'Arene Grosse"
  },
  {
    "latitude": 9.1185,
    "longitude": 42.72377,
    "name": "Beach",
    "city": "Malfalcu",
    "description": "plage"
  },
  {
    "latitude": -2.88407,
    "longitude": 48.67699,
    "name": "Beach",
    "city": "Plouha",
    "description": "plage Palus"
  },
  {
    "latitude": -2.28353,
    "longitude": 46.98139,
    "name": "Beach",
    "city": "L Epine",
    "description": "plage la Bosse"
  },
  {
    "latitude": -1.53689,
    "longitude": 43.5081,
    "name": "Beach",
    "city": "Anglet",
    "description": "plage Les Corsaires"
  },
  {
    "latitude": -1.55695,
    "longitude": 46.23264,
    "name": "Beach",
    "city": "Saint Clement des Baleines",
    "description": "plage Canot de Sauvetage"
  },
  {
    "latitude": 3.28341,
    "longitude": 43.24129,
    "name": "Beach",
    "city": "Valras",
    "description": "plage"
  },
  {
    "latitude": -1.858,
    "longitude": 46.61281,
    "name": "Beach",
    "city": "Beg-Mail",
    "description": "plage des Dunes"
  },
  {
    "latitude": -2.37741,
    "longitude": 46.73232,
    "name": "Beach",
    "city": "L Ile d'Yeu",
    "description": "plage de la Gournaise"
  },
  {
    "latitude": -2.15281,
    "longitude": 46.88024,
    "name": "Beach",
    "city": "La Barre de Monts",
    "description": "plage Bergere"
  },
  {
    "latitude": 5.49808,
    "longitude": 43.20262,
    "name": "Beach",
    "city": "Cassis",
    "description": "plage calanque d'en Vau"
  },
  {
    "latitude": -2.16551,
    "longitude": 47.17141,
    "name": "Beach",
    "city": "Saint Michel Chef-Chef",
    "description": "Tharon-Plage"
  },
  {
    "latitude": -4.31079,
    "longitude": 47.80051,
    "name": "Beach",
    "city": "Penmarch",
    "description": "plage Ster"
  },
  {
    "latitude": 6.78951,
    "longitude": 43.40859,
    "name": "Beach",
    "city": "Plage des Fournas",
    "description": ""
  },
  {
    "latitude": 4.12454,
    "longitude": 43.51469,
    "name": "Beach",
    "city": "Port Camargue",
    "description": "plage les Marines"
  },
  {
    "latitude": -1.58928,
    "longitude": 43.44677,
    "name": "Beach",
    "city": "Bidart",
    "description": "plage d'Erretegia"
  },
  {
    "latitude": -2.29306,
    "longitude": 46.70034,
    "name": "Beach",
    "city": "Plage des Ovaires",
    "description": ""
  },
  {
    "latitude": 6.23414,
    "longitude": 43.01107,
    "name": "Beach",
    "city": "Porquerolles",
    "description": "plage Notre Dame"
  },
  {
    "latitude": 8.66105,
    "longitude": 41.97599,
    "name": "Beach",
    "city": "Lava",
    "description": "plage"
  },
  {
    "latitude": 9.28413,
    "longitude": 42.67662,
    "name": "Beach",
    "city": "Saint. Florent",
    "description": "plage"
  },
  {
    "latitude": 3.04723,
    "longitude": 42.99054,
    "name": "Beach",
    "city": "Port la Nouvelle",
    "description": "plage des Montilles"
  },
  {
    "latitude": -4.11776,
    "longitude": 48.69333,
    "name": "Beach",
    "city": "Cleder",
    "description": "plage de Kervaliou"
  },
  {
    "latitude": -3.04925,
    "longitude": 47.5788,
    "name": "Beach",
    "city": "Plage du Men Du",
    "description": ""
  },
  {
    "latitude": -1.29891,
    "longitude": 44.21918,
    "name": "Beach",
    "city": "Plage Rememder",
    "description": ""
  },
  {
    "latitude": -2.19107,
    "longitude": 48.60281,
    "name": "Beach",
    "city": "Plage des Haas",
    "description": ""
  },
  {
    "latitude": -1.17276,
    "longitude": 44.52381,
    "name": "Beach",
    "city": "La Teste de Buch",
    "description": "plage de Cazaux-Laouga"
  },
  {
    "latitude": -3.90608,
    "longitude": 47.85588,
    "name": "Beach",
    "city": "Concarneau",
    "description": "plage Cabellou"
  },
  {
    "latitude": -1.66193,
    "longitude": 43.39126,
    "name": "Beach",
    "city": "Saint Jean de Luz",
    "description": "Grande Plage"
  },
  {
    "latitude": -3.40378,
    "longitude": 47.70284,
    "name": "Beach",
    "city": "Larmor-Plage",
    "description": "plage de Kerquelen"
  },
  {
    "latitude": -4.24264,
    "longitude": 47.79256,
    "name": "Beach",
    "city": "Treffiagat",
    "description": "Skividen"
  },
  {
    "latitude": -1.21168,
    "longitude": 44.60108,
    "name": "Beach",
    "city": "La Teste de Buch",
    "description": "plage de la Corniche"
  },
  {
    "latitude": -4.35412,
    "longitude": 48.10297,
    "name": "Beach",
    "city": "Plage des Sables Blancs",
    "description": ""
  },
  {
    "latitude": 6.4288,
    "longitude": 43.15169,
    "name": "Beach",
    "city": "Cavaliere",
    "description": "plage"
  },
  {
    "latitude": 6.96521,
    "longitude": 43.54323,
    "name": "Beach",
    "city": "Cannes",
    "description": "plage de la Bocca"
  },
  {
    "latitude": -1.41709,
    "longitude": 49.70135,
    "name": "Beach",
    "city": "Cosqueville",
    "description": "plage Sablon"
  },
  {
    "latitude": -0.99559,
    "longitude": 45.60003,
    "name": "Beach",
    "city": "Saint Georges de Didonne",
    "description": "plage"
  },
  {
    "latitude": 9.33718,
    "longitude": 41.55908,
    "name": "Beach",
    "city": "Palombaggia - Porto Vecchio",
    "description": "plage"
  },
  {
    "latitude": 9.3478,
    "longitude": 42.96447,
    "name": "Beach",
    "city": "Centuri Port",
    "description": "plage"
  },
  {
    "latitude": -4.77008,
    "longitude": 48.36519,
    "name": "Beach",
    "city": "Plage des Blancs Sablons",
    "description": ""
  },
  {
    "latitude": -4.5538,
    "longitude": 48.36172,
    "name": "Beach",
    "city": "Brest",
    "description": "plage Sainte Anne"
  },
  {
    "latitude": 9.23352,
    "longitude": 42.71991,
    "name": "Beach",
    "city": "Loto",
    "description": "plage"
  },
  {
    "latitude": -1.6831,
    "longitude": 43.39014,
    "name": "Beach",
    "city": "Ciboure",
    "description": "plage de Ciboure"
  },
  {
    "latitude": -2.48881,
    "longitude": 47.46732,
    "name": "Beach",
    "city": "Penestin",
    "description": "plage de Poudrantais"
  },
  {
    "latitude": -2.29201,
    "longitude": 47.0076,
    "name": "Beach",
    "city": "Noirmoutier en l'Ile",
    "description": "plage de Luzeronde"
  },
  {
    "latitude": -2.49746,
    "longitude": 48.60763,
    "name": "Beach",
    "city": "Pleneuf Val Andre",
    "description": "plage de la Ville Berneuf"
  },
  {
    "latitude": -1.98335,
    "longitude": 48.66999,
    "name": "Beach",
    "city": "Plage du Mihinic",
    "description": ""
  },
  {
    "latitude": 7.42836,
    "longitude": 43.73813,
    "name": "Beach",
    "city": "Plage du Larvotto",
    "description": ""
  },
  {
    "latitude": 9.2224,
    "longitude": 41.43954,
    "name": "Beach",
    "city": "Balistra",
    "description": "plage"
  },
  {
    "latitude": -1.51244,
    "longitude": 46.25788,
    "name": "Beach",
    "city": "Les Portes en Re",
    "description": "plage Lizay"
  },
  {
    "latitude": -3.13738,
    "longitude": 47.32837,
    "name": "Beach",
    "city": "Le Palais",
    "description": "plage de Port Yorc h"
  },
  {
    "latitude": 6.59503,
    "longitude": 43.28453,
    "name": "Beach",
    "city": "Port Grimaud",
    "description": "plage de l'Europe"
  },
  {
    "latitude": 6.55661,
    "longitude": 43.18849,
    "name": "Beach",
    "city": "La Croix Valmer",
    "description": "plage Le Debarquement"
  },
  {
    "latitude": -1.71472,
    "longitude": 46.45898,
    "name": "Beach",
    "city": "Chateau d'Olonne",
    "description": "plage Cayola"
  },
  {
    "latitude": -4.46165,
    "longitude": 48.62748,
    "name": "Beach",
    "city": "Plage du Vougo",
    "description": ""
  },
  {
    "latitude": 7.02435,
    "longitude": 43.54968,
    "name": "Beach",
    "city": "Cannes",
    "description": "plage de la Croisette"
  },
  {
    "latitude": 7.11042,
    "longitude": 43.56825,
    "name": "Beach",
    "city": "Juan les Pins",
    "description": "plage La Juanita"
  },
  {
    "latitude": -1.43846,
    "longitude": 43.70139,
    "name": "Beach",
    "city": "Plage des Bourdaines",
    "description": ""
  },
  {
    "latitude": 9.47308,
    "longitude": 42.87726,
    "name": "Beach",
    "city": "Porticciolo",
    "description": "plage"
  },
  {
    "latitude": 4.42721,
    "longitude": 43.44951,
    "name": "Beach",
    "city": "Saintes Maries de la Mer",
    "description": "plage des Arenes"
  },
  {
    "latitude": -1.05793,
    "longitude": 44.70938,
    "name": "Beach",
    "city": "Cassy",
    "description": "plage"
  },
  {
    "latitude": 3.15594,
    "longitude": 42.46054,
    "name": "Beach",
    "city": "Cerbere",
    "description": "petite plage"
  },
  {
    "latitude": -3.18253,
    "longitude": 47.2995,
    "name": "Beach",
    "city": "Bangor",
    "description": "plage de Dodchaul"
  },
  {
    "latitude": -4.42385,
    "longitude": 47.96299,
    "name": "Beach",
    "city": "Plozevet",
    "description": "plage"
  },
  {
    "latitude": -1.52319,
    "longitude": 43.34677,
    "name": "Beach",
    "city": "Saint Pee sur Nivelle",
    "description": "plage Aintzira-Le Lac"
  },
  {
    "latitude": 6.52091,
    "longitude": 43.16511,
    "name": "Beach",
    "city": "Cavalaire sur Mer",
    "description": "plage de Bonporteau"
  },
  {
    "latitude": 9.40132,
    "longitude": 41.70664,
    "name": "Beach",
    "city": "Conca",
    "description": "plage"
  },
  {
    "latitude": -3.57851,
    "longitude": 48.78249,
    "name": "Beach",
    "city": "Trebeurden",
    "description": "plage Gooz Trez"
  },
  {
    "latitude": 3.76052,
    "longitude": 43.42821,
    "name": "Beach",
    "city": "Frontignan",
    "description": "plage"
  },
  {
    "latitude": 9.38127,
    "longitude": 41.66309,
    "name": "Beach",
    "city": "Cirendinu",
    "description": "plage"
  },
  {
    "latitude": -3.12501,
    "longitude": 47.56795,
    "name": "Beach",
    "city": "Plage des Sables Blancs",
    "description": ""
  },
  {
    "latitude": -1.19948,
    "longitude": 44.64599,
    "name": "Beach",
    "city": "Les Abatilles",
    "description": "plage"
  },
  {
    "latitude": -1.55908,
    "longitude": 43.48469,
    "name": "Beach",
    "city": "Biarritz",
    "description": "Grande plage"
  },
  {
    "latitude": -2.92435,
    "longitude": 48.70751,
    "name": "Beach",
    "city": "Plouha",
    "description": "plage Bonaparte"
  },
  {
    "latitude": 3.36792,
    "longitude": 43.27861,
    "name": "Beach",
    "city": "Vias",
    "description": "plage de la Redoute"
  },
  {
    "latitude": -2.85487,
    "longitude": 47.58349,
    "name": "Beach",
    "city": "Plage du Gored",
    "description": ""
  },
  {
    "latitude": 3.51122,
    "longitude": 43.27462,
    "name": "Beach",
    "city": "Cap d'Agde",
    "description": "plagette"
  },
  {
    "latitude": -4.16477,
    "longitude": 47.82121,
    "name": "Beach",
    "city": "Loctudy",
    "description": "plage Kervilzic"
  },
  {
    "latitude": -5.09952,
    "longitude": 48.44473,
    "name": "Beach",
    "city": "Plage du Prat",
    "description": ""
  },
  {
    "latitude": -2.75613,
    "longitude": 48.56415,
    "name": "Beach",
    "city": "Plerin",
    "description": "plage des Rosaires"
  },
  {
    "latitude": -1.49923,
    "longitude": 46.25799,
    "name": "Beach",
    "city": "Les Portes en Re",
    "description": "plage Marchais"
  },
  {
    "latitude": 3.51374,
    "longitude": 43.27585,
    "name": "Beach",
    "city": "Cap d'Agde",
    "description": "plage la Conque"
  },
  {
    "latitude": -3.97958,
    "longitude": 47.85749,
    "name": "Beach",
    "city": "Beg-Meil",
    "description": "plage des Oiseaux"
  },
  {
    "latitude": -3.45335,
    "longitude": 48.8159,
    "name": "Beach",
    "city": "Perros-Guirec",
    "description": "plage de Trestraou"
  },
  {
    "latitude": 3.44574,
    "longitude": 43.283,
    "name": "Beach",
    "city": "Cap d'Agde",
    "description": "plage du Grau d'Agde"
  },
  {
    "latitude": -1.9,
    "longitude": 48.6833,
    "name": "Beach",
    "city": "Saint Coulomb",
    "description": "plage des Chevrets"
  },
  {
    "latitude": -4.2031,
    "longitude": 47.79987,
    "name": "Beach",
    "city": "Plage des Sables Blancs",
    "description": ""
  },
  {
    "latitude": 5.11452,
    "longitude": 43.32931,
    "name": "Beach",
    "city": "Sausset les Pins",
    "description": "plage du Village"
  },
  {
    "latitude": -1.38004,
    "longitude": 46.17201,
    "name": "Beach",
    "city": "Le Bois-Plage en Re",
    "description": "plage du Gros Jonc"
  },
  {
    "latitude": 6.01746,
    "longitude": 43.09907,
    "name": "Beach",
    "city": "Le Pradet",
    "description": "plage les Bonnettes"
  },
  {
    "latitude": -3.57914,
    "longitude": 48.76601,
    "name": "Beach",
    "city": "Plage de Tresmeur",
    "description": ""
  },
  {
    "latitude": -2.21632,
    "longitude": 47.1249,
    "name": "Beach",
    "city": "Prefailles",
    "description": "plage Margareth"
  },
  {
    "latitude": -1.64252,
    "longitude": 49.2239,
    "name": "Beach",
    "city": "Saint Germain sur Ay",
    "description": "plage"
  },
  {
    "latitude": -3.4371,
    "longitude": 48.81062,
    "name": "Beach",
    "city": "Perros-Guirec",
    "description": "plage des Arcades"
  },
  {
    "latitude": 6.69222,
    "longitude": 43.25939,
    "name": "Beach",
    "city": "Saint Tropez",
    "description": "plage Les Salins"
  },
  {
    "latitude": 6.44038,
    "longitude": 43.14571,
    "name": "Beach",
    "city": "Plage du Cap Negre",
    "description": ""
  },
  {
    "latitude": -2.66317,
    "longitude": 48.53118,
    "name": "Beach",
    "city": "Hillion",
    "description": "plage Lermot"
  },
  {
    "latitude": 8.77136,
    "longitude": 41.92803,
    "name": "Beach",
    "city": "Plage du Ricanto",
    "description": ""
  },
  {
    "latitude": 7.38978,
    "longitude": 43.72302,
    "name": "Beach",
    "city": "Cap d'Ail",
    "description": "plage Mala"
  },
  {
    "latitude": 3.033,
    "longitude": 42.93959,
    "name": "Beach",
    "city": "La Franqui",
    "description": "plage du village 2"
  },
  {
    "latitude": -4.47835,
    "longitude": 47.99039,
    "name": "Beach",
    "city": "Plouhinec",
    "description": "plage Guendrez"
  },
  {
    "latitude": -1.24587,
    "longitude": 44.70797,
    "name": "Beach",
    "city": "Le Canon",
    "description": "plage Truc vert - Le Canon"
  },
  {
    "latitude": -2.86468,
    "longitude": 48.67203,
    "name": "Beach",
    "city": "Treveneuc",
    "description": "plage de Port Goret"
  },
  {
    "latitude": -4.13464,
    "longitude": 47.86161,
    "name": "Beach",
    "city": "Combrit",
    "description": "plage Kermor"
  },
  {
    "latitude": -1.6104,
    "longitude": 49.08259,
    "name": "Beach",
    "city": "Blainville sur Mer",
    "description": "plage de Gonneville"
  },
  {
    "latitude": -2.1786,
    "longitude": 47.12196,
    "name": "Beach",
    "city": "Pornic",
    "description": "plage L Etang"
  },
  {
    "latitude": -1.20418,
    "longitude": 44.64168,
    "name": "Beach",
    "city": "Le Pyla",
    "description": "plage Le Mouleau"
  },
  {
    "latitude": -4.33674,
    "longitude": 48.67582,
    "name": "Beach",
    "city": "Brignogan-Plage",
    "description": "plage des Chardons Bleus"
  },
  {
    "latitude": 4.12451,
    "longitude": 43.54652,
    "name": "Beach",
    "city": "Le Boucanet",
    "description": "plage"
  },
  {
    "latitude": 9.45197,
    "longitude": 42.96448,
    "name": "Beach",
    "city": "Rogliano",
    "description": "plage"
  },
  {
    "latitude": -3.58342,
    "longitude": 48.77392,
    "name": "Beach",
    "city": "Trebeurden",
    "description": "plage Porz Termenl"
  },
  {
    "latitude": -1.36185,
    "longitude": 46.16132,
    "name": "Beach",
    "city": "Le Bois-Plage en Re",
    "description": "plage des Grenettes"
  },
  {
    "latitude": 8.62335,
    "longitude": 41.93591,
    "name": "Beach",
    "city": "Minaccia",
    "description": "plage"
  },
  {
    "latitude": 5.36074,
    "longitude": 43.23586,
    "name": "Beach",
    "city": "Marseille",
    "description": "plage de la Verrerie"
  },
  {
    "latitude": -4.34523,
    "longitude": 48.10092,
    "name": "Beach",
    "city": "Douarnenez",
    "description": "plage Saint Jean"
  },
  {
    "latitude": -1.2213,
    "longitude": 46.27415,
    "name": "Beach",
    "city": "L Aiguillon sur Mer",
    "description": "plage de la Batterie"
  },
  {
    "latitude": 5.92852,
    "longitude": 43.07214,
    "name": "Beach",
    "city": "Saint Mandrier sur Mer",
    "description": "plage de la Coudouliere"
  },
  {
    "latitude": -4.69709,
    "longitude": 48.35207,
    "name": "Beach",
    "city": "Plage Sainte-Anne",
    "description": ""
  },
  {
    "latitude": -1.46751,
    "longitude": 46.20293,
    "name": "Beach",
    "city": "La Couarde sur Mer",
    "description": "plage du Moulin Brule"
  },
  {
    "latitude": -1.62844,
    "longitude": 46.41721,
    "name": "Beach",
    "city": "Jard sur Mer",
    "description": "plage de la Mine"
  },
  {
    "latitude": 8.87861,
    "longitude": 41.65307,
    "name": "Beach",
    "city": "Propriano",
    "description": "plage de Portigliolo"
  },
  {
    "latitude": -4.30492,
    "longitude": 48.66582,
    "name": "Beach",
    "city": "Plouneour Trez",
    "description": "plage de Lividic"
  },
  {
    "latitude": -4.5625,
    "longitude": 48.62088,
    "name": "Beach",
    "city": "Plouguerneau",
    "description": "plage de Kervenni"
  },
  {
    "latitude": -2.6058,
    "longitude": 48.55082,
    "name": "Beach",
    "city": "Planguenoual",
    "description": "plage de Jospinet"
  },
  {
    "latitude": -3.96504,
    "longitude": 47.89659,
    "name": "Beach",
    "city": "La Foret Fouesnant",
    "description": "plage de Kerleven"
  },
  {
    "latitude": 3.15993,
    "longitude": 42.45899,
    "name": "Beach",
    "city": "Platja de Perafita",
    "description": ""
  },
  {
    "latitude": -1.57396,
    "longitude": 43.46421,
    "name": "Beach",
    "city": "Biarritz",
    "description": "plage La Milady"
  },
  {
    "latitude": -4.34913,
    "longitude": 47.85248,
    "name": "Beach",
    "city": "Saint Jean Trolimon",
    "description": "plage Tronoen"
  },
  {
    "latitude": 7.10618,
    "longitude": 43.56982,
    "name": "Beach",
    "city": "Juan les Pins",
    "description": "plage Le Lido"
  },
  {
    "latitude": -3.9232,
    "longitude": 48.67192,
    "name": "Beach",
    "city": "Carantec",
    "description": "plage du Port"
  },
  {
    "latitude": -1.09207,
    "longitude": 45.98375,
    "name": "Beach",
    "city": "Fouras",
    "description": "plage"
  },
  {
    "latitude": -1.44853,
    "longitude": 46.34086,
    "name": "Beach",
    "city": "Plage des Generelles",
    "description": ""
  },
  {
    "latitude": 5.37055,
    "longitude": 43.24403,
    "name": "Beach",
    "city": "Marseille",
    "description": "plage de la Pointe Rouge"
  },
  {
    "latitude": -2.14379,
    "longitude": 48.62519,
    "name": "Beach",
    "city": "Saint Briac sur Mer",
    "description": "plage"
  },
  {
    "latitude": -4.54932,
    "longitude": 48.0114,
    "name": "Beach",
    "city": "Audierne",
    "description": "plage"
  },
  {
    "latitude": -2.40637,
    "longitude": 48.6413,
    "name": "Beach",
    "city": "Frehel",
    "description": "plage des Sables d'Or les Pins"
  },
  {
    "latitude": 9.32493,
    "longitude": 41.55785,
    "name": "Beach",
    "city": "Palombaggia",
    "description": "plage"
  },
  {
    "latitude": -1.31815,
    "longitude": 46.31825,
    "name": "Beach",
    "city": "La Faute sur Mer",
    "description": "plage Barrique"
  },
  {
    "latitude": -3.54939,
    "longitude": 48.7458,
    "name": "Beach",
    "city": "Trebeurden",
    "description": "plage Gwel a Gorn"
  },
  {
    "latitude": -2.47825,
    "longitude": 48.61873,
    "name": "Beach",
    "city": "Erquy",
    "description": "plage de Caroual"
  },
  {
    "latitude": 6.74417,
    "longitude": 43.4175,
    "name": "Beach",
    "city": "Frejus",
    "description": "plage Base Nature"
  },
  {
    "latitude": 6.53476,
    "longitude": 43.17581,
    "name": "Beach",
    "city": "Cavalaire",
    "description": "plage du Centre Ville"
  },
  {
    "latitude": -4.59815,
    "longitude": 48.28172,
    "name": "Beach",
    "city": "Camaret",
    "description": "plage Correjout"
  },
  {
    "latitude": -1.45286,
    "longitude": 46.19876,
    "name": "Beach",
    "city": "La Couarde sur Mer",
    "description": "plage des Prises"
  },
  {
    "latitude": -3.89576,
    "longitude": 48.67154,
    "name": "Beach",
    "city": "Plage de Roc g Gored",
    "description": ""
  },
  {
    "latitude": 8.71566,
    "longitude": 42.08342,
    "name": "Beach",
    "city": "Plage de San Giuseppe",
    "description": ""
  },
  {
    "latitude": 6.63414,
    "longitude": 43.17271,
    "name": "Beach",
    "city": "Ramatuelle",
    "description": "plage La Briande"
  },
  {
    "latitude": 8.90249,
    "longitude": 41.50809,
    "name": "Beach",
    "city": "Sartene",
    "description": "plage d'Erbaju"
  },
  {
    "latitude": -0.57843,
    "longitude": 44.87845,
    "name": "Beach",
    "city": "Bordeaux",
    "description": "plage de Bordeaux - Lac"
  },
  {
    "latitude": -1.47656,
    "longitude": 46.23183,
    "name": "Beach",
    "city": "Les Portes en Re",
    "description": "plage Trousse Chemise"
  },
  {
    "latitude": -1.64167,
    "longitude": 43.40704,
    "name": "Beach",
    "city": "Saint Jean de Luz",
    "description": "plage d'Erromardie"
  },
  {
    "latitude": -4.42567,
    "longitude": 48.22942,
    "name": "Beach",
    "city": "Raguenes",
    "description": "plage de la Source"
  },
  {
    "latitude": -2.22147,
    "longitude": 47.12799,
    "name": "Beach",
    "city": "Prefailles",
    "description": "Grande plage"
  },
  {
    "latitude": -1.16087,
    "longitude": 46.15535,
    "name": "Beach",
    "city": "La Rochelle",
    "description": "plage Concurrence"
  },
  {
    "latitude": -2.20216,
    "longitude": 47.15755,
    "name": "Beach",
    "city": "La Plaine sur Mer",
    "description": "plage de Mouton (La Gravette)"
  },
  {
    "latitude": 4.94458,
    "longitude": 43.43003,
    "name": "Beach",
    "city": "Fos sur Mer",
    "description": "Grande plage"
  },
  {
    "latitude": -1.10309,
    "longitude": 44.34588,
    "name": "Beach",
    "city": "Parentis en Born",
    "description": "plage"
  },
  {
    "latitude": 9.10472,
    "longitude": 41.42635,
    "name": "Beach",
    "city": "Tonnara",
    "description": "plage"
  },
  {
    "latitude": -3.5486,
    "longitude": 47.76617,
    "name": "Beach",
    "city": "Clohars-Carnoet",
    "description": "plage des Grands Sables"
  },
  {
    "latitude": 9.0369,
    "longitude": 41.47064,
    "name": "Beach",
    "city": "Chevanu",
    "description": "plage"
  },
  {
    "latitude": 1.18316,
    "longitude": 47.3409,
    "name": "Beach",
    "city": "Montrichard",
    "description": "plage Le Cher - Fleuve"
  },
  {
    "latitude": -1.30159,
    "longitude": 44.20734,
    "name": "Beach",
    "city": "Plage-Sud",
    "description": ""
  },
  {
    "latitude": 6.01991,
    "longitude": 43.09849,
    "name": "Beach",
    "city": "Plage des Bonnettes",
    "description": ""
  },
  {
    "latitude": 6.20207,
    "longitude": 43.11677,
    "name": "Beach",
    "city": "Hyeres",
    "description": "plage des Salins"
  },
  {
    "latitude": 8.61601,
    "longitude": 42.1333,
    "name": "Beach",
    "city": "Menasina",
    "description": "plage"
  },
  {
    "latitude": -2.11484,
    "longitude": 46.80243,
    "name": "Beach",
    "city": "Saint Jean de Monts",
    "description": "plage Paree du Jonc"
  },
  {
    "latitude": -2.08309,
    "longitude": 47.1034,
    "name": "Beach",
    "city": "Pornic",
    "description": "plage La Joseliere"
  },
  {
    "latitude": -2.27068,
    "longitude": 47.2398,
    "name": "Beach",
    "city": "Saint Nazaire",
    "description": "plage de la Courance"
  },
  {
    "latitude": -2.28649,
    "longitude": 48.6307,
    "name": "Beach",
    "city": "Saint Cast le Guildo",
    "description": "plage Fosse"
  },
  {
    "latitude": 9.41386,
    "longitude": 41.95981,
    "name": "Beach",
    "city": "Quercioni",
    "description": "plage"
  },
  {
    "latitude": 8.62335,
    "longitude": 41.92676,
    "name": "Beach",
    "city": "Plage Saint-Antoine",
    "description": ""
  },
  {
    "latitude": -1.21879,
    "longitude": 44.5863,
    "name": "Beach",
    "city": "Plage du Petit Nice",
    "description": ""
  },
  {
    "latitude": -2.09708,
    "longitude": 47.10701,
    "name": "Beach",
    "city": "Pornic",
    "description": "plage La Source (Thalassotherapie)"
  },
  {
    "latitude": -3.17287,
    "longitude": 47.35976,
    "name": "Beach",
    "city": "Le Palais",
    "description": "plage de Porh Fouquet"
  },
  {
    "latitude": -1.20834,
    "longitude": 44.9175,
    "name": "Beach",
    "city": "Le Porge",
    "description": "plage sauvage"
  },
  {
    "latitude": -2.86256,
    "longitude": 47.52643,
    "name": "Beach",
    "city": "Saint Gildas de Rhuys",
    "description": "plage de Kervert"
  },
  {
    "latitude": -4.41715,
    "longitude": 48.2271,
    "name": "Beach",
    "city": "Crozon",
    "description": "plage Poul"
  },
  {
    "latitude": -2.24366,
    "longitude": 46.96477,
    "name": "Beach",
    "city": "La Gueriniere",
    "description": "plage Cantine"
  },
  {
    "latitude": 6.59775,
    "longitude": 43.18425,
    "name": "Beach",
    "city": "La Croix Valmer",
    "description": "plage Gigaro"
  },
  {
    "latitude": -4.16952,
    "longitude": 47.81387,
    "name": "Beach",
    "city": "Loctudy",
    "description": "plage Ezer"
  },
  {
    "latitude": 5.3532,
    "longitude": 43.21259,
    "name": "Beach",
    "city": "Marseille",
    "description": "plage de Callelongue"
  },
  {
    "latitude": -5.10609,
    "longitude": 48.47008,
    "name": "Beach",
    "city": "Plage du Yuzin",
    "description": ""
  },
  {
    "latitude": -2.54516,
    "longitude": 47.52168,
    "name": "Beach",
    "city": "Plage de Treherve",
    "description": ""
  },
  {
    "latitude": -2.06858,
    "longitude": 46.78097,
    "name": "Beach",
    "city": "Saint Jean de Monts",
    "description": "plage des Demoiselles"
  },
  {
    "latitude": -4.26314,
    "longitude": 48.64974,
    "name": "Beach",
    "city": "Treflez",
    "description": "plage Ker Emma"
  },
  {
    "latitude": -3.58187,
    "longitude": 48.76789,
    "name": "Beach",
    "city": "Trebeurden",
    "description": "plage de Tresmeur"
  },
  {
    "latitude": 7.50816,
    "longitude": 43.77881,
    "name": "Beach",
    "city": "Menton",
    "description": "plage des Sablettes"
  },
  {
    "latitude": 9.40336,
    "longitude": 41.74859,
    "name": "Beach",
    "city": "Conca",
    "description": "plage"
  },
  {
    "latitude": -1.72557,
    "longitude": 49.32897,
    "name": "Beach",
    "city": "Portbail",
    "description": "La Plage"
  },
  {
    "latitude": 9.33227,
    "longitude": 42.7208,
    "name": "Beach",
    "city": "Farinole",
    "description": "plage"
  },
  {
    "latitude": 3.11963,
    "longitude": 42.52097,
    "name": "Beach",
    "city": "Port-Vendre",
    "description": "plage (village)"
  },
  {
    "latitude": 6.93113,
    "longitude": 43.48388,
    "name": "Beach",
    "city": "Theoule sur mer",
    "description": "plage de la Figueirette"
  },
  {
    "latitude": 5.54432,
    "longitude": 43.21104,
    "name": "Beach",
    "city": "Cassis",
    "description": "plage du Carton"
  },
  {
    "latitude": -2.83588,
    "longitude": 47.49396,
    "name": "Beach",
    "city": "Port Maria Plage",
    "description": ""
  },
  {
    "latitude": -1.18776,
    "longitude": 45.08532,
    "name": "Beach",
    "city": "Carcans",
    "description": "plage - ocean"
  },
  {
    "latitude": -0.27009,
    "longitude": 49.29185,
    "name": "Beach",
    "city": "Sword Beach",
    "description": ""
  },
  {
    "latitude": -4.56079,
    "longitude": 48.25861,
    "name": "Beach",
    "city": "Camaret",
    "description": "plage Kerloc h"
  },
  {
    "latitude": 5.53809,
    "longitude": 43.21343,
    "name": "Beach",
    "city": "Cassis",
    "description": "plage de la Grande Mer"
  },
  {
    "latitude": -1.62506,
    "longitude": 43.41828,
    "name": "Beach",
    "city": "Saint Jean de Luz",
    "description": "plage de Maiarko"
  },
  {
    "latitude": -1.24392,
    "longitude": 44.71425,
    "name": "Beach",
    "city": "Le Canon",
    "description": "plage du Truc Vert"
  },
  {
    "latitude": -2.22247,
    "longitude": 47.26637,
    "name": "Beach",
    "city": "Plage du Grand Traict",
    "description": ""
  },
  {
    "latitude": -1.32975,
    "longitude": 46.1499,
    "name": "Beach",
    "city": "Sainte Marie de Re",
    "description": "plage de la Salee"
  },
  {
    "latitude": 9.55294,
    "longitude": 42.12014,
    "name": "Beach",
    "city": "Padulone",
    "description": "plage"
  },
  {
    "latitude": -3.07708,
    "longitude": 47.28862,
    "name": "Beach",
    "city": "Locmaria",
    "description": "plage de Port Blanc"
  },
  {
    "latitude": 9.5248,
    "longitude": 42.56686,
    "name": "Beach",
    "city": "Marana",
    "description": "plage"
  },
  {
    "latitude": 8.68754,
    "longitude": 42.28208,
    "name": "Beach",
    "city": "Bussaglia",
    "description": "plage"
  },
  {
    "latitude": -0.57934,
    "longitude": 49.34236,
    "name": "Beach",
    "city": "Roseau Plage",
    "description": ""
  },
  {
    "latitude": 5.26072,
    "longitude": 43.34191,
    "name": "Beach",
    "city": "La Vanesse",
    "description": "plage"
  },
  {
    "latitude": 6.77208,
    "longitude": 43.41903,
    "name": "Beach",
    "city": "Saint Raphael",
    "description": "plage de la Pointe de l'Aiguille"
  },
  {
    "latitude": -1.2325,
    "longitude": 44.69016,
    "name": "Beach",
    "city": "L Herbe",
    "description": "plage"
  },
  {
    "latitude": -2.51682,
    "longitude": 48.59987,
    "name": "Beach",
    "city": "Plage du Nantois",
    "description": ""
  },
  {
    "latitude": -3.14888,
    "longitude": 47.34377,
    "name": "Beach",
    "city": "Plage de Ramonette",
    "description": ""
  },
  {
    "latitude": -2.28408,
    "longitude": 46.69318,
    "name": "Beach",
    "city": "L Ile d'Yeu",
    "description": "plage de la Grande Conche"
  },
  {
    "latitude": -3.84027,
    "longitude": 48.69683,
    "name": "Beach",
    "city": "Plougasnou",
    "description": "plage Guerzit"
  },
  {
    "latitude": 8.59133,
    "longitude": 42.17073,
    "name": "Beach",
    "city": "Chiuni",
    "description": "plage"
  },
  {
    "latitude": 9.52558,
    "longitude": 42.56742,
    "name": "Beach",
    "city": "Biguglia",
    "description": "plage"
  },
  {
    "latitude": 8.70628,
    "longitude": 41.73868,
    "name": "Beach",
    "city": "Biancu",
    "description": "plage ce Cupabia"
  },
  {
    "latitude": -2.24826,
    "longitude": 48.62606,
    "name": "Beach",
    "city": "Saint Cast le Guildo",
    "description": "La Grande Plage"
  },
  {
    "latitude": 5.07028,
    "longitude": 43.33217,
    "name": "Beach",
    "city": "La Couronne",
    "description": "anse de Ste Croix"
  },
  {
    "latitude": -2.2447,
    "longitude": 48.61417,
    "name": "Beach",
    "city": "Saint Cast le Guildo",
    "description": "plage de Pen-Guen"
  },
  {
    "latitude": 3.0466,
    "longitude": 42.55743,
    "name": "Beach",
    "city": "Argeles sur Mer",
    "description": "plage (le village)"
  },
  {
    "latitude": -1.37252,
    "longitude": 46.03943,
    "name": "Beach",
    "city": "Saint Denis",
    "description": "plage Soubregeon"
  },
  {
    "latitude": -4.6719,
    "longitude": 48.06057,
    "name": "Beach",
    "city": "Cleden Cap Sizun",
    "description": "plage Theolen"
  },
  {
    "latitude": -1.43762,
    "longitude": 46.34052,
    "name": "Beach",
    "city": "La Tranche sur Mer",
    "description": "Grande plage"
  },
  {
    "latitude": -2.82417,
    "longitude": 48.59954,
    "name": "Beach",
    "city": "Binic",
    "description": "plage centre"
  },
  {
    "latitude": 3.36111,
    "longitude": 43.27666,
    "name": "Beach",
    "city": "Portiragne",
    "description": "plage"
  },
  {
    "latitude": -2.14701,
    "longitude": 46.86266,
    "name": "Beach",
    "city": "La Barre de Monts",
    "description": "plage Lays"
  },
  {
    "latitude": -3.25607,
    "longitude": 47.36868,
    "name": "Beach",
    "city": "Sauzon",
    "description": "plage de Koh Kastell"
  },
  {
    "latitude": 5.82075,
    "longitude": 43.0598,
    "name": "Beach",
    "city": "Six Fours les Plages",
    "description": "plage de la Fosse"
  },
  {
    "latitude": -4.16992,
    "longitude": 47.81391,
    "name": "Beach",
    "city": "Loctudy",
    "description": "plage de Lodonnec"
  },
  {
    "latitude": -1.97325,
    "longitude": 48.68326,
    "name": "Beach",
    "city": "Saint Malo",
    "description": "plage Val"
  },
  {
    "latitude": -4.35997,
    "longitude": 47.82676,
    "name": "Beach",
    "city": "Penmarch",
    "description": "plage Porz Carn"
  },
  {
    "latitude": 6.15022,
    "longitude": 43.06387,
    "name": "Beach",
    "city": "Hyeres",
    "description": "plage de Port de La Capte"
  },
  {
    "latitude": -2.16781,
    "longitude": 48.59795,
    "name": "Beach",
    "city": "Lancieux",
    "description": "plage Briantais"
  },
  {
    "latitude": 6.44857,
    "longitude": 43.15272,
    "name": "Beach",
    "city": "Plage de Pramousquier",
    "description": ""
  },
  {
    "latitude": -2.14182,
    "longitude": 48.6328,
    "name": "Beach",
    "city": "Saint Briac sur Mer",
    "description": "plage"
  },
  {
    "latitude": -2.17304,
    "longitude": 47.1605,
    "name": "Beach",
    "city": "La Plaine sur Mer",
    "description": "plage Le Cormier"
  },
  {
    "latitude": -3.43145,
    "longitude": 48.81901,
    "name": "Beach",
    "city": "Perros-Guirec",
    "description": "plage de Trestrignel"
  },
  {
    "latitude": 4.97363,
    "longitude": 43.41689,
    "name": "Beach",
    "city": "Port de Bouc",
    "description": "plage Bottai"
  },
  {
    "latitude": -1.5781,
    "longitude": 43.46061,
    "name": "Beach",
    "city": "Biarritz",
    "description": "plage d'Ilbaritz"
  },
  {
    "latitude": 2.37845,
    "longitude": 47.59339,
    "name": "Beach",
    "city": "Cerdon",
    "description": "plage (Etang du Puits - D765)"
  },
  {
    "latitude": -2.30925,
    "longitude": 48.64144,
    "name": "Beach",
    "city": "Frehel",
    "description": "plage de Chateau Serein"
  },
  {
    "latitude": 7.49518,
    "longitude": 43.77042,
    "name": "Beach",
    "city": "Menton",
    "description": "plage Borrigo"
  },
  {
    "latitude": 8.70169,
    "longitude": 42.11258,
    "name": "Beach",
    "city": "Sagone",
    "description": "plage"
  },
  {
    "latitude": -1.20131,
    "longitude": 45.0056,
    "name": "Beach",
    "city": "Lacanau",
    "description": "plage Nord"
  },
  {
    "latitude": -1.53242,
    "longitude": 46.20227,
    "name": "Beach",
    "city": "Ars en Re",
    "description": "plage Grange"
  },
  {
    "latitude": -2.24297,
    "longitude": 48.61266,
    "name": "Beach",
    "city": "Saint Cast le Guildo",
    "description": "plage de Pen-Guen"
  },
  {
    "latitude": -3.89938,
    "longitude": 48.67086,
    "name": "Beach",
    "city": "Carantec",
    "description": "plage Cosmeur"
  },
  {
    "latitude": -1.51008,
    "longitude": 46.40186,
    "name": "Beach",
    "city": "Plage du Petit Rocher",
    "description": ""
  },
  {
    "latitude": -1.09642,
    "longitude": 44.97978,
    "name": "Beach",
    "city": "Lacanau",
    "description": "plage - ville"
  },
  {
    "latitude": -4.34699,
    "longitude": 48.67674,
    "name": "Beach",
    "city": "Brignogan-Plage",
    "description": "plage du Phare"
  },
  {
    "latitude": 6.17504,
    "longitude": 43.10208,
    "name": "Beach",
    "city": "Hyeres",
    "description": "plage"
  },
  {
    "latitude": 5.79088,
    "longitude": 43.07626,
    "name": "Beach",
    "city": "Plage du Grand Gaou",
    "description": ""
  },
  {
    "latitude": 5.37511,
    "longitude": 43.24982,
    "name": "Beach",
    "city": "Marseille",
    "description": "plage de la vieille Chapelle"
  },
  {
    "latitude": -4.04587,
    "longitude": 48.70407,
    "name": "Beach",
    "city": "Plage de Trevenn",
    "description": ""
  },
  {
    "latitude": -2.31397,
    "longitude": 46.71503,
    "name": "Beach",
    "city": "Plage des Sapins",
    "description": ""
  },
  {
    "latitude": 4.78253,
    "longitude": 43.35133,
    "name": "Beach",
    "city": "Salins de Giraud",
    "description": "plage d'Arles"
  },
  {
    "latitude": -1.05194,
    "longitude": 45.62652,
    "name": "Beach",
    "city": "Pontaillac",
    "description": ""
  },
  {
    "latitude": -2.65425,
    "longitude": 48.52547,
    "name": "Beach",
    "city": "Hillion",
    "description": "plage du Bon Abri"
  },
  {
    "latitude": -3.35445,
    "longitude": 48.82015,
    "name": "Beach",
    "city": "Trevou-Treguignec",
    "description": "plage du Trestel"
  },
  {
    "latitude": -1.14055,
    "longitude": 45.06998,
    "name": "Beach",
    "city": "Maubuisson",
    "description": "plage"
  },
  {
    "latitude": -1.48446,
    "longitude": 46.20022,
    "name": "Beach",
    "city": "Ars en Re",
    "description": "plage Martray"
  },
  {
    "latitude": -4.79153,
    "longitude": 48.41268,
    "name": "Beach",
    "city": "Plouarzel",
    "description": "plage pres de la Pointe de Corsen"
  },
  {
    "latitude": 7.03946,
    "longitude": 43.53927,
    "name": "Beach",
    "city": "Plage Gazagnaire",
    "description": ""
  },
  {
    "latitude": 8.80554,
    "longitude": 42.57662,
    "name": "Beach",
    "city": "Lumio",
    "description": "plage Arinella"
  },
  {
    "latitude": 5.53079,
    "longitude": 43.21304,
    "name": "Beach",
    "city": "Cassis",
    "description": "plage du Bestouan"
  },
  {
    "latitude": -1.49425,
    "longitude": 46.38937,
    "name": "Beach",
    "city": "Longeville sur Mer",
    "description": "plage Conches"
  },
  {
    "latitude": -2.45191,
    "longitude": 47.44496,
    "name": "Beach",
    "city": "Asserac",
    "description": "plage de Pont Mahe"
  },
  {
    "latitude": 9.05762,
    "longitude": 42.65888,
    "name": "Beach",
    "city": "Ostriconi",
    "description": "plage"
  },
  {
    "latitude": 5.0884,
    "longitude": 43.33289,
    "name": "Beach",
    "city": "Sausset les Pins",
    "description": "anse de Boumandariel"
  },
  {
    "latitude": 7.03476,
    "longitude": 43.53899,
    "name": "Beach",
    "city": "Cannes",
    "description": "Bijou Plage"
  },
  {
    "latitude": 8.75748,
    "longitude": 41.92904,
    "name": "Beach",
    "city": "Ajaccio",
    "description": "plage"
  },
  {
    "latitude": 3.26394,
    "longitude": 43.22983,
    "name": "Beach",
    "city": "Vendres",
    "description": "plage"
  },
  {
    "latitude": -1.60121,
    "longitude": 49.18507,
    "name": "Beach",
    "city": "Armanville Plage",
    "description": "plage"
  },
  {
    "latitude": 8.99461,
    "longitude": 41.48586,
    "name": "Beach",
    "city": "Caniscione",
    "description": "plage"
  },
  {
    "latitude": 6.35945,
    "longitude": 43.11857,
    "name": "Beach",
    "city": "Bormes les Mimosas",
    "description": "plage de la Faviere"
  },
  {
    "latitude": -2.12961,
    "longitude": 47.112,
    "name": "Beach",
    "city": "Pornic",
    "description": "plage Montbeau"
  },
  {
    "latitude": -4.49906,
    "longitude": 48.00134,
    "name": "Beach",
    "city": "Plouhinec",
    "description": "plage Mesperleuc"
  },
  {
    "latitude": -2.87604,
    "longitude": 47.53479,
    "name": "Beach",
    "city": "Arzon",
    "description": "plage de Kerjouanno"
  },
  {
    "latitude": 6.79811,
    "longitude": 43.41388,
    "name": "Beach",
    "city": "Saint Raphael",
    "description": "plage de la Peguiere"
  },
  {
    "latitude": 6.93698,
    "longitude": 43.51359,
    "name": "Beach",
    "city": "Plage du Maurin",
    "description": ""
  },
  {
    "latitude": 6.58387,
    "longitude": 43.27619,
    "name": "Beach",
    "city": "Port Grimaud",
    "description": "plage"
  },
  {
    "latitude": -1.25645,
    "longitude": 44.66373,
    "name": "Beach",
    "city": "Cap Ferret",
    "description": "plage"
  },
  {
    "latitude": -1.40518,
    "longitude": 43.81604,
    "name": "Beach",
    "city": "Plage des Mesanges",
    "description": ""
  },
  {
    "latitude": -2.1549,
    "longitude": 46.88502,
    "name": "Beach",
    "city": "La Barre de Monts",
    "description": "plage de la Grande Cote"
  },
  {
    "latitude": -2.63094,
    "longitude": 48.52808,
    "name": "Beach",
    "city": "Plage de Saint-Maurice",
    "description": ""
  },
  {
    "latitude": -1.09884,
    "longitude": 45.98956,
    "name": "Beach",
    "city": "Fouras",
    "description": "plage"
  },
  {
    "latitude": 7.52443,
    "longitude": 43.78489,
    "name": "Beach",
    "city": "Menton",
    "description": "plage du Hawa"
  },
  {
    "latitude": -2.19454,
    "longitude": 47.15708,
    "name": "Beach",
    "city": "La Plaine sur Mer",
    "description": "plage du Port Giraud"
  },
  {
    "latitude": 8.87871,
    "longitude": 41.5239,
    "name": "Beach",
    "city": "Sarene",
    "description": "plage d'Argent"
  },
  {
    "latitude": 4.0878,
    "longitude": 43.55635,
    "name": "Beach",
    "city": "La Grande Motte",
    "description": "plage du Levant Casino"
  },
  {
    "latitude": 9.36224,
    "longitude": 42.92486,
    "name": "Beach",
    "city": "Alisu",
    "description": "plage"
  },
  {
    "latitude": 6.72087,
    "longitude": 43.37681,
    "name": "Beach",
    "city": "Plage du Pebrier",
    "description": ""
  },
  {
    "latitude": -2.19282,
    "longitude": 48.60141,
    "name": "Beach",
    "city": "Saint Jacut de la Mer",
    "description": "plage d'Haas"
  },
  {
    "latitude": -1.13415,
    "longitude": 45.0023,
    "name": "Beach",
    "city": "Le Moutchic",
    "description": "plage"
  },
  {
    "latitude": 3.41551,
    "longitude": 43.28995,
    "name": "Beach",
    "city": "Vias",
    "description": "vias plage"
  },
  {
    "latitude": 6.10584,
    "longitude": 43.03111,
    "name": "Beach",
    "city": "Hyeres",
    "description": "plage du Pontillon"
  },
  {
    "latitude": 6.10584,
    "longitude": 43.03111,
    "name": "Beach",
    "city": "Hyeres",
    "description": "plage d'Escampo-Barriou"
  },
  {
    "latitude": -1.19476,
    "longitude": 44.6529,
    "name": "Beach",
    "city": "Les Abatilles",
    "description": "plage Pereire"
  },
  {
    "latitude": -2.33917,
    "longitude": 46.71931,
    "name": "Beach",
    "city": "Ile d'Yeu",
    "description": "plage de la Tourette"
  },
  {
    "latitude": 6.64181,
    "longitude": 43.2738,
    "name": "Beach",
    "city": "Saint Tropez",
    "description": "plage Centre"
  },
  {
    "latitude": -2.8217,
    "longitude": 48.62272,
    "name": "Beach",
    "city": "Etables sur Mer",
    "description": "plage"
  },
  {
    "latitude": 9.39777,
    "longitude": 41.90534,
    "name": "Beach",
    "city": "Nerucciu",
    "description": "plage Cote des Nacres"
  },
  {
    "latitude": -1.58334,
    "longitude": 43.4534,
    "name": "Beach",
    "city": "Bidart",
    "description": "plage du Pavillon Royal"
  },
  {
    "latitude": 8.66212,
    "longitude": 42.3022,
    "name": "Beach",
    "city": "Partinello",
    "description": "plage"
  },
  {
    "latitude": 1.45502,
    "longitude": 50.11171,
    "name": "Beach",
    "city": "Woignarue",
    "description": "plage d'Onival"
  },
  {
    "latitude": -1.41226,
    "longitude": 49.70064,
    "name": "Beach",
    "city": "Plage du Sablon",
    "description": ""
  },
  {
    "latitude": -2.13695,
    "longitude": 47.11187,
    "name": "Beach",
    "city": "Pornic",
    "description": "plage Les Sablons"
  },
  {
    "latitude": 8.89172,
    "longitude": 41.66509,
    "name": "Beach",
    "city": "Propriano",
    "description": "plage"
  },
  {
    "latitude": 9.30621,
    "longitude": 41.54603,
    "name": "Beach",
    "city": "Palombaggia",
    "description": "plage"
  },
  {
    "latitude": -2.00673,
    "longitude": 46.73891,
    "name": "Beach",
    "city": "Saint Hilaire de Riez",
    "description": "plage de la Pege"
  },
  {
    "latitude": 9.2488,
    "longitude": 41.40643,
    "name": "Beach",
    "city": "Gavetti",
    "description": "plage"
  },
  {
    "latitude": 5.37573,
    "longitude": 43.25916,
    "name": "Beach",
    "city": "Marseille",
    "description": "plage Borely"
  },
  {
    "latitude": 4.4553,
    "longitude": 43.447,
    "name": "Beach",
    "city": "Saintes Maries de la Mer",
    "description": "plage de la Goule"
  },
  {
    "latitude": -1.54623,
    "longitude": 46.22258,
    "name": "Beach",
    "city": "Saint Clement des Baleines",
    "description": "plage Cote Sauvage"
  },
  {
    "latitude": -1.51875,
    "longitude": 46.25577,
    "name": "Beach",
    "city": "Les Portes en Re",
    "description": "plage Petit Bec"
  },
  {
    "latitude": -2.14519,
    "longitude": 46.83166,
    "name": "Beach",
    "city": "Notre Dame de Monts",
    "description": "plage"
  },
  {
    "latitude": -1.57236,
    "longitude": 43.4696,
    "name": "Beach",
    "city": "Plage Marbella",
    "description": ""
  },
  {
    "latitude": 8.73885,
    "longitude": 42.06561,
    "name": "Beach",
    "city": "Tiuccia - Sagone",
    "description": "plage"
  },
  {
    "latitude": 6.75556,
    "longitude": 43.42333,
    "name": "Beach",
    "city": "Frejus",
    "description": "Frejus plage"
  },
  {
    "latitude": -1.99157,
    "longitude": 48.55307,
    "name": "Beach",
    "city": "Plage du Roue",
    "description": ""
  },
  {
    "latitude": 5.81097,
    "longitude": 43.11284,
    "name": "Beach",
    "city": "Six Fours les Plages",
    "description": "plage de Bonne Grace"
  },
  {
    "latitude": -1.32963,
    "longitude": 46.33218,
    "name": "Beach",
    "city": "La Faute sur Mer",
    "description": "La Grand-Plage"
  },
  {
    "latitude": -2.21248,
    "longitude": 47.15548,
    "name": "Beach",
    "city": "La Plaine sur Mer",
    "description": "plage La Gravette"
  },
  {
    "latitude": -1.24301,
    "longitude": 44.65193,
    "name": "Beach",
    "city": "Cap Ferret",
    "description": "plage"
  },
  {
    "latitude": 3.93489,
    "longitude": 43.52895,
    "name": "Beach",
    "city": "Palavas les Flots",
    "description": "plage Jetee rive gauche"
  },
  {
    "latitude": -3.77691,
    "longitude": 48.70278,
    "name": "Beach",
    "city": "Saint Jean du Doigt",
    "description": "plage de Plougasnou"
  },
  {
    "latitude": -4.67944,
    "longitude": 48.35585,
    "name": "Beach",
    "city": "Locmaria Plouzane",
    "description": "plage Porsmilin"
  },
  {
    "latitude": -3.89825,
    "longitude": 47.84253,
    "name": "Beach",
    "city": "Plage de Pouldohan",
    "description": ""
  },
  {
    "latitude": -4.70372,
    "longitude": 48.34665,
    "name": "Beach",
    "city": "Plage du Trez Hir",
    "description": ""
  },
  {
    "latitude": -1.65517,
    "longitude": 49.65744,
    "name": "Beach",
    "city": "Plage des Salines",
    "description": ""
  },
  {
    "latitude": 8.6913,
    "longitude": 42.26542,
    "name": "Beach",
    "city": "Porto",
    "description": "plage"
  },
  {
    "latitude": 8.87964,
    "longitude": 41.65056,
    "name": "Beach",
    "city": "Portigliolo",
    "description": "plage"
  },
  {
    "latitude": 9.21759,
    "longitude": 41.40589,
    "name": "Beach",
    "city": "Bpnifacio",
    "description": "plage de Maora"
  },
  {
    "latitude": -4.45913,
    "longitude": 48.23878,
    "name": "Beach",
    "city": "Crozon",
    "description": "plage de Postolonnec"
  },
  {
    "latitude": -1.54386,
    "longitude": 43.49939,
    "name": "Beach",
    "city": "Anglet",
    "description": "plage du Club"
  },
  {
    "latitude": -4.31056,
    "longitude": 48.6677,
    "name": "Beach",
    "city": "Plouneour-Trez",
    "description": "plage Lividic"
  },
  {
    "latitude": -4.32039,
    "longitude": 48.20347,
    "name": "Beach",
    "city": "Saint Nic",
    "description": "plage Cameros"
  },
  {
    "latitude": -4.50312,
    "longitude": 48.08818,
    "name": "Beach",
    "city": "Beuzec Cap Sizun",
    "description": "plage l Trenaouret"
  },
  {
    "latitude": -1.25525,
    "longitude": 44.44456,
    "name": "Beach",
    "city": "Biscarosse",
    "description": "plage de Biscarosse"
  },
  {
    "latitude": -1.40935,
    "longitude": 46.18271,
    "name": "Beach",
    "city": "Le Bois-Plage en Re",
    "description": "plage du Petit Sergent"
  },
  {
    "latitude": -3.09661,
    "longitude": 47.48311,
    "name": "Beach",
    "city": "Plage du Porigo",
    "description": ""
  },
  {
    "latitude": -2.57982,
    "longitude": 48.57059,
    "name": "Beach",
    "city": "Planguenoual",
    "description": "plage du Port Morvan"
  },
  {
    "latitude": -1.41264,
    "longitude": 46.34524,
    "name": "Beach",
    "city": "La Tranche sur Mer",
    "description": "plage Griere"
  },
  {
    "latitude": -1.40979,
    "longitude": 43.80252,
    "name": "Beach",
    "city": "Mesanges",
    "description": "La Plage Sud"
  },
  {
    "latitude": 3.05137,
    "longitude": 42.88868,
    "name": "Beach",
    "city": "Leucate",
    "description": "plage le Grau de Leucate"
  },
  {
    "latitude": 5.70971,
    "longitude": 43.14776,
    "name": "Beach",
    "city": "Port d'Alon",
    "description": "petite crique"
  },
  {
    "latitude": 8.66113,
    "longitude": 42.42348,
    "name": "Beach",
    "city": "Galeria",
    "description": "plage"
  },
  {
    "latitude": -3.9151,
    "longitude": 47.85739,
    "name": "Beach",
    "city": "Plage du Fort",
    "description": ""
  },
  {
    "latitude": -3.85425,
    "longitude": 47.80362,
    "name": "Beach",
    "city": "Treginc",
    "description": "plage de Trevignon"
  },
  {
    "latitude": 8.73969,
    "longitude": 41.79705,
    "name": "Beach",
    "city": "Coti Chiavari",
    "description": "plage de Portigliolo"
  },
  {
    "latitude": 9.39777,
    "longitude": 41.80401,
    "name": "Beach",
    "city": "Canella",
    "description": "plage Cote des Nacres"
  },
  {
    "latitude": -1.83821,
    "longitude": 46.56596,
    "name": "Beach",
    "city": "Olonne sur Mer",
    "description": "plage de Sauveterre"
  },
  {
    "latitude": 9.34748,
    "longitude": 41.63764,
    "name": "Beach",
    "city": "San Ciprianu",
    "description": "plage"
  },
  {
    "latitude": 2.37566,
    "longitude": 47.5853,
    "name": "Beach",
    "city": "Argent sur Sauldre",
    "description": "plage Lac les Foucheres"
  },
  {
    "latitude": 9.46301,
    "longitude": 42.7443,
    "name": "Beach",
    "city": "Miomo",
    "description": ""
  },
  {
    "latitude": -1.40534,
    "longitude": 49.70232,
    "name": "Beach",
    "city": "Cosqueville",
    "description": "plage Vicq"
  },
  {
    "latitude": -3.64632,
    "longitude": 48.6908,
    "name": "Beach",
    "city": "Locquirec",
    "description": "plage du Port"
  },
  {
    "latitude": -2.50491,
    "longitude": 48.60498,
    "name": "Beach",
    "city": "Pleneuf",
    "description": "plage Ville Berneuf"
  },
  {
    "latitude": -4.04149,
    "longitude": 48.70328,
    "name": "Beach",
    "city": "Santec",
    "description": "plage Tevenn"
  },
  {
    "latitude": -3.10494,
    "longitude": 47.4737,
    "name": "Beach",
    "city": "Quiberon",
    "description": "plage de Gaviro"
  },
  {
    "latitude": 8.80022,
    "longitude": 41.88873,
    "name": "Beach",
    "city": "Porticcio",
    "description": "plage"
  },
  {
    "latitude": -1.59589,
    "longitude": 43.43743,
    "name": "Beach",
    "city": "Bidart",
    "description": "plage du Centre"
  },
  {
    "latitude": -1.38868,
    "longitude": 46.17546,
    "name": "Beach",
    "city": "Le Bois-Plage en Re",
    "description": "plage des Gollandieres"
  },
  {
    "latitude": -0.98354,
    "longitude": 45.57727,
    "name": "Beach",
    "city": "Meschers sur Gironde",
    "description": "plage de Suzac"
  },
  {
    "latitude": 8.79092,
    "longitude": 41.86523,
    "name": "Beach",
    "city": "Agosta",
    "description": "plage"
  },
  {
    "latitude": 9.45483,
    "longitude": 42.97566,
    "name": "Beach",
    "city": "Tamarone",
    "description": "plage"
  },
  {
    "latitude": 5.37324,
    "longitude": 43.26513,
    "name": "Beach",
    "city": "Marseille",
    "description": "plage du Roucas blanc"
  },
  {
    "latitude": -4.5119,
    "longitude": 48.00539,
    "name": "Beach",
    "city": "Plouhinec",
    "description": "plage Kersiny"
  },
  {
    "latitude": 4.40936,
    "longitude": 43.44941,
    "name": "Beach",
    "city": "Saintes Maries de la Mer",
    "description": "plage Simbeou Est"
  },
  {
    "latitude": -1.2651,
    "longitude": 45.87567,
    "name": "Beach",
    "city": "Vert-Bois",
    "description": "plage"
  },
  {
    "latitude": 5.35871,
    "longitude": 43.23423,
    "name": "Beach",
    "city": "Plagede la Verrerie",
    "description": ""
  },
  {
    "latitude": -3.67954,
    "longitude": 48.68651,
    "name": "Beach",
    "city": "Plage du Moulin de la Rive",
    "description": ""
  },
  {
    "latitude": 8.8814,
    "longitude": 41.66708,
    "name": "Beach",
    "city": "Propriano",
    "description": "plage de Capu Laurosu"
  },
  {
    "latitude": 5.1735,
    "longitude": 43.33514,
    "name": "Beach",
    "city": "Le Rouet",
    "description": "plage du Port du Rouet"
  },
  {
    "latitude": -4.05287,
    "longitude": 47.85402,
    "name": "Beach",
    "city": "Fouesnant",
    "description": "plage Kerler"
  },
  {
    "latitude": -4.27007,
    "longitude": 48.13425,
    "name": "Beach",
    "city": "Plonevez Porzay",
    "description": "plage Sainte Anne"
  },
  {
    "latitude": 5.37604,
    "longitude": 43.25447,
    "name": "Beach",
    "city": "Marseille",
    "description": "plage Bonneveine"
  },
  {
    "latitude": -1.32551,
    "longitude": 46.33006,
    "name": "Beach",
    "city": "Plage des Bellugas",
    "description": ""
  },
  {
    "latitude": 3.23668,
    "longitude": 43.21402,
    "name": "Beach",
    "city": "Les Cabanes de Fleury",
    "description": "plage"
  },
  {
    "latitude": 1.57906,
    "longitude": 50.5668,
    "name": "Beach",
    "city": "Plage Saint-Gabriel",
    "description": ""
  },
  {
    "latitude": -2.1848,
    "longitude": 48.59593,
    "name": "Beach",
    "city": "Saint Jacut de la Mer",
    "description": "plage de la Pissotte"
  },
  {
    "latitude": -4.30448,
    "longitude": 48.19567,
    "name": "Beach",
    "city": "Saint Nic",
    "description": "plage Pentrez"
  },
  {
    "latitude": 3.64991,
    "longitude": 43.38764,
    "name": "Beach",
    "city": "Sete",
    "description": "plage de la Corniche"
  },
  {
    "latitude": 8.74765,
    "longitude": 42.04645,
    "name": "Beach",
    "city": "Plage du Stagnone",
    "description": ""
  },
  {
    "latitude": -1.21736,
    "longitude": 44.89315,
    "name": "Beach",
    "city": "Le Porge",
    "description": "plage centrale"
  },
  {
    "latitude": -4.13708,
    "longitude": 48.69313,
    "name": "Beach",
    "city": "Cleder",
    "description": "plage de Kervallou"
  },
  {
    "latitude": -3.76606,
    "longitude": 47.79245,
    "name": "Beach",
    "city": "Plage de Rospico",
    "description": ""
  },
  {
    "latitude": -3.20914,
    "longitude": 47.64222,
    "name": "Beach",
    "city": "Etel",
    "description": "plage de Kerminihy"
  },
  {
    "latitude": 6.60971,
    "longitude": 43.1727,
    "name": "Beach",
    "city": "La Croix Valmer",
    "description": "plage du Brouis"
  },
  {
    "latitude": 9.55276,
    "longitude": 42.14826,
    "name": "Beach",
    "city": "Plage de Tallone",
    "description": ""
  },
  {
    "latitude": -2.9988,
    "longitude": 48.83835,
    "name": "Beach",
    "city": "Ile de Brehat",
    "description": "plage de Kerzido"
  },
  {
    "latitude": -2.31019,
    "longitude": 47.24097,
    "name": "Beach",
    "city": "Plage de Sainte-Marguerite",
    "description": ""
  },
  {
    "latitude": -2.37437,
    "longitude": 48.65364,
    "name": "Beach",
    "city": "Frehel",
    "description": "plage des Fosses"
  },
  {
    "latitude": -3.88693,
    "longitude": 47.84811,
    "name": "Beach",
    "city": "Plage de Ster Greich",
    "description": ""
  },
  {
    "latitude": -1.11565,
    "longitude": 44.64428,
    "name": "Beach",
    "city": "Gujan Mestras",
    "description": "plage"
  },
  {
    "latitude": 5.69334,
    "longitude": 43.17472,
    "name": "Beach",
    "city": "Saint Cyr sur Mer",
    "description": "plage Les Lecques"
  },
  {
    "latitude": -1.24745,
    "longitude": 44.69626,
    "name": "Beach",
    "city": "Le Canon",
    "description": "plage La Garonne"
  },
  {
    "latitude": -3.74115,
    "longitude": 47.8046,
    "name": "Beach",
    "city": "Nevez",
    "description": "plage de Port-Manec h"
  },
  {
    "latitude": -3.38695,
    "longitude": 48.81231,
    "name": "Beach",
    "city": "Trelevern",
    "description": "plage Pors Garo"
  },
  {
    "latitude": 5.35597,
    "longitude": 43.29072,
    "name": "Beach",
    "city": "Marseille",
    "description": "plage les Catalans"
  },
  {
    "latitude": -2.49847,
    "longitude": 47.4861,
    "name": "Beach",
    "city": "Plage du Lomer",
    "description": ""
  },
  {
    "latitude": 9.47897,
    "longitude": 42.83758,
    "name": "Beach",
    "city": "Marine Pietracorbara",
    "description": "plage"
  },
  {
    "latitude": 5.6161,
    "longitude": 43.18221,
    "name": "Beach",
    "city": "Plage Lumiere",
    "description": ""
  },
  {
    "latitude": -1.95415,
    "longitude": 46.6952,
    "name": "Beach",
    "city": "Saint Gilles Croix de Vie",
    "description": "plage Boivinet"
  },
  {
    "latitude": -2.04126,
    "longitude": 47.081,
    "name": "Beach",
    "city": "La Bernerie en Retz",
    "description": "La Grande Plage"
  },
  {
    "latitude": 9.13664,
    "longitude": 41.39345,
    "name": "Beach",
    "city": "Stragonato",
    "description": "plage"
  },
  {
    "latitude": 8.87694,
    "longitude": 41.52504,
    "name": "Beach",
    "city": "Tralicetu",
    "description": "plage"
  },
  {
    "latitude": 6.40282,
    "longitude": 43.1494,
    "name": "Beach",
    "city": "Le Lavandou",
    "description": "plage d'Aiguebelle"
  },
  {
    "latitude": -1.23453,
    "longitude": 46.28103,
    "name": "Beach",
    "city": "L Aiguillon sur Mer",
    "description": "plage de l'Oasis"
  },
  {
    "latitude": 3.92609,
    "longitude": 43.52535,
    "name": "Beach",
    "city": "Palavas les Flots",
    "description": "plage rive droite"
  },
  {
    "latitude": -3.89344,
    "longitude": 47.83228,
    "name": "Beach",
    "city": "Tregunc",
    "description": "plage de Pendruc"
  },
  {
    "latitude": -3.02953,
    "longitude": 47.5735,
    "name": "Beach",
    "city": "La Trinite sur Mer",
    "description": "plage de Kerbihan"
  },
  {
    "latitude": 3.14159,
    "longitude": 42.48016,
    "name": "Beach",
    "city": "Plage du Troc",
    "description": ""
  },
  {
    "latitude": -0.97258,
    "longitude": 45.56819,
    "name": "Beach",
    "city": "Meschers sur Gironde",
    "description": "plage de l'Arneche"
  },
  {
    "latitude": 5.37422,
    "longitude": 43.26227,
    "name": "Beach",
    "city": "Marseille",
    "description": "plage de David"
  },
  {
    "latitude": -3.90466,
    "longitude": 48.67006,
    "name": "Beach",
    "city": "Carantec",
    "description": "plage Penquer"
  },
  {
    "latitude": 3.29172,
    "longitude": 43.24347,
    "name": "Beach",
    "city": "Valras-Plage",
    "description": "plage"
  },
  {
    "latitude": 4.03332,
    "longitude": 43.55705,
    "name": "Beach",
    "city": "Carnon",
    "description": "plage de 6 kms"
  },
  {
    "latitude": -4.42297,
    "longitude": 48.39719,
    "name": "Beach",
    "city": "Brest",
    "description": "plage du Moulin Blanc"
  },
  {
    "latitude": -3.56823,
    "longitude": 48.68398,
    "name": "Beach",
    "city": "Saint Michel en Greve",
    "description": "plage"
  },
  {
    "latitude": -2.49561,
    "longitude": 47.51735,
    "name": "Beach",
    "city": "Plage des Barges",
    "description": ""
  },
  {
    "latitude": -2.27573,
    "longitude": 46.97369,
    "name": "Beach",
    "city": "L Epine",
    "description": "plage de L Epine"
  },
  {
    "latitude": -2.12139,
    "longitude": 48.63654,
    "name": "Beach",
    "city": "Saint Lunaire",
    "description": "plage Lonchamp"
  },
  {
    "latitude": -2.22516,
    "longitude": 48.59455,
    "name": "Beach",
    "city": "Saint Cast le Guildo",
    "description": "plage des Quatre Vaux"
  },
  {
    "latitude": 6.36507,
    "longitude": 43.13147,
    "name": "Beach",
    "city": "Plage du Lavandou",
    "description": ""
  },
  {
    "latitude": 8.71726,
    "longitude": 42.07799,
    "name": "Beach",
    "city": "San Guiseppe",
    "description": "plage"
  },
  {
    "latitude": -1.17683,
    "longitude": 46.01774,
    "name": "Beach",
    "city": "Bois Joly",
    "description": "Grande plage"
  },
  {
    "latitude": -1.44199,
    "longitude": 43.66952,
    "name": "Beach",
    "city": "Soorts-Hossegor",
    "description": "plage de la Graviere"
  },
  {
    "latitude": 8.90576,
    "longitude": 42.62731,
    "name": "Beach",
    "city": "Botre",
    "description": "plage"
  },
  {
    "latitude": -1.44776,
    "longitude": 43.6414,
    "name": "Beach",
    "city": "Capbreton",
    "description": "plage de la Piste"
  },
  {
    "latitude": -2.23649,
    "longitude": 47.13953,
    "name": "Beach",
    "city": "Prefailles",
    "description": "plage du Port Aux nes"
  },
  {
    "latitude": -3.85095,
    "longitude": 47.79786,
    "name": "Beach",
    "city": "Tregunc",
    "description": "plage Feunteunodou"
  },
  {
    "latitude": -2.4248,
    "longitude": 47.25999,
    "name": "Beach",
    "city": "Plage Labego",
    "description": ""
  },
  {
    "latitude": -1.46334,
    "longitude": 46.34263,
    "name": "Beach",
    "city": "La Tranche sur Mer",
    "description": "plage de la Cote Sauvage"
  },
  {
    "latitude": -1.60636,
    "longitude": 43.4283,
    "name": "Beach",
    "city": "Bidart",
    "description": "plage de Parlementia"
  },
  {
    "latitude": -4.39415,
    "longitude": 48.22151,
    "name": "Beach",
    "city": "Trez Bihan Plage",
    "description": ""
  },
  {
    "latitude": 3.57998,
    "longitude": 43.3382,
    "name": "Beach",
    "city": "Marseillan - Sete",
    "description": "10 kms de plages"
  },
  {
    "latitude": -1.40662,
    "longitude": 46.34277,
    "name": "Beach",
    "city": "La Tranche sur Mer",
    "description": "plage de la Griere"
  },
  {
    "latitude": 5.51805,
    "longitude": 43.2054,
    "name": "Beach",
    "city": "Cassis",
    "description": "plage Bleue"
  },
  {
    "latitude": -3.05813,
    "longitude": 47.31087,
    "name": "Beach",
    "city": "Plage des Galeres",
    "description": ""
  },
  {
    "latitude": 9.40836,
    "longitude": 41.90736,
    "name": "Beach",
    "city": "Travo",
    "description": "plage"
  },
  {
    "latitude": -1.60434,
    "longitude": 49.06124,
    "name": "Beach",
    "city": "Blainville sur Mer",
    "description": "La Plage"
  },
  {
    "latitude": 8.70827,
    "longitude": 42.10041,
    "name": "Beach",
    "city": "Sagone",
    "description": "plage du Santana"
  },
  {
    "latitude": 6.66593,
    "longitude": 43.24401,
    "name": "Beach",
    "city": "Ramatuelle",
    "description": "plage Pampelonne 1"
  },
  {
    "latitude": 3.03913,
    "longitude": 42.93058,
    "name": "Beach",
    "city": "La Franqui",
    "description": "plage du village 1"
  },
  {
    "latitude": -1.93836,
    "longitude": 46.6886,
    "name": "Beach",
    "city": "Saint Gilles Croix de Vie",
    "description": "Grande plage"
  },
  {
    "latitude": 5.29026,
    "longitude": 43.35789,
    "name": "Beach",
    "city": "L Estaque",
    "description": "plage du Port de Corbiere"
  },
  {
    "latitude": 9.23389,
    "longitude": 42.71798,
    "name": "Beach",
    "city": "Santo Pietro di Tenda",
    "description": "plage de Loto"
  },
  {
    "latitude": -1.09324,
    "longitude": 46.07156,
    "name": "Beach",
    "city": "Chatelaillon-Plage",
    "description": "plage"
  },
  {
    "latitude": 6.38115,
    "longitude": 43.14128,
    "name": "Beach",
    "city": "Saint Clair",
    "description": "plage"
  },
  {
    "latitude": 4.07954,
    "longitude": 43.55747,
    "name": "Beach",
    "city": "La Grande Motte",
    "description": "plage du Centre"
  },
  {
    "latitude": 4.13398,
    "longitude": 43.5368,
    "name": "Beach",
    "city": "Le Grau du Roi",
    "description": "plage rive droite jetee"
  },
  {
    "latitude": -2.90777,
    "longitude": 47.55003,
    "name": "Beach",
    "city": "Arzon",
    "description": "plage Port Glenn"
  },
  {
    "latitude": 9.27142,
    "longitude": 41.526,
    "name": "Beach",
    "city": "Santa Giulia",
    "description": "plage"
  },
  {
    "latitude": -3.09269,
    "longitude": 47.31568,
    "name": "Beach",
    "city": "Plage de Samzun",
    "description": ""
  },
  {
    "latitude": 6.10362,
    "longitude": 43.03986,
    "name": "Beach",
    "city": "Hyeres",
    "description": "plage de l'Ayguade"
  },
  {
    "latitude": -3.93353,
    "longitude": 47.88199,
    "name": "Beach",
    "city": "Concarneau",
    "description": "plage des Sables Blancs"
  },
  {
    "latitude": -2.53739,
    "longitude": 48.59656,
    "name": "Beach",
    "city": "Pleneuf-Val Andre",
    "description": "plage des Vallees"
  },
  {
    "latitude": 9.10028,
    "longitude": 42.71489,
    "name": "Beach",
    "city": "DeAlga",
    "description": "plage"
  },
  {
    "latitude": -3.9044,
    "longitude": 48.6639,
    "name": "Beach",
    "city": "Carantec",
    "description": "plage Clouet"
  },
  {
    "latitude": 8.86782,
    "longitude": 42.60783,
    "name": "Beach",
    "city": "Algajola",
    "description": "plage Aregno"
  },
  {
    "latitude": -3.96093,
    "longitude": 48.68833,
    "name": "Beach",
    "city": "Plage Sainte-Anne",
    "description": ""
  },
  {
    "latitude": -2.00418,
    "longitude": 47.06207,
    "name": "Beach",
    "city": "Plage du Pre Vincent",
    "description": ""
  },
  {
    "latitude": 4.13256,
    "longitude": 43.54018,
    "name": "Beach",
    "city": "Le Grau du Roi",
    "description": "plage rive droite"
  },
  {
    "latitude": 9.40092,
    "longitude": 41.89106,
    "name": "Beach",
    "city": "Solaro",
    "description": "plage"
  },