[
  {
    "latitude": -4.0724,
    "longitude": 48.50949,
    "name": "Spectacle",
    "city": "29 Landivisiau (francois de tournamine)",
    "description": ""
  },
  {
    "latitude": 2.33079,
    "longitude": 48.87226,
    "name": "Spectacle",
    "city": "75 Paris (Op�ra Garnier)",
    "description": ""
  },
  {
    "latitude": 2.33457,
    "longitude": 48.86936,
    "name": "Theatre",
    "city": "75 Paris (La Michodiere)",
    "description": ""
  },
  {
    "latitude": 2.32434,
    "longitude": 48.84078,
    "name": "Theatre",
    "city": "75 Paris (Rive Gauche",
    "description": "6 rue de la Gait�)"
  },
  {
    "latitude": 2.26709,
    "longitude": 49.89613,
    "name": "Spectacle",
    "city": "80 Amiens (Z�nith)",
    "description": ""
  },
  {
    "latitude": 2.32839,
    "longitude": 48.86996,
    "name": "Spectacle",
    "city": "75 Paris (Olympia)",
    "description": ""
  },
  {
    "latitude": 2.41199,
    "longitude": 48.6382,
    "name": "Spectacle",
    "city": "91 Ris-Orangis (Le Plan)",
    "description": ""
  },
  {
    "latitude": -4.40437,
    "longitude": 48.43933,
    "name": "Concert",
    "city": "29 Guipavas (Alize)",
    "description": ""
  },
  {
    "latitude": -1.14821,
    "longitude": 45.71399,
    "name": "Concert",
    "city": "17 Les mathes",
    "description": ""
  },
  {
    "latitude": 2.28301,
    "longitude": 48.87862,
    "name": "Spectacle",
    "city": "75 Paris (Palais Des Congres)",
    "description": ""
  },
  {
    "latitude": -4.72012,
    "longitude": 48.34213,
    "name": "Concert",
    "city": "29 Plougonvelin (Espace keraudy)",
    "description": ""
  },
  {
    "latitude": -4.2286,
    "longitude": 48.39998,
    "name": "Spectacle",
    "city": "29 Saint Urbain (ty kreis ker)",
    "description": ""
  },
  {
    "latitude": 7.73009,
    "longitude": 48.57629,
    "name": "Concert",
    "city": "67 Strasbourg (La Laiterie)",
    "description": ""
  },
  {
    "latitude": -3.96282,
    "longitude": 48.54996,
    "name": "Spectacle",
    "city": "29 Guiclan (lE TRISKELL)",
    "description": ""
  },
  {
    "latitude": 3.14206,
    "longitude": 50.72673,
    "name": "Theatre",
    "city": "59 Tourcoing (Th�atre de l'Id�al)",
    "description": ""
  },
  {
    "latitude": -3.41427,
    "longitude": 47.78951,
    "name": "Concert",
    "city": "56 Queven (Les Arcs)",
    "description": ""
  },
  {
    "latitude": 7.75238,
    "longitude": 48.58351,
    "name": "Concert",
    "city": "67 Strasbourg (La Grotte)",
    "description": ""
  },
  {
    "latitude": 0.70122,
    "longitude": 47.38437,
    "name": "Concert",
    "city": "37 Tours (le Bateau Ivre)",
    "description": ""
  },
  {
    "latitude": 2.28879,
    "longitude": 48.83717,
    "name": "Theatre",
    "city": "75 Paris (Th�o Theatre)",
    "description": ""
  },
  {
    "latitude": 2.26729,
    "longitude": 48.82511,
    "name": "Theatre",
    "city": "92 Issy Les Moulineaux (Du Petit Miroir)",
    "description": ""
  },
  {
    "latitude": 0.7175,
    "longitude": 45.1847,
    "name": "Theatre",
    "city": "24 Perigueux (L'Odyssee)",
    "description": ""
  },
  {
    "latitude": -1.79553,
    "longitude": 48.10032,
    "name": "Theatre",
    "city": "35 Le Rheu (L' Agora)",
    "description": ""
  },
  {
    "latitude": -4.31335,
    "longitude": 48.53692,
    "name": "Concert",
    "city": "29 Ploudaniel (espace Broceliande)",
    "description": ""
  },
  {
    "latitude": 2.29897,
    "longitude": 48.69555,
    "name": "Theatre",
    "city": "91 Longjumeau (Adolphe Adam)",
    "description": ""
  },
  {
    "latitude": -1.56223,
    "longitude": 47.21295,
    "name": "Opera",
    "city": "44 Nantes",
    "description": ""
  },
  {
    "latitude": 3.5289,
    "longitude": 50.36438,
    "name": "Spectacle",
    "city": "59 Valenciennes (Le Ph�nix)",
    "description": ""
  },
  {
    "latitude": 2.35463,
    "longitude": 48.87036,
    "name": "Spectacle",
    "city": "75 Paris (L'Archipel)",
    "description": ""
  },
  {
    "latitude": -2.74137,
    "longitude": 47.69144,
    "name": "Concert",
    "city": "56 Saint Ave (Le Dome)",
    "description": ""
  },
  {
    "latitude": 7.72937,
    "longitude": 48.57568,
    "name": "Concert",
    "city": "67 Strasbourg (Molodo�)",
    "description": ""
  },
  {
    "latitude": -4.37393,
    "longitude": 48.47092,
    "name": "Spectacle",
    "city": "29 Kersaint Plabennec (Espace Kreisker)",
    "description": ""
  },
  {
    "latitude": 0.12677,
    "longitude": 45.63953,
    "name": "Concert",
    "city": "16 Angouleme (La nef2)",
    "description": ""
  },
  {
    "latitude": -1.79696,
    "longitude": 47.96364,
    "name": "Theatre",
    "city": "35 Guichen (Espace Galatee)",
    "description": ""
  },
  {
    "latitude": 2.2578,
    "longitude": 50.75031,
    "name": "Concert",
    "city": "62 Saint-omer (O Pas Sage)",
    "description": ""
  },
  {
    "latitude": 3.50296,
    "longitude": 50.37128,
    "name": "Theatre",
    "city": "59 Anzin (Th�atre Municipal)",
    "description": ""
  },
  {
    "latitude": -4.2532,
    "longitude": 48.48323,
    "name": "Spectacle",
    "city": "29 Plouedern (Steredenn)",
    "description": ""
  },
  {
    "latitude": 3.07675,
    "longitude": 50.6334,
    "name": "Concert",
    "city": "59 Lille (Zenith)",
    "description": ""
  },
  {
    "latitude": 2.35414,
    "longitude": 48.85954,
    "name": "Spectacle",
    "city": "75 Paris (Caf� de la Gare)",
    "description": ""
  },
  {
    "latitude": -0.5613,
    "longitude": 44.83129,
    "name": "Theatre",
    "city": "33 Bordeaux (3 Place Pierre Renaudel) TNBA (Th�atre National de Bordeaux en Aquitaine)",
    "description": ""
  },
  {
    "latitude": -3.35712,
    "longitude": 47.75055,
    "name": "Concert",
    "city": "56 Lorient (Le Manege)",
    "description": ""
  },
  {
    "latitude": 3.08252,
    "longitude": 45.77709,
    "name": "Theatre",
    "city": "63 Clermont-Ferrand (opera)",
    "description": ""
  },
  {
    "latitude": 2.33574,
    "longitude": 48.85766,
    "name": "Spectacle",
    "city": "75 Paris (Metamorphosis de novembre � mars)",
    "description": ""
  },
  {
    "latitude": -4.49376,
    "longitude": 48.41513,
    "name": "Theatre",
    "city": "29 Brest (Le stella)",
    "description": ""
  },
  {
    "latitude": 3.0912,
    "longitude": 50.62265,
    "name": "Concert",
    "city": "59 Lille (Le Splendid)",
    "description": ""
  },
  {
    "latitude": -4.56323,
    "longitude": 48.02446,
    "name": "Theatre",
    "city": "29 Esquibien (Georges Madec)",
    "description": ""
  },
  {
    "latitude": 1.27899,
    "longitude": 45.86144,
    "name": "Concert",
    "city": "87 Limoges Zenith",
    "description": ""
  },
  {
    "latitude": -0.57725,
    "longitude": 44.84133,
    "name": "Theatre",
    "city": "33 Bordeaux (10 Rue de Grassi) Th�atre Femina",
    "description": ""
  },
  {
    "latitude": -0.57813,
    "longitude": 44.84221,
    "name": "Theatre",
    "city": "33 Bordeaux (6 Rue Franklin) Th�atre Trianon",
    "description": ""
  },
  {
    "latitude": 3.15172,
    "longitude": 45.73971,
    "name": "Spectacle",
    "city": "63 Clermont Fd (La Grande Halle d'Auvergne)",
    "description": ""
  },
  {
    "latitude": 3.15312,
    "longitude": 50.72051,
    "name": "Theatre",
    "city": "59 Tourcoing (Th�atre Municipal)",
    "description": ""
  },
  {
    "latitude": 1.0822,
    "longitude": 49.4312,
    "name": "Theatre",
    "city": "76 Rouen (Espace duchamp villon)",
    "description": ""
  },
  {
    "latitude": 3.94748,
    "longitude": 43.57409,
    "name": "Concert",
    "city": "34 Montpellier (Park & Suites Arena)",
    "description": ""
  },
  {
    "latitude": -1.69191,
    "longitude": 48.10823,
    "name": "Theatre",
    "city": "35 Rennes (Piccalilli theatre)",
    "description": ""
  },
  {
    "latitude": 2.3007,
    "longitude": 48.85863,
    "name": "Theatre",
    "city": "75 Paris (Th�atre Adyar)",
    "description": ""
  },
  {
    "latitude": -1.59981,
    "longitude": 48.11871,
    "name": "Concert",
    "city": "35 Cesson-sevigne (Le Carre)",
    "description": ""
  },
  {
    "latitude": 4.04668,
    "longitude": 50.01548,
    "name": "Theatre",
    "city": "59 Fourmies (grand parking gratuit � 100 m)",
    "description": ""
  },
  {
    "latitude": -2.74481,
    "longitude": 48.48461,
    "name": "Concert",
    "city": "22 Tregueux (Bleu Pluriel)",
    "description": ""
  },
  {
    "latitude": 2.3502,
    "longitude": 48.85152,
    "name": "Spectacle",
    "city": "75 Paris (Metamorphosis d'avril � Octobre)",
    "description": ""
  },
  {
    "latitude": -4.53132,
    "longitude": 48.40974,
    "name": "Concert",
    "city": "29 Guilers (Penfeld)",
    "description": ""
  },
  {
    "latitude": 2.39316,
    "longitude": 48.88882,
    "name": "Spectacle",
    "city": "75 Paris (Zenith)",
    "description": ""
  },
  {
    "latitude": -4.00347,
    "longitude": 48.4481,
    "name": "Spectacle",
    "city": "29 Saint sauveur",
    "description": ""
  },
  {
    "latitude": -0.62439,
    "longitude": 44.82343,
    "name": "Concert",
    "city": "33 M�rignac (5 Avenue Victor Hugo) Le Krakatoa",
    "description": ""
  },
  {
    "latitude": -3.4041,
    "longitude": 48.40673,
    "name": "Concert",
    "city": "22 Callac (Le Bacardi)",
    "description": ""
  },
  {
    "latitude": -3.91877,
    "longitude": 48.30569,
    "name": "Concert",
    "city": "29 Brasparts (La ferme de Gwernandour)",
    "description": ""
  },
  {
    "latitude": 2.35747,
    "longitude": 48.85876,
    "name": "Theatre",
    "city": "75 Paris (Les Blancs Manteaux)",
    "description": ""
  },
  {
    "latitude": -1.73585,
    "longitude": 48.10415,
    "name": "Concert",
    "city": "35 Rennes (Le Jardin Moderne)",
    "description": ""
  },
  {
    "latitude": 1.40664,
    "longitude": 43.59941,
    "name": "Concert",
    "city": "31 Toulouse (le z�nith)",
    "description": ""
  },
  {
    "latitude": -0.56312,
    "longitude": 44.82728,
    "name": "Concert",
    "city": "33 Bordeaux (18 Cours Barbey) Rock School Barbey",
    "description": ""
  },
  {
    "latitude": -1.67289,
    "longitude": 48.10771,
    "name": "Concert",
    "city": "35 Rennes (Ubu)",
    "description": ""
  },
  {
    "latitude": -1.67289,
    "longitude": 48.10771,
    "name": "Theatre",
    "city": "35 Rennes (Theatre National de Bretagne)",
    "description": ""
  },
  {
    "latitude": -0.58731,
    "longitude": 44.83486,
    "name": "Concert",
    "city": "33 Bordeaux (Cours du Mar�chal Juin) Patinoire M�riadeck",
    "description": ""
  },
  {
    "latitude": -4.10921,
    "longitude": 47.99506,
    "name": "Theatre",
    "city": "29 Quimper (theatre de cornouaille)",
    "description": ""
  },
  {
    "latitude": -4.21505,
    "longitude": 48.37014,
    "name": "Spectacle",
    "city": "29 Irvillac",
    "description": ""
  },
  {
    "latitude": -1.99122,
    "longitude": 48.63332,
    "name": "Concert",
    "city": "35 Saint Malo (centre de musiques actuelles)",
    "description": ""
  },
  {
    "latitude": 2.398,
    "longitude": 48.86444,
    "name": "Theatre",
    "city": "75 Paris (Th�atre National De La Colline)",
    "description": ""
  },
  {
    "latitude": -0.38293,
    "longitude": 49.17096,
    "name": "Concert",
    "city": "14 Caen (Zenith)",
    "description": ""
  },
  {
    "latitude": -1.99592,
    "longitude": 48.62379,
    "name": "Theatre",
    "city": "35 Saint Malo (Cultura)",
    "description": ""
  },
  {
    "latitude": 2.33623,
    "longitude": 48.86319,
    "name": "Theatre",
    "city": "75 Paris (Com�die Francaise - Salle Richelieu)",
    "description": ""
  },
  {
    "latitude": -4.39372,
    "longitude": 48.4008,
    "name": "Concert",
    "city": "29 Le Relecq Kerhuon (Astrolabe)",
    "description": ""
  },
  {
    "latitude": -4.48922,
    "longitude": 48.40553,
    "name": "Theatre",
    "city": "29 Brest Theatre de l instant",
    "description": ""
  },
  {
    "latitude": -1.6755,
    "longitude": 48.11483,
    "name": "Theatre",
    "city": "35 Rennes (Centre choregraphique national)",
    "description": ""
  },
  {
    "latitude": -3.45438,
    "longitude": 47.73071,
    "name": "Theatre",
    "city": "22 Lannion (Carre magique)",
    "description": ""
  },
  {
    "latitude": -2.98955,
    "longitude": 48.19644,
    "name": "Concert",
    "city": "22 Mur de Bretagne",
    "description": ""
  },
  {
    "latitude": 7.76516,
    "longitude": 48.59947,
    "name": "Concert",
    "city": "67 Strasbourg (Hall Rhenus)",
    "description": ""
  },
  {
    "latitude": -4.45069,
    "longitude": 48.53106,
    "name": "Theatre",
    "city": "29 Plouvien",
    "description": ""
  },
  {
    "latitude": 2.28955,
    "longitude": 48.91084,
    "name": "Theatre",
    "city": "92 Asni�res-sur-Seine (Rue Hector Gonzalgue Fontaine)",
    "description": ""
  },
  {
    "latitude": 2.35658,
    "longitude": 48.87068,
    "name": "Theatre",
    "city": "75 Paris (Splendide)",
    "description": ""
  },
  {
    "latitude": -2.05221,
    "longitude": 48.63544,
    "name": "Theatre",
    "city": "35 Dinard (Palais des arts)",
    "description": ""
  },
  {
    "latitude": 2.32317,
    "longitude": 48.83937,
    "name": "Theatre",
    "city": "75 Paris 14 (Gait� Montparnasse)",
    "description": ""
  },
  {
    "latitude": 2.60483,
    "longitude": 46.34749,
    "name": "Spectacle",
    "city": "03 Montlu�on (Athanor)",
    "description": ""
  },
  {
    "latitude": 2.37754,
    "longitude": 48.83944,
    "name": "Spectacle",
    "city": "75 Paris (POPB Bercy)",
    "description": ""
  },
  {
    "latitude": 5.97929,
    "longitude": 47.22392,
    "name": "Concert",
    "city": "25 Besan�on (Micropolis)",
    "description": ""
  },
  {
    "latitude": -1.66024,
    "longitude": 48.08812,
    "name": "Theatre",
    "city": "35 Rennes (Le Triangle)",
    "description": ""
  },
  {
    "latitude": 2.48453,
    "longitude": 50.56508,
    "name": "Concert",
    "city": "62 Lillers (L'abattoir)",
    "description": ""
  },
  {
    "latitude": -3.27503,
    "longitude": 47.80795,
    "name": "Theatre",
    "city": "56 Hennebont (Centre Culturel)",
    "description": ""
  },
  {
    "latitude": 2.31441,
    "longitude": 48.87358,
    "name": "Spectacle",
    "city": "75 Paris (Salle Gaveau)",
    "description": ""
  },
  {
    "latitude": 2.28719,
    "longitude": 48.83269,
    "name": "Spectacle",
    "city": "75 Paris (Palais Des Sports)",
    "description": ""
  },
  {
    "latitude": 2.33996,
    "longitude": 48.88507,
    "name": "Theatre",
    "city": "75 Paris (Tremplin Th�atre)",
    "description": ""
  },
  {
    "latitude": -1.67331,
    "longitude": 48.12012,
    "name": "Theatre",
    "city": "35 Rennes (Le Rallye)",
    "description": ""
  },
  {
    "latitude": -3.49541,
    "longitude": 48.82458,
    "name": "Concert",
    "city": "22 Tregastel (Toucouleur Cafe)",
    "description": ""
  },
  {
    "latitude": 0.199,
    "longitude": 48.00737,
    "name": "Theatre",
    "city": "72 Le Mans (Paul Scarron)",
    "description": ""
  },
  {
    "latitude": 0.199,
    "longitude": 48.00737,
    "name": "Theatre",
    "city": "72 Le Mans (Paul Scarron)",
    "description": ""
  },
  {
    "latitude": -3.82909,
    "longitude": 48.57624,
    "name": "Theatre",
    "city": "29 Morlaix (Theatre du pays de morlaix)",
    "description": ""
  },
  {
    "latitude": 2.33628,
    "longitude": 48.88281,
    "name": "Theatre",
    "city": "75 Paris (Dix Heures)",
    "description": ""
  },
  {
    "latitude": 0.15431,
    "longitude": 45.64756,
    "name": "Theatre",
    "city": "16 Angouleme (th�atre)",
    "description": ""
  },
  {
    "latitude": 1.08918,
    "longitude": 49.4391,
    "name": "Theatre",
    "city": "76 Rouen (Theatre des arts)",
    "description": ""
  },
  {
    "latitude": -4.27702,
    "longitude": 47.7978,
    "name": "Theatre",
    "city": "29 Le Guilvinec (Centre Culturel)",
    "description": ""
  },
  {
    "latitude": -1.68445,
    "longitude": 48.11524,
    "name": "Theatre",
    "city": "35 Rennes (Theatre du vieux saint etienne)",
    "description": ""
  },
  {
    "latitude": -4.42539,
    "longitude": 48.50358,
    "name": "Spectacle",
    "city": "29 Plabennec (Bouguen)",
    "description": ""
  },
  {
    "latitude": -1.6861,
    "longitude": 48.11244,
    "name": "Concert",
    "city": "35 Rennes (L Amaryllis)",
    "description": ""
  },
  {
    "latitude": -3.36022,
    "longitude": 47.74589,
    "name": "Concert",
    "city": "56 Lorient (Palais des Congres)",
    "description": ""
  },
  {
    "latitude": -4.64415,
    "longitude": 48.37461,
    "name": "Theatre",
    "city": "29 Plouzane (Centre Culturel)",
    "description": ""
  },
  {
    "latitude": -3.9972,
    "longitude": 48.09878,
    "name": "Concert",
    "city": "29 Briec (arthemuse)",
    "description": ""
  },
  {
    "latitude": 7.76002,
    "longitude": 48.58071,
    "name": "Concert",
    "city": "67 Strasbourg (La Salamandre)",
    "description": ""
  },
  {
    "latitude": -1.63972,
    "longitude": 48.18278,
    "name": "Theatre",
    "city": "35 Betton",
    "description": ""
  },
  {
    "latitude": -4.09923,
    "longitude": 48.0112,
    "name": "Concert",
    "city": "29 Quimper (Le Pavillon)",
    "description": ""
  },
  {
    "latitude": 2.32205,
    "longitude": 48.80466,
    "name": "Theatre",
    "city": "92 Bagneux (Victor Hugo)",
    "description": ""
  },
  {
    "latitude": 7.68709,
    "longitude": 48.59324,
    "name": "Concert",
    "city": "67 Strasbourg (Zenith Strasbourg)",
    "description": ""
  },
  {
    "latitude": -4.35763,
    "longitude": 48.3697,
    "name": "Concert",
    "city": "29 Plougastel daoulas (Avel vor)",
    "description": ""
  },
  {
    "latitude": 2.13447,
    "longitude": 48.89397,
    "name": "Theatre",
    "city": "78 Le V�sinet",
    "description": ""
  },
  {
    "latitude": 2.33295,
    "longitude": 48.88297,
    "name": "Theatre",
    "city": "75 Paris (Comedie De Paris)",
    "description": ""
  },
  {
    "latitude": -1.69783,
    "longitude": 48.04121,
    "name": "Theatre",
    "city": "35 Chartres de Bretagne (centre culturel)",
    "description": ""
  },
  {
    "latitude": 3.16509,
    "longitude": 50.69187,
    "name": "Concert",
    "city": "59 Roubaix (La Cave aux Po�tes)",
    "description": ""
  },
  {
    "latitude": -3.56069,
    "longitude": 48.27502,
    "name": "Concert",
    "city": "29 Carhaix (Espace Glenmor)",
    "description": ""
  },
  {
    "latitude": 2.34793,
    "longitude": 48.85859,
    "name": "Theatre",
    "city": "75 Paris (Com�die Francaise-Studio Th�atre)",
    "description": ""
  },
  {
    "latitude": 2.27016,
    "longitude": 48.78939,
    "name": "Theatre",
    "city": "92 Le Plessis-Robinson (Coteau)",
    "description": ""
  },
  {
    "latitude": -3.36573,
    "longitude": 47.74771,
    "name": "Theatre",
    "city": "56 Lorient (Grand theatre)",
    "description": ""
  },
  {
    "latitude": 7.35653,
    "longitude": 48.09679,
    "name": "Concert",
    "city": "68 Colmar (Parc Expo)",
    "description": ""
  },
  {
    "latitude": 0.36088,
    "longitude": 46.5727,
    "name": "Spectacle",
    "city": "86 Poitiers (Confort Moderne)",
    "description": ""
  },
  {
    "latitude": -4.21626,
    "longitude": 48.51444,
    "name": "Spectacle",
    "city": "29 Plouneventer (Sklerijenn)",
    "description": ""
  },
  {
    "latitude": 3.18854,
    "longitude": 50.69112,
    "name": "Theatre",
    "city": "59 Roubaix (La Condition Publique)",
    "description": ""
  },
  {
    "latitude": 2.36985,
    "longitude": 48.85153,
    "name": "Spectacle",
    "city": "75 Paris (Op�ra Bastille)",
    "description": ""
  },
  {
    "latitude": 2.04592,
    "longitude": 50.49413,
    "name": "Concert",
    "city": "62 Torcy (Le Baladin)",
    "description": ""
  },
  {
    "latitude": -1.64798,
    "longitude": 48.12081,
    "name": "Theatre",
    "city": "35 Rennes (Le Grand Cordel)",
    "description": ""
  },
  {
    "latitude": 2.09613,
    "longitude": 48.8968,
    "name": "Theatre",
    "city": "78 Saint-Germain-en-Laye (Alexandre Dumas)",
    "description": ""
  },
  {
    "latitude": 3.52713,
    "longitude": 50.36116,
    "name": "Theatre",
    "city": "59 Valenciennes (Espace Pasolini)",
    "description": ""
  },
  {
    "latitude": 2.10015,
    "longitude": 49.45032,
    "name": "Concert",
    "city": "60 Beauvais (Elispace)",
    "description": ""
  },
  {
    "latitude": 0.16468,
    "longitude": 44.49905,
    "name": "Theatre/Concert",
    "city": "47 Marmande (30-38 Rue L�opold Faye) Com�dia",
    "description": ""
  },
  {
    "latitude": 3.07465,
    "longitude": 50.63878,
    "name": "Concert",
    "city": "59 Lille (L' A�ronef)",
    "description": ""
  },
  {
    "latitude": 2.10041,
    "longitude": 49.45016,
    "name": "Spectacle",
    "city": "60 Beauvais (Elispace)",
    "description": ""
  },
  {
    "latitude": 2.3376,
    "longitude": 48.87078,
    "name": "Theatre",
    "city": "75 Paris (Th�atre National de l'Op�ra Comique)",
    "description": ""
  },
  {
    "latitude": -4.02127,
    "longitude": 47.93494,
    "name": "Theatre",
    "city": "29 Fouesnant (Centre culturel)",
    "description": ""
  },
  {
    "latitude": 3.06364,
    "longitude": 50.63635,
    "name": "Theatre",
    "city": "59 Lille (Theatre du Nord)",
    "description": ""
  },
  {
    "latitude": 2.35893,
    "longitude": 48.88411,
    "name": "Theatre",
    "city": "75 Paris 10 (Bouffes du Nord)",
    "description": ""
  },
  {
    "latitude": 2.34498,
    "longitude": 48.87397,
    "name": "Spectacle",
    "city": "75 Paris (Folies Bergere)",
    "description": ""
  },
  {
    "latitude": -2.04207,
    "longitude": 48.45292,
    "name": "Theatre",
    "city": "22 Dinan (les Jacobins)",
    "description": ""
  },
  {
    "latitude": 2.37457,
    "longitude": 48.86145,
    "name": "Theatre",
    "city": "75 Paris (Theatre de l'epouvantail)",
    "description": ""
  },
  {
    "latitude": -3.78998,
    "longitude": 48.58439,
    "name": "Concert",
    "city": "29 Morlaix (Langolvas)",
    "description": ""
  },
  {
    "latitude": 1.05809,
    "longitude": 49.3925,
    "name": "Concert",
    "city": "76 Saint etienne du rouvray (Zenith Rouen)",
    "description": ""
  },
  {
    "latitude": 2.36452,
    "longitude": 48.86621,
    "name": "Theatre",
    "city": "75 Paris 03 (D�jazet)",
    "description": ""
  },
  {
    "latitude": 2.3189,
    "longitude": 48.87886,
    "name": "Theatre",
    "city": "75 Paris (Tristan Bernard)",
    "description": ""
  },
  {
    "latitude": 2.32842,
    "longitude": 48.81525,
    "name": "Theatre",
    "city": "92 Montrouge (Instant Theatre)",
    "description": ""
  },
  {
    "latitude": 5.32992,
    "longitude": 47.69802,
    "name": "Concert",
    "city": "52 Dommarien (La Niche)",
    "description": ""
  },
  {
    "latitude": -1.5027,
    "longitude": 48.20259,
    "name": "Concert",
    "city": "35 Liffre (Centre Culturel)",
    "description": ""
  },
  {
    "latitude": -3.82736,
    "longitude": 47.95748,
    "name": "Theatre",
    "city": "29 Rosporden (Centre culturel)",
    "description": ""
  },
  {
    "latitude": -4.47342,
    "longitude": 48.39813,
    "name": "Concert",
    "city": "29 Brest (La Tete Raide)",
    "description": ""
  },
  {
    "latitude": -2.75131,
    "longitude": 48.18021,
    "name": "Theatre",
    "city": "22 Loudeac (Palais des congres)",
    "description": ""
  },
  {
    "latitude": 2.36602,
    "longitude": 48.86835,
    "name": "Spectacle",
    "city": "75 Paris (Le Temple)",
    "description": ""
  },
  {
    "latitude": -4.06484,
    "longitude": 48.21316,
    "name": "Concert",
    "city": "29 Chateaulin (Le Run ar Puns)",
    "description": ""
  },
  {
    "latitude": -2.98932,
    "longitude": 47.66502,
    "name": "Concert",
    "city": "56 Auray (Athena)",
    "description": ""
  },
  {
    "latitude": -4.56436,
    "longitude": 48.42485,
    "name": "Theatre",
    "city": "29 Guilers (L Agora)",
    "description": ""
  },
  {
    "latitude": -0.06698,
    "longitude": 45.77586,
    "name": "Concert",
    "city": "16 Rouillac (La palene)",
    "description": ""
  },
  {
    "latitude": -2.7609,
    "longitude": 47.66132,
    "name": "Theatre",
    "city": "56 Vannes (Palais des arts)",
    "description": ""
  },
  {
    "latitude": -4.48429,
    "longitude": 48.38918,
    "name": "Spectacle",
    "city": "29 Brest (Le Quartz)",
    "description": ""
  },
  {
    "latitude": 2.31895,
    "longitude": 48.88205,
    "name": "Theatre",
    "city": "75 Paris 17 (H�bertot)",
    "description": ""
  },
  {
    "latitude": -1.68517,
    "longitude": 48.12476,
    "name": "Concert",
    "city": "35 Rennes (Le Dejazey)",
    "description": ""
  },
  {
    "latitude": -0.34676,
    "longitude": 49.18093,
    "name": "Concert",
    "city": "14 Caen (Le Cargo)",
    "description": ""
  },
  {
    "latitude": 2.26608,
    "longitude": 49.89589,
    "name": "Spectacle",
    "city": "80 Amiens (M�gacit�)",
    "description": ""
  },
  {
    "latitude": -0.56574,
    "longitude": 44.88775,
    "name": "Theatre",
    "city": "33 Bordeaux (Casino de Bordeaux)",
    "description": ""
  },
  {
    "latitude": 2.04243,
    "longitude": 48.78352,
    "name": "Theatre",
    "city": "78 Montigny-le-Bretonneux",
    "description": ""
  },
  {
    "latitude": 2.23725,
    "longitude": 48.83189,
    "name": "Theatre",
    "city": "92 Boulogne-Billancourt (Clart�)",
    "description": ""
  },
  {
    "latitude": -4.48115,
    "longitude": 48.38467,
    "name": "Concert",
    "city": "29 Brest (La Carene)",
    "description": ""
  },
  {
    "latitude": 2.34778,
    "longitude": 48.85731,
    "name": "Theatre",
    "city": "75 Paris (Sarah Bernard)",
    "description": ""
  },
  {
    "latitude": -3.40622,
    "longitude": 47.83566,
    "name": "Theatre",
    "city": "56 Pont Scorff (Le strapontin)",
    "description": ""
  },
  {
    "latitude": -3.3738,
    "longitude": 47.74431,
    "name": "Theatre",
    "city": "56 Lorient (Centre dramatique)",
    "description": ""
  },
  {
    "latitude": -2.01646,
    "longitude": 48.63717,
    "name": "Theatre",
    "city": "35 Saint Malo (theatre de saint malo)",
    "description": ""
  },
  {
    "latitude": 3.22965,
    "longitude": 50.17349,
    "name": "Theatre",
    "city": "59 Cambrai (Th�atre Municipal)",
    "description": ""
  },
  {
    "latitude": 2.33525,
    "longitude": 48.8684,
    "name": "Theatre",
    "city": "75 Paris (Bouffes Parisiennes)",
    "description": ""
  },
  {
    "latitude": 2.31217,
    "longitude": 48.89391,
    "name": "Theatre",
    "city": "75 Paris (Th�atre de l'Od�on)",
    "description": ""
  },
  {
    "latitude": 4.82794,
    "longitude": 45.76493,
    "name": "Cabaret",
    "city": "69 Lyon (Au pied dans le plat)",
    "description": "+33 478271326"
  },
  {
    "latitude": -3.84614,
    "longitude": 48.57147,
    "name": "Theatre",
    "city": "29 Saint martin des champs (Espace du roudour)",
    "description": ""
  },
  {
    "latitude": -4.48429,
    "longitude": 48.38928,
    "name": "Concert",
    "city": "29 Brest (Le Vauban)",
    "description": ""
  },
  {
    "latitude": -4.50255,
    "longitude": 48.38445,
    "name": "Theatre/Concert",
    "city": "29 Brest Le Mac Orlan",
    "description": ""
  },
  {
    "latitude": -4.46842,
    "longitude": 48.44862,
    "name": "Theatre",
    "city": "29 Gouesnou (queffelec)",
    "description": ""
  },
  {
    "latitude": -4.26401,
    "longitude": 48.44554,
    "name": "Concert",
    "city": "29 Landerneau Espace St Ernel",
    "description": ""
  },
  {
    "latitude": 4.82664,
    "longitude": 45.76728,
    "name": "Cabaret",
    "city": "69 Lyon (Au 2 pied ds le plat)",
    "description": "+33 478280833"
  },
  {
    "latitude": -1.675,
    "longitude": 48.10542,
    "name": "Theatre",
    "city": "35 Rennes (Les Champs Libres)",
    "description": ""
  },
  {
    "latitude": -4.2544,
    "longitude": 48.44869,
    "name": "Concert",
    "city": "29 Landerneau Le Family",
    "description": ""
  },
  {
    "latitude": 2.34879,
    "longitude": 48.84443,
    "name": "Spectacle",
    "city": "75 Paris (Le Triomphe)",
    "description": ""
  },
  {
    "latitude": -1.68129,
    "longitude": 48.10916,
    "name": "Theatre",
    "city": "35 Rennes (Theatre de la parcheminerie)",
    "description": ""
  },
  {
    "latitude": 2.34244,
    "longitude": 48.87148,
    "name": "Theatre",
    "city": "75 Paris (Theatre Des Varietes)",
    "description": ""
  },
  {
    "latitude": 2.36854,
    "longitude": 48.8691,
    "name": "Spectacle",
    "city": "75 Paris (Palais Des Glaces)",
    "description": ""
  },
  {
    "latitude": -1.6265,
    "longitude": 47.22836,
    "name": "Concert",
    "city": "44 Saint-Herbelain (Zenith Nantes)",
    "description": ""
  },
  {
    "latitude": -3.9222,
    "longitude": 47.87014,
    "name": "Concert",
    "city": "29 Concarneau (Cac)",
    "description": ""
  },
  {
    "latitude": 2.34319,
    "longitude": 48.88277,
    "name": "Theatre",
    "city": "75 Paris (Trianon Th�atre)",
    "description": ""
  },
  {
    "latitude": -4.09717,
    "longitude": 47.99506,
    "name": "Theatre",
    "city": "29 Quimper",
    "description": ""
  },
  {
    "latitude": -1.56198,
    "longitude": 47.21319,
    "name": "Spectacle",
    "city": "44 Nantes",
    "description": ""
  },
  {
    "latitude": -1.21548,
    "longitude": 48.12135,
    "name": "Theatre",
    "city": "35 Vitre (Centre Culturel)",
    "description": ""
  },
  {
    "latitude": -2.76412,
    "longitude": 48.50484,
    "name": "Concert",
    "city": "22 Saint Brieuc (Salle de Robien)",
    "description": ""
  },
  {
    "latitude": -4.36891,
    "longitude": 48.3173,
    "name": "Theatre",
    "city": "29 Plougastel (L Asterie)",
    "description": ""
  },
  {
    "latitude": -3.2338,
    "longitude": 48.78558,
    "name": "Theatre",
    "city": "22 Treguier (theatre de l arche de treguier)",
    "description": ""
  },
  {
    "latitude": -0.58057,
    "longitude": 44.84271,
    "name": "Theatre",
    "city": "33 Bordeaux (20 Rue Rolland) Com�die Gallien",
    "description": ""
  },
  {
    "latitude": -3.4264,
    "longitude": 47.73248,
    "name": "Concert",
    "city": "56 Ploemeur (L Oceanis)",
    "description": ""
  },
  {
    "latitude": -1.69864,
    "longitude": 48.12485,
    "name": "Concert",
    "city": "35 Rennes (Centre leo lagrange)",
    "description": ""
  },
  {
    "latitude": 2.29263,
    "longitude": 49.89405,
    "name": "Spectacle",
    "city": "80 Amiens (Maison de la Culture)",
    "description": ""
  },
  {
    "latitude": 2.64243,
    "longitude": 50.53087,
    "name": "Spectacle",
    "city": "62 B�thune (Th�atre Municipal)",
    "description": ""
  },
  {
    "latitude": 2.33594,
    "longitude": 48.7927,
    "name": "Theatre",
    "city": "94 Cachan",
    "description": ""
  },
  {
    "latitude": 2.30953,
    "longitude": 48.88439,
    "name": "Spectacle",
    "city": "75 Paris (Salle Cortot)",
    "description": ""
  },
  {
    "latitude": -0.5743,
    "longitude": 44.84249,
    "name": "Opera",
    "city": "33 Bordeaux (Place de la Com�die) Op�ra national de Bordeaux",
    "description": ""
  },
  {
    "latitude": -0.63275,
    "longitude": 45.74572,
    "name": "Theatre",
    "city": "17 Saintes",
    "description": ""
  },
  {
    "latitude": -1.68166,
    "longitude": 48.10935,
    "name": "Concert",
    "city": "35 Rennes (Le Bacchus)",
    "description": ""
  },
  {
    "latitude": -0.59782,
    "longitude": 44.81886,
    "name": "Concert",
    "city": "33 Talence (224-226 Cours Gallieni) La Medoquine",
    "description": ""
  },
  {
    "latitude": -4.22532,
    "longitude": 47.86839,
    "name": "Concert",
    "city": "29 Pont L abbe (Le Triskell)",
    "description": ""
  },
  {
    "latitude": -1.69059,
    "longitude": 48.10831,
    "name": "Concert",
    "city": "35 Rennes (Peniche spectacle)",
    "description": ""
  },
  {
    "latitude": -0.32652,
    "longitude": 45.69926,
    "name": "Spectacle",
    "city": "16 Cognac (Avant scene)",
    "description": ""
  },
  {
    "latitude": -2.76092,
    "longitude": 48.5142,
    "name": "Theatre",
    "city": "22 Saint Brieuc (La Passerelle)",
    "description": ""
  },
  {
    "latitude": -2.98848,
    "longitude": 48.19821,
    "name": "Theatre",
    "city": "22 Mur de Bretagne",
    "description": ""
  },
  {
    "latitude": 0.17597,
    "longitude": 44.49713,
    "name": "Theatre",
    "city": "47 Marmande (All�e des Tabacs) Petit Th�atre",
    "description": ""
  },
  {
    "latitude": -1.19556,
    "longitude": 48.34339,
    "name": "Theatre",
    "city": "35 Fougeres (Centre culturel)",
    "description": ""
  },
  {
    "latitude": -1.72153,
    "longitude": 48.06809,
    "name": "Theatre",
    "city": "35 Saint Jacques de la Lande (Theatre de l aire libre)",
    "description": ""
  },
  {
    "latitude": -1.67891,
    "longitude": 48.11131,
    "name": "Concert",
    "city": "35 Rennes (Opera)",
    "description": ""
  },
  {
    "latitude": 2.35694,
    "longitude": 48.85789,
    "name": "Theatre",
    "city": "75 Paris (Point Virgule)",
    "description": ""
  },
  {
    "latitude": -4.48751,
    "longitude": 48.38237,
    "name": "Theatre",
    "city": "29 Brest (Le Fourneau)",
    "description": ""
  },
  {
    "latitude": -0.79276,
    "longitude": 46.46176,
    "name": "Spectacle",
    "city": "85 Fontenay le Comte (la garre)",
    "description": ""
  },
  {
    "latitude": 2.42988,
    "longitude": 48.62882,
    "name": "Theatre",
    "city": "91 �vry (Agora)",
    "description": ""
  },
  {
    "latitude": -4.36225,
    "longitude": 48.37116,
    "name": "Concert",
    "city": "29 Plougastel Daoulas (Avel vor)",
    "description": ""
  },
  {
    "latitude": -1.65748,
    "longitude": 48.11457,
    "name": "Theatre",
    "city": "35 Rennes (Theatre du cercle)",
    "description": ""
  },
  {
    "latitude": 2.39388,
    "longitude": 48.88888,
    "name": "Spectacle",
    "city": "75 Paris (Cit� De La Musique)",
    "description": ""
  },
  {
    "latitude": 5.59047,
    "longitude": 45.36464,
    "name": "Spectacle",
    "city": "38 Voiron (Le Grand Angle Place des arcades)",
    "description": ""
  },
  {
    "latitude": 2.33035,
    "longitude": 48.85179,
    "name": "Theatre",
    "city": "75 Paris (Com. Franc.-Th�atre du Vieux Colombiers)",
    "description": ""
  }
]